timestamp,TimeUS,Instance,Volt,VoltR,Curr,CurrTot,EnrgTot,Temp,Res,RemPct
1671001029.87954187,146219950,0,24.78410530090332,24.872312545776367,0.5995841026306152,26.069232940673828,0.6470214128494263,0.0,0.1471143513917923,99
1671001029.97951388,146319922,0,24.77631378173828,24.862590789794922,0.5864646434783936,26.085519790649414,0.6474249362945557,0.0,0.1471143513917923,99
1671001030.07951689,146419925,0,24.73773193359375,24.81123161315918,0.4996150732040405,26.09939956665039,0.6477683186531067,0.0,0.1471143513917923,99
1671001030.17944002,146519848,0,24.769433975219727,24.853960037231445,0.5745642185211182,26.11534881591797,0.648163378238678,0.0,0.1471143513917923,99
1671001030.27945399,146619862,0,24.799291610717773,24.89324378967285,0.6386356949806213,26.133092880249023,0.6486034393310547,0.0,0.1471143513917923,99
1671001030.37947083,146719879,0,24.788379669189453,24.8785400390625,0.6128571033477783,26.150121688842773,0.649025559425354,0.0,0.1471143513917923,99
1671001030.47949696,146819905,0,24.779857635498047,24.866811752319336,0.5910679697990417,26.16654396057129,0.6494325399398804,0.0,0.1471143513917923,99
1671001030.57942390,146919832,0,24.779857635498047,24.867534637451172,0.5959782004356384,26.183090209960938,0.6498425602912903,0.0,0.1471143513917923,99
1671001030.67955089,147019959,0,24.745487213134766,24.823501586914062,0.530303955078125,26.19784164428711,0.6502075791358948,0.0,0.1471143513917923,99
1671001030.77949095,147119899,0,24.798526763916016,24.893291473388672,0.644159734249115,26.21572494506836,0.6506510972976685,0.0,0.1471143513917923,99
1671001030.87949085,147219899,0,24.788475036621094,24.8792667388916,0.617153525352478,26.23287010192871,0.651076078414917,0.0,0.1471143513917923,99
1671001030.97950482,147319913,0,24.793790817260742,24.887798309326172,0.6390108466148376,26.25062370300293,0.6515162587165833,0.0,0.1471143513917923,99
1671001031.07944894,147419857,0,24.773059844970703,24.859111785888672,0.5849302411079407,26.266862869262695,0.6519185900688171,0.0,0.1471143513917923,99
1671001031.17947793,147519886,0,24.7459659576416,24.8239803314209,0.530303955078125,26.281599044799805,0.652283251285553,0.0,0.1471143513917923,99
1671001031.27947688,147619885,0,24.80455780029297,24.89995574951172,0.6484561562538147,26.29961395263672,0.6527301073074341,0.0,0.1471143513917923,99
1671001031.37946582,147719874,0,24.788856506347656,24.880054473876953,0.6199154853820801,26.31683349609375,0.6531569361686707,0.0,0.1471143513917923,99
1671001031.47947598,147819884,0,24.793930053710938,24.887069702148438,0.6331117153167725,26.334423065185547,0.6535930633544922,0.0,0.1471143513917923,99
1671001031.57953095,147919939,0,24.741561889648438,24.818492889404297,0.52293860912323,26.34895896911621,0.6539526581764221,0.0,0.1471143513917923,99
1671001031.67951584,148019924,0,24.771814346313477,24.857820510864258,0.5846232771873474,26.365198135375977,0.6543549299240112,0.0,0.1471143513917923,99
1671001031.77945590,148119864,0,24.798622131347656,24.89293670654297,0.6410908699035645,26.382997512817383,0.654796302318573,0.0,0.1471143513917923,99
1671001031.87949586,148219904,0,24.77794075012207,24.865928649902344,0.598092257976532,26.39961814880371,0.655208170413971,0.0,0.1471143513917923,99
1671001031.97949100,148319899,0,24.797855377197266,24.892847061157227,0.6456941366195679,26.41755485534668,0.6556529402732849,0.0,0.1471143513917923,99
1671001032.07940292,148419811,0,24.697330474853516,24.913366317749023,1.4874904155731201,26.458843231201172,0.6566726565361023,0.0,0.1452355831861496,99
1671001032.17945385,148519862,0,24.28307342529297,24.959068298339844,4.7165751457214355,26.589937210083008,0.6598560214042664,0.0,0.14332315325737,99
1671001032.27952886,148619937,0,24.49752426147461,24.93254280090332,3.055692434310913,26.674888610839844,0.6619371175765991,0.0,0.1423635631799698,99
1671001032.37947583,148719884,0,24.621028900146484,24.93341636657715,2.2071449756622314,26.736169815063477,0.6634459495544434,0.0,0.14153443276882172,99
1671001032.47949290,148819901,0,24.599775314331055,24.9102840423584,2.1970174312591553,26.797212600708008,0.6649476289749146,0.0,0.14133210480213165,99
1671001032.57950497,148919913,0,24.580148696899414,24.873212814331055,2.064134359359741,26.85456085205078,0.6663572788238525,0.0,0.14197933673858643,99
1671001032.67956686,149019975,0,24.584123611450195,24.865537643432617,1.9719314575195312,26.909374237060547,0.6677048206329346,0.0,0.14270946383476257,99
1671001032.77958894,149119997,0,24.63529396057129,24.924083709716797,2.023625135421753,26.965572357177734,0.6690892577171326,0.0,0.14270946383476257,99
1671001032.87947702,149219885,0,24.63002586364746,24.909137725830078,1.9558026790618896,27.019872665405273,0.6704267263412476,0.0,0.14270946383476257,99
1671001032.97947097,149319879,0,24.642568588256836,24.92128562927246,1.9530408382415771,27.074125289916992,0.6717635989189148,0.0,0.14270946383476257,99
1671001033.07951403,149419922,0,24.59173011779785,24.85345458984375,1.833967685699463,27.12509536743164,0.6730170249938965,0.0,0.14270946383476257,99
1671001033.17951703,149519925,0,24.617101669311523,24.887279510498047,1.8931974172592163,27.177688598632812,0.6743117570877075,0.0,0.14270946383476257,99
1671001033.27944493,149619853,0,24.643239974975586,24.922088623046875,1.9539614915847778,27.231931686401367,0.6756484508514404,0.0,0.14270946383476257,99
1671001033.37945485,149719863,0,24.641324996948242,24.91842269897461,1.9416857957839966,27.285877227783203,0.6769777536392212,0.0,0.14270946383476257,99
1671001033.47950983,149819918,0,24.637739181518555,24.91623306274414,1.951472282409668,27.340118408203125,0.6783141493797302,0.0,0.14270946383476257,99
1671001033.57949090,149919899,0,24.63002586364746,24.906421661376953,1.9367755651474,27.393911361694336,0.6796391010284424,0.0,0.14270946383476257,99
1671001033.67955399,150019962,0,24.58905029296875,24.852352142333984,1.8450158834457397,27.44519805908203,0.6809002161026001,0.0,0.14270946383476257,99
1671001033.77954793,150119956,0,24.60934829711914,24.880882263183594,1.902711033821106,27.498050689697266,0.6822008490562439,0.0,0.14270946383476257,99
1671001033.87948799,150219896,0,24.633378982543945,24.913015365600586,1.9594855308532715,27.552453994750977,0.6835409998893738,0.0,0.14270946383476257,99
1671001033.97959590,150320004,0,24.61920738220215,24.894855499267578,1.9309449195861816,27.60615348815918,0.6848630309104919,0.0,0.14275288581848145,99
1671001034.07964087,150420049,0,24.60130500793457,24.87103843688965,1.8895148038864136,27.658668518066406,0.6861549615859985,0.0,0.14275288581848145,99
1671001034.17950392,150519912,0,24.592018127441406,24.85741424560547,1.8591326475143433,27.71024513244629,0.6874232888221741,0.0,0.14275288581848145,99
1671001034.27956080,150619969,0,24.624187469482422,24.90154457092285,1.9429134130477905,27.764249801635742,0.6887531280517578,0.0,0.14275288581848145,99
1671001034.37959981,150720008,0,24.628910064697266,24.906953811645508,1.9477214813232422,27.818378448486328,0.6900862455368042,0.0,0.14275288581848145,99
1671001034.47953892,150819947,0,24.62744140625,24.906944274902344,1.9579509496688843,27.872737884521484,0.6914249658584595,0.0,0.14275288581848145,99
1671001034.57954788,150919956,0,24.576030731201172,24.8369140625,1.8275232315063477,27.923490524291992,0.6926722526550293,0.0,0.14275288581848145,99
1671001034.67953992,151019948,0,24.610687255859375,24.884469985961914,1.9177486896514893,27.976781845092773,0.693983793258667,0.0,0.142762690782547,99
1671001034.77954698,151119955,0,24.63069725036621,24.909080505371094,1.9499719142913818,28.030956268310547,0.6953181624412537,0.0,0.142762690782547,99
1671001034.87951183,151219920,0,24.61815643310547,24.915992736816406,2.086230516433716,28.088891983032227,0.696744441986084,0.0,0.142762690782547,99
1671001034.97951698,151319925,0,24.448604583740234,24.979450225830078,3.7707433700561523,28.193649291992188,0.6993055939674377,0.0,0.1407800167798996,99
1671001035.07954502,151419953,0,23.08596420288086,25.082693099975586,15.157855033874512,28.614852905273438,0.709029495716095,0.0,0.13172897696495056,99
1671001035.17955995,151519968,0,22.45467185974121,25.078245162963867,20.802770614624023,29.192840576171875,0.7220080494880676,0.0,0.12611651420593262,99
1671001035.27957892,151619987,0,21.579973220825195,25.070419311523438,30.02737045288086,30.027158737182617,0.7400126457214355,0.0,0.11624214053153992,99
1671001035.37960482,151720013,0,21.58919906616211,25.061750411987305,32.97612762451172,30.94347381591797,0.7597951292991638,0.0,0.1053050234913826,99
1671001035.47963190,151820040,0,22.176071166992188,24.730796813964844,24.194198608398438,31.61576271057129,0.774703860282898,0.0,0.10559248179197311,99
1671001035.57961583,151920024,0,22.566011428833008,24.86612319946289,21.82225227355957,32.22188949584961,0.7883816957473755,0.0,0.10540212690830231,99
1671001035.67955184,152019960,0,22.69181251525879,24.721845626831055,19.205413818359375,32.75508117675781,0.8004807233810425,0.0,0.10570111870765686,99
1671001035.77958393,152119992,0,22.798749923706055,24.88700294494629,19.80660629272461,33.30548095703125,0.8130291104316711,0.0,0.1054321676492691,99
1671001035.87958002,152219988,0,22.57261848449707,24.922958374023438,22.367902755737305,33.92683792114258,0.8270547389984131,0.0,0.10507643967866898,99
1671001035.97959781,152320006,0,22.474199295043945,24.814058303833008,22.25956916809082,34.54531478881836,0.8409544825553894,0.0,0.10511700809001923,99
1671001036.07957602,152419984,0,22.545547485351562,24.84333038330078,21.871627807617188,35.15276336669922,0.8546497225761414,0.0,0.10505768656730652,99
1671001036.17956591,152519974,0,22.486358642578125,24.774934768676758,21.7489070892334,35.75691223144531,0.8682348132133484,0.0,0.10522715002298355,99
1671001036.27954984,152619958,0,22.53786277770996,24.834144592285156,21.830846786499023,36.363277435302734,0.88190096616745,0.0,0.10518515855073929,99
1671001036.37957788,152719986,0,22.45332908630371,24.803791046142578,22.332916259765625,36.98386001586914,0.8958351016044617,0.0,0.10524655133485794,99
1671001036.47953987,152819948,0,22.45505142211914,24.903255462646484,23.3214054107666,37.63147735595703,0.9103773236274719,0.0,0.10497669875621796,99
1671001036.57951593,152919924,0,22.433225631713867,24.8139705657959,22.66773223876953,38.26103591918945,0.9245003461837769,0.0,0.10502791404724121,99
1671001036.67954493,153019953,0,22.421831130981445,24.808677673339844,22.712230682373047,38.89216995239258,0.9386515617370605,0.0,0.10509078204631805,99
1671001036.77956581,153119974,0,22.365921020507812,24.865915298461914,23.818565368652344,39.55398178100586,0.9534536004066467,0.0,0.10495992749929428,99
1671001036.87956095,153219969,0,22.344497680664062,24.86986541748047,24.0900936126709,40.22317123413086,0.9684063196182251,0.0,0.10483016073703766,99
1671001036.97959781,153320006,0,22.29153060913086,24.820693969726562,24.115942001342773,40.893367767333984,0.9833459854125977,0.0,0.10487513244152069,99
1671001037.07963395,153420042,0,22.270755767822266,24.818212509155273,24.279205322265625,41.56803894042969,0.998371422290802,0.0,0.10492341965436935,99
1671001037.17963791,153520046,0,22.20383644104004,24.8102970123291,24.82516098022461,42.25775909423828,1.0136858224868774,0.0,0.10499268025159836,99
1671001037.27959299,153620001,0,22.203643798828125,24.842575073242188,25.144939422607422,42.955970764160156,1.029188632965088,0.0,0.10494883358478546,99
1671001037.37957788,153719986,0,22.15816879272461,24.801054000854492,25.159364700317383,43.65478515625,1.0446730852127075,0.0,0.10504581779241562,99
1671001037.47959495,153820003,0,22.15251922607422,24.84307098388672,25.625526428222656,44.366783142089844,1.0604456663131714,0.0,0.1049950122833252,99
1671001037.57957387,153919982,0,22.065589904785156,24.740150451660156,25.402420043945312,45.072322845458984,1.0760138034820557,0.0,0.10528762638568878,99
1671001037.67954493,154019953,0,22.128978729248047,24.782487869262695,25.1727294921875,45.771419525146484,1.0914840698242188,0.0,0.10541203618049622,99
1671001037.77955580,154119964,0,22.30953025817871,24.8501033782959,24.079727172851562,46.4404296875,1.1064093112945557,0.0,0.10550675541162491,99
1671001037.87955999,154219968,0,22.37884521484375,24.80978775024414,23.049503326416016,47.08076477050781,1.120739221572876,0.0,0.10546617209911346,99
1671001037.97957301,154319981,0,22.354909896850586,24.766250610351562,22.89728546142578,47.71693420410156,1.1349607706069946,0.0,0.10531122237443924,99
1671001038.07952595,154419934,0,22.29804039001465,24.683744430541992,22.730337142944336,48.34809112548828,1.1490343809127808,0.0,0.10495682060718536,99
1671001038.17953181,154519940,0,22.30445671081543,24.64699363708496,22.40012550354004,48.97040557861328,1.162914752960205,0.0,0.10457693785429001,99
1671001038.27952600,154619934,0,22.33231544494629,24.680219650268555,22.494647979736328,49.59526824951172,1.1768693923950195,0.0,0.10437612980604172,99
1671001038.37958097,154719989,0,22.414077758789062,24.726621627807617,22.161060333251953,50.21124267578125,1.1906758546829224,0.0,0.10435166954994202,99
1671001038.47961402,154820022,0,22.3901424407959,24.6937313079834,22.09906578063965,50.82535171508789,1.2044258117675781,0.0,0.10423915833234787,99
1671001038.57963586,154920044,0,22.37928009033203,24.615745544433594,21.519046783447266,51.423282623291016,1.2178070545196533,0.0,0.10392957180738449,99
1671001038.67962980,155020038,0,22.382387161254883,24.614578247070312,21.528560638427734,52.02131652832031,1.2311924695968628,0.0,0.10368514060974121,99
1671001038.77957582,155119984,0,22.419628143310547,24.702383041381836,22.003625869750977,52.63224792480469,1.244889259338379,0.0,0.1037444993853569,99
1671001038.87959695,155220005,0,22.455244064331055,24.740205764770508,21.992271423339844,53.24332046508789,1.2586110830307007,0.0,0.10389839857816696,99
1671001038.97958493,155319993,0,22.461273193359375,24.69075584411621,21.462581634521484,53.8394775390625,1.2720016241073608,0.0,0.10387765616178513,99
1671001039.07960391,155420012,0,22.349645614624023,24.56825828552246,21.35793113708496,54.43290710449219,1.2852646112442017,0.0,0.10387765616178513,99
1671001039.17955780,155519966,0,22.347156524658203,24.623565673828125,21.91431999206543,55.041412353515625,1.2988629341125488,0.0,0.10387765616178513,99
1671001039.27955294,155619961,0,22.35270881652832,24.66742706298828,22.283815383911133,55.66042709350586,1.312699556350708,0.0,0.10387438535690308,99
1671001039.37958288,155719991,0,22.379491806030273,24.693649291992188,22.278427124023438,56.27940368652344,1.326551914215088,0.0,0.10387438535690308,99
1671001039.47955990,155819968,0,22.37156867980957,24.651538848876953,21.94930648803711,56.88911819458008,1.340192198753357,0.0,0.10387438535690308,99
1671001039.57955384,155919962,0,22.414077758789062,24.68667984008789,21.8670597076416,57.496543884277344,1.3538070917129517,0.0,0.10392807424068451,99
1671001039.67951894,156019927,0,22.411396026611328,24.70382308959961,22.038610458374023,58.108524322509766,1.3675224781036377,0.0,0.10401871055364609,99
1671001039.77954793,156119956,0,22.422021865844727,24.703227996826172,21.916160583496094,58.717567443847656,1.3811784982681274,0.0,0.10408782958984375,99
1671001039.87957191,156219980,0,22.439924240112305,24.70456314086914,21.744918823242188,59.32179260253906,1.3947372436523438,0.0,0.10414563864469528,99
1671001039.97958803,156319996,0,22.478796005249023,24.69719123840332,21.29593849182129,59.913490295410156,1.4080379009246826,0.0,0.10416986048221588,99
1671001040.07958698,156419995,0,22.487123489379883,24.63630485534668,20.662212371826172,60.48748016357422,1.4209452867507935,0.0,0.104015052318573,99
1671001040.17952394,156519932,0,22.485124588012695,24.57779884338379,20.17487335205078,61.047584533691406,1.4335392713546753,0.0,0.10372673720121384,99
1671001040.27963281,156620041,0,22.528194427490234,24.629749298095703,20.27553367614746,61.611446380615234,1.446242094039917,0.0,0.10364983230829239,99
1671001040.37957692,156719985,0,22.529632568359375,24.587005615234375,19.88425064086914,62.16352081298828,1.4586801528930664,0.0,0.10346744954586029,99
1671001040.47958088,156819989,0,22.564289093017578,24.60260581970215,19.71883773803711,62.71133041381836,1.4710410833358765,0.0,0.10336901992559433,99
1671001040.57958794,156919996,0,22.525516510009766,24.588348388671875,19.97877311706543,63.26638412475586,1.4835439920425415,0.0,0.10325121879577637,99
1671001040.67963600,157020044,0,22.556915283203125,24.615795135498047,19.943172454833984,63.82061767578125,1.496045708656311,0.0,0.10323736071586609,99
1671001040.77955103,157119959,0,22.570608139038086,24.63960075378418,20.03002166748047,64.37663269042969,1.50859534740448,0.0,0.10329456627368927,99
1671001040.87959385,157220002,0,22.554044723510742,24.60114288330078,19.83054542541504,64.9277572631836,1.5210254192352295,0.0,0.10322953015565872,99
1671001040.97956181,157319970,0,22.567543029785156,24.631784439086914,19.989513397216797,65.48289489746094,1.5335534811019897,0.0,0.10326623171567917,99
1671001041.07955480,157419963,0,22.53809928894043,24.580596923828125,19.801494598388672,66.03294372558594,1.5459505319595337,0.0,0.10314866155385971,99
1671001041.17948985,157519898,0,22.536237716674805,24.548870086669922,19.546672821044922,66.57559967041016,1.5581798553466797,0.0,0.10296548157930374,99
1671001041.27951598,157619924,0,22.567642211914062,24.59857177734375,19.724668502807617,67.12369537353516,1.5705490112304688,0.0,0.10296394675970078,99
1671001041.37955689,157719965,0,22.609094619750977,24.59687042236328,19.306686401367188,67.6602554321289,1.582680106163025,0.0,0.10295785963535309,99
1671001041.47958899,157819997,0,22.60765838623047,24.577199935913086,19.140966415405273,68.19215393066406,1.5947051048278809,0.0,0.10289670526981354,99
1671001041.57958293,157919991,0,22.58333969116211,24.515687942504883,18.820573806762695,68.7149658203125,1.6065118312835693,0.0,0.10267213732004166,99
1671001041.67958283,158019991,0,22.588703155517578,24.529621124267578,18.92921257019043,69.2408218383789,1.6183902025222778,0.0,0.10253562778234482,99
1671001041.77962589,158120034,0,22.635709762573242,24.583934783935547,18.99151039123535,69.76863098144531,1.6303375959396362,0.0,0.10258402675390244,99
1671001041.87964392,158220052,0,22.637985229492188,24.568660736083984,18.821495056152344,70.29141235351562,1.6421723365783691,0.0,0.10257824510335922,99
1671001041.97958302,158319991,0,22.67228126525879,24.550710678100586,18.322185516357422,70.80025482177734,1.6537089347839355,0.0,0.102522112429142,99
1671001042.07964897,158420057,0,22.65610122680664,24.516986846923828,18.17610740661621,71.30552673339844,1.665156364440918,0.0,0.1023809164762497,99
1671001042.17957401,158519982,0,22.6684513092041,24.530805587768555,18.203113555908203,71.81082916259766,1.6766108274459839,0.0,0.10230964422225952,99
1671001042.27956080,158619969,0,22.672183990478516,24.544496536254883,18.303466796875,72.3192367553711,1.688137412071228,0.0,0.1022927463054657,99
1671001042.37956500,158719973,0,22.672855377197266,24.541866302490234,18.274925231933594,72.8269271850586,1.6996482610702515,0.0,0.10227186977863312,99
1671001042.47962284,158820031,0,22.733457565307617,24.60239028930664,18.246078491210938,73.33409881591797,1.7111780643463135,0.0,0.10242932289838791,99
1671001042.57955098,158919959,0,22.666152954101562,24.53484344482422,18.25620460510254,73.84088897705078,1.7226650714874268,0.0,0.10235919058322906,99
1671001042.67956781,159019976,0,22.661813735961914,24.4790096282959,17.79068946838379,74.33519744873047,1.7338670492172241,0.0,0.1021430566906929,99
1671001042.77952099,159119929,0,22.71890640258789,24.564048767089844,18.05120277404785,74.83642578125,1.745254397392273,0.0,0.1022171825170517,99
1671001042.87953281,159219941,0,22.72034454345703,24.569461822509766,18.076982498168945,75.33866119384766,1.7566654682159424,0.0,0.10229124128818512,99
1671001042.97956991,159319978,0,22.6812801361084,24.54847526550293,18.254056930541992,75.845947265625,1.7681713104248047,0.0,0.1022893637418747,99
1671001043.07955694,159419965,0,22.670366287231445,24.51850700378418,18.06777572631836,76.3478012084961,1.7795486450195312,0.0,0.1022893637418747,99
1671001043.17955685,159519965,0,22.690948486328125,24.51116943359375,17.811216354370117,76.84259796142578,1.790776014328003,0.0,0.10219515860080719,99
1671001043.27960587,159620014,0,22.719575881958008,24.580156326293945,18.184083938598633,77.3479995727539,1.8022584915161133,0.0,0.10231912136077881,99
1671001043.37967181,159720080,0,22.731351852416992,24.58006477355957,18.05089569091797,77.84976196289062,1.8136643171310425,0.0,0.10241663455963135,99
1671001043.47958493,159819993,0,22.708757400512695,24.569822311401367,18.171504974365234,78.3541488647461,1.8251183032989502,0.0,0.10241663455963135,99
1671001043.57959080,159919999,0,22.638837814331055,24.493797302246094,18.111900329589844,78.8573226928711,1.8365095853805542,0.0,0.10241663455963135,99
1671001043.67956686,160019975,0,22.72723388671875,24.568218231201172,17.964048385620117,79.35624694824219,1.8478487730026245,0.0,0.10248155146837234,99
1671001043.77961588,160120024,0,22.736713409423828,24.572978973388672,17.906658172607422,79.85383605957031,1.8591623306274414,0.0,0.10254652798175812,99
1671001043.87955189,160219960,0,22.730012893676758,24.579498291015625,18.023277282714844,80.35430145263672,1.8705379962921143,0.0,0.10261648893356323,99
1671001043.97959089,160319999,0,22.746286392211914,24.580598831176758,17.8652286529541,80.85079193115234,1.8818312883377075,0.0,0.10267505049705505,99
1671001044.07955790,160419966,0,22.749828338623047,24.567398071289062,17.700735092163086,81.34235382080078,1.8930143117904663,0.0,0.10268333554267883,99
1671001044.17964697,160520055,0,22.767444610595703,24.472936630249023,16.65240478515625,81.80533599853516,1.903555154800415,0.0,0.10241721570491791,99
1671001044.27957582,160619984,0,22.842409133911133,24.58665657043457,17.011157989501953,82.2776107788086,1.914342999458313,0.0,0.10253547132015228,99
1671001044.37956595,160719974,0,22.67043113708496,24.594804763793945,18.791828155517578,82.79959106445312,1.9261765480041504,0.0,0.10240483283996582,99
1671001044.47956181,160819970,0,22.493635177612305,24.54014778137207,19.97263526916504,83.35440826416016,1.9386564493179321,0.0,0.10246579349040985,99
1671001044.57956195,160919970,0,22.443660736083984,24.5457763671875,20.508155822753906,83.92412567138672,1.9514429569244385,0.0,0.10250141471624374,99
1671001044.67958879,161019997,0,22.455913543701172,24.530086517333984,20.219371795654297,84.48596954345703,1.9640597105026245,0.0,0.10258349776268005,98
1671001044.77963400,161120042,0,22.45581817626953,24.563365936279297,20.551733016967773,85.05715942382812,1.97688627243042,0.0,0.10254845768213272,98
1671001044.87961483,161220023,0,22.435331344604492,24.582563400268555,20.957746505737305,85.63925170898438,1.9899457693099976,0.0,0.10245532542467117,98
1671001044.97967291,161320081,0,22.422119140625,24.560035705566406,20.868749618530273,86.21931457519531,2.0029520988464355,0.0,0.10244586318731308,98
1671001045.07960296,161420011,0,22.37501335144043,24.535051345825195,21.06976318359375,86.80422973632812,2.0160396099090576,0.0,0.10251841694116592,98
1671001045.17961097,161520019,0,22.37630271911621,24.571332931518555,21.42220687866211,87.39938354492188,2.0293569564819336,0.0,0.10246514528989792,98
1671001045.27959681,161620005,0,22.342369079589844,24.537084579467773,21.405805587768555,87.99394989013672,2.0426409244537354,0.0,0.10252895951271057,98
1671001045.37961984,161720028,0,22.32254981994629,24.472301483154297,20.912940979003906,88.5750503540039,2.055612564086914,0.0,0.10279527306556702,98
1671001045.47957087,161819979,0,22.426618576049805,24.648571014404297,21.68599510192871,89.17719268798828,2.0691165924072266,0.0,0.10246027261018753,98
1671001045.57960486,161920013,0,22.39579200744629,24.736530303955078,22.976770401000977,89.81570434570312,2.08341646194458,0.0,0.10187409818172455,98
1671001045.67957282,162019981,0,22.421735763549805,24.79419708251953,23.451526641845703,90.46697235107422,2.0980191230773926,0.0,0.10116451233625412,98
1671001045.77956986,162119978,0,22.533462524414062,24.854387283325195,22.94209098815918,91.10428619384766,2.112380027770996,0.0,0.10116451233625412,98
1671001045.87951684,162219925,0,22.59444808959961,24.853839874267578,22.333837509155273,91.72431945800781,2.126389503479004,0.0,0.10116451233625412,98
1671001045.97956395,162319972,0,22.570117950439453,24.844980239868164,22.486770629882812,92.34937286376953,2.1404969692230225,0.0,0.10116451233625412,98
1671001046.07957196,162419980,0,22.434850692749023,24.742685317993164,22.83989715576172,92.98391723632812,2.1547329425811768,0.0,0.10104402154684067,98
1671001046.17956090,162519969,0,22.319007873535156,24.725059509277344,23.82378387451172,93.64566802978516,2.1695024967193604,0.0,0.10099371522665024,98
1671001046.27958202,162619990,0,22.22700309753418,24.62873077392578,23.71759796142578,94.30467987060547,2.184150457382202,0.0,0.10126353800296783,98
1671001046.37962484,162720033,0,22.216951370239258,24.611839294433594,23.58103370666504,94.96004486083984,2.1987106800079346,0.0,0.10155989229679108,98
1671001046.47966981,162820078,0,22.13461685180664,24.521160125732422,23.36989402770996,95.60955047607422,2.213087320327759,0.0,0.10212040692567825,98
1671001046.57963800,162920046,0,22.154434204101562,24.581607818603516,23.697036743164062,96.26764678955078,2.2276670932769775,0.0,0.1024252325296402,98
1671001046.67961001,163020018,0,22.2099609375,24.62857437133789,23.58594512939453,96.92267608642578,2.242215156555176,0.0,0.10254472494125366,98
1671001046.77962995,163120038,0,22.336624145507812,24.696643829345703,22.99211311340332,97.56145477294922,2.256483316421509,0.0,0.10264476388692856,98
1671001046.87954783,163219956,0,22.15461540222168,24.464303970336914,22.501771926879883,98.18604278564453,2.2703208923339844,0.0,0.10264476388692856,98
1671001046.97964382,163320052,0,21.943618774414062,24.30127716064453,22.969097137451172,98.82481384277344,2.2843377590179443,0.0,0.10264476388692856,98
1671001047.07957792,163419986,0,21.87612533569336,24.229907989501953,22.931350708007812,99.46142578125,2.298264265060425,0.0,0.10264476388692856,98
1671001047.17961788,163520026,0,22.011018753051758,24.145904541015625,20.798778533935547,100.03944396972656,2.3109869956970215,0.0,0.10264476388692856,98
1671001047.27957487,163619983,0,22.164966583251953,24.210208892822266,20.0640869140625,100.59658813476562,2.323335886001587,0.0,0.101935476064682,98
1671001047.37953997,163719948,0,22.25725746154785,24.288354873657227,19.99012565612793,101.15171813964844,2.3356916904449463,0.0,0.10160499811172485,98
1671001047.47954988,163819958,0,22.267501831054688,24.249916076660156,19.58196449279785,101.69576263427734,2.347806215286255,0.0,0.1012367308139801,98
1671001047.57954288,163919951,0,22.285457611083984,24.214937210083008,19.132476806640625,102.22722625732422,2.359650135040283,0.0,0.10084838420152664,98
1671001047.67957282,164019981,0,22.41082000732422,24.337318420410156,19.094011306762695,102.75782012939453,2.3715410232543945,0.0,0.10089542716741562,98
1671001047.77957392,164119982,0,22.532695770263672,24.478803634643555,19.204185485839844,103.29132080078125,2.3835620880126953,0.0,0.10133769363164902,98
1671001047.87964702,164220055,0,22.515365600585938,24.4685001373291,19.21339225769043,103.82545471191406,2.3955881595611572,0.0,0.10165481269359589,98
1671001047.97963691,164320045,0,22.617040634155273,24.473125457763672,18.211706161499023,104.33132934570312,2.407029628753662,0.0,0.10191716998815536,98
1671001048.07971883,164420127,0,22.652942657470703,24.426555633544922,17.39016342163086,104.81464385986328,2.417978048324585,0.0,0.10198940336704254,98
1671001048.17958283,164519991,0,22.545141220092773,24.337162017822266,17.605295181274414,105.30323791503906,2.4289934635162354,0.0,0.10178875923156738,98
1671001048.27959180,164620000,0,22.543323516845703,24.390193939208984,18.145111083984375,105.80735778808594,2.4403579235076904,0.0,0.10178335011005402,98
1671001048.37966490,164720073,0,22.554716110229492,24.40397834777832,18.16229820251465,106.31227111816406,2.4517459869384766,0.0,0.10181871056556702,98
1671001048.47954202,164819950,0,22.601818084716797,24.470291137695312,18.311717987060547,106.82035064697266,2.4632294178009033,0.0,0.10203702002763748,98
1671001048.57956100,164919969,0,22.454479217529297,24.366043090820312,18.734031677246094,107.34088134765625,2.4749176502227783,0.0,0.10203702002763748,98
1671001048.67957497,165019983,0,22.421064376831055,24.365337371826172,19.032018661499023,107.86966705322266,2.4867734909057617,0.0,0.10215799510478973,98
1671001048.77963686,165120045,0,22.44021224975586,24.41423225402832,19.33277130126953,108.40706634521484,2.4988327026367188,0.0,0.10210748761892319,98
1671001048.87957096,165219979,0,22.457923889160156,24.40024185180664,19.022197723388672,108.9351577758789,2.5106923580169678,0.0,0.10210798680782318,98
1671001048.97955585,165319964,0,22.45505142211914,24.472305297851562,19.801082611083984,109.48515319824219,2.5230424404144287,0.0,0.10187593847513199,98
1671001049.07954288,165419951,0,22.42384147644043,24.398258209228516,19.374202728271484,110.02330017089844,2.535109758377075,0.0,0.10190960019826889,98
1671001049.17957401,165519982,0,22.431310653686523,24.374797821044922,19.070688247680664,110.5532455444336,2.5469970703125,0.0,0.10190960019826889,98
1671001049.27959681,165620005,0,22.50182342529297,24.466201782226562,19.27568817138672,111.0888442993164,2.559049129486084,0.0,0.10190960019826889,98
1671001049.37963200,165720040,0,22.403928756713867,24.383024215698242,19.40182113647461,111.62801361083984,2.5711286067962646,0.0,0.10200563818216324,98
1671001049.47961593,165820024,0,22.45342445373535,24.48849105834961,19.950536727905273,112.1821517944336,2.583570957183838,0.0,0.10200563818216324,98
1671001049.57965493,165920063,0,22.471519470214844,24.422134399414062,19.122859954833984,112.71359252929688,2.595513343811035,0.0,0.10200436413288116,98
1671001049.67969680,166020105,0,22.435426712036133,24.35107421875,18.78006362915039,113.23551940917969,2.6072230339050293,0.0,0.10200436413288116,98
1671001049.77958083,166119989,0,22.458688735961914,24.39509391784668,18.991817474365234,113.76249694824219,2.61905837059021,0.0,0.1019599437713623,98
1671001049.87961197,166220020,0,22.49555015563965,24.422250747680664,18.888702392578125,114.28738403320312,2.630866050720215,0.0,0.10200278460979462,98
1671001049.97962499,166320033,0,22.510868072509766,24.39865493774414,18.513378143310547,114.8017578125,2.6424450874328613,0.0,0.10196875035762787,98
1671001050.07960486,166420013,0,22.539588928222656,24.363454818725586,17.90900993347168,115.2991714477539,2.653656482696533,0.0,0.10184065252542496,98
1671001050.17958689,166519995,0,22.500049591064453,24.329082489013672,17.99504280090332,115.79898071289062,2.6649022102355957,0.0,0.10164092481136322,98
1671001050.27962089,166620029,0,22.48195457458496,24.350881576538086,18.38755226135254,116.3099594116211,2.6763899326324463,0.0,0.10164092481136322,98
1671001050.37958097,166719989,0,22.612253189086914,24.460939407348633,18.146032333374023,116.81379699707031,2.6877827644348145,0.0,0.10187826305627823,98
1671001050.47955585,166819964,0,22.56275749206543,24.37584686279297,17.806612014770508,117.30840301513672,2.6989424228668213,0.0,0.10182111710309982,98
1671001050.57958698,166919995,0,22.582191467285156,24.30771255493164,16.986913681030273,117.78044891357422,2.709602117538452,0.0,0.10157943516969681,98
1671001050.67955303,167019961,0,22.522451400756836,24.347415924072266,17.96588897705078,118.27936553955078,2.720839023590088,0.0,0.10157943516969681,98
1671001050.77959180,167120000,0,22.554616928100586,24.383586883544922,17.998111724853516,118.779541015625,2.7321202754974365,0.0,0.1016201376914978,98
1671001050.87957597,167219984,0,22.660539627075195,24.43030548095703,17.386960983276367,119.26248931884766,2.7430641651153564,0.0,0.10178691148757935,98
1671001050.97958302,167319991,0,22.502729415893555,24.340085983276367,18.025732040405273,119.76327514648438,2.754333257675171,0.0,0.10192964226007462,98
1671001051.07962394,167420032,0,22.560842514038086,24.47837257385254,18.812288284301758,120.28610229492188,2.7661285400390625,0.0,0.10192964226007462,98
1671001051.17963386,167520042,0,22.450742721557617,24.344440460205078,18.548362731933594,120.80142211914062,2.777697801589966,0.0,0.10209517180919647,98
1671001051.27960086,167620009,0,22.34160041809082,24.387859344482422,20.041378021240234,121.35798645019531,2.7901322841644287,0.0,0.10210166871547699,98
1671001051.37958288,167719991,0,22.355005264282227,24.434526443481445,20.396142959594727,121.92449188232422,2.8027966022491455,0.0,0.1019565686583519,98
1671001051.47961998,167820028,0,22.295455932617188,24.43766975402832,21.03968620300293,122.50917053222656,2.8158323764801025,0.0,0.10181774944067001,98
1671001051.57960701,167920015,0,22.11585235595703,24.33384132385254,21.7381649017334,123.11299896240234,2.82918643951416,0.0,0.10203202068805695,98
1671001051.67964196,168020050,0,21.971384048461914,24.30653190612793,22.823938369750977,123.74726867675781,2.8431222438812256,0.0,0.10231135040521622,98
1671001051.77957582,168119984,0,21.87644386291504,24.235017776489258,22.945058822631836,124.38426208496094,2.8570573329925537,0.0,0.10279219597578049,98
1671001051.87957096,168219979,0,21.88847541809082,24.27507972717285,23.150775909423828,125.02735137939453,2.87113356590271,0.0,0.10308956354856491,98
1671001051.97956085,168319969,0,21.821842193603516,24.08069610595703,21.723127365112305,125.63076782226562,2.88430118560791,0.0,0.10398384183645248,98
1671001052.07954097,168419949,0,21.907814025878906,24.197458267211914,21.931198120117188,126.2398910522461,2.8976457118988037,0.0,0.10440120846033096,98
1671001052.17956686,168519975,0,21.80413055419922,24.12702751159668,22.122392654418945,126.85460662841797,2.9110491275787354,0.0,0.10500208288431168,98
1671001052.27956295,168619971,0,21.927343368530273,24.343534469604492,23.0479679107666,127.4948501586914,2.9250879287719727,0.0,0.10483317077159882,98
1671001052.37960196,168720010,0,21.973587036132812,24.275304794311523,21.94101905822754,128.1046142578125,2.9384865760803223,0.0,0.10490478575229645,98
1671001052.47961187,168820020,0,22.148500442504883,24.5189208984375,22.595918655395508,128.73239135742188,2.9523909091949463,0.0,0.10490478575229645,98
1671001052.57961488,168920023,0,22.21248435974121,24.474979400634766,21.48392677307129,129.32923889160156,2.9656481742858887,0.0,0.10531109571456909,98
1671001052.67964888,169020057,0,22.25697135925293,24.45835304260254,20.85002899169922,129.9086456298828,2.978543996810913,0.0,0.10558174550533295,98
1671001052.77963996,169120048,0,22.371280670166016,24.47956085205078,19.916780471801758,130.46188354492188,2.9909205436706543,0.0,0.10585446655750275,98
1671001052.87958884,169219997,0,22.367259979248047,24.443767547607422,19.59608268737793,131.0059814453125,3.0030903816223145,0.0,0.10596539825201035,98
1671001052.97957993,169319988,0,22.31824493408203,24.399808883666992,19.65101432800293,131.5518341064453,3.015272855758667,0.0,0.105926513671875,98
1671001053.07962584,169420034,0,22.30933952331543,24.38595199584961,19.617258071899414,132.09706115722656,3.0274364948272705,0.0,0.10585638880729675,98
1671001053.17960596,169520014,0,22.264724731445312,24.302459716796875,19.303617477416992,132.63320922851562,3.0393736362457275,0.0,0.10556229203939438,98
1671001053.27963400,169620042,0,22.268938064575195,24.350004196166992,19.731725692749023,133.18150329589844,3.051583766937256,0.0,0.1054680198431015,98
1671001053.37958789,169719996,0,22.34109115600586,24.403629302978516,19.541318893432617,133.7240447998047,3.0637047290802,0.0,0.10554752498865128,98
1671001053.47963500,169820043,0,22.319774627685547,24.338180541992188,19.145877838134766,134.2562255859375,3.07558274269104,0.0,0.10542252659797668,98
1671001053.57957792,169919986,0,22.296703338623047,24.311853408813477,19.146488189697266,134.78782653808594,3.087435483932495,0.0,0.10524909198284149,98
1671001053.67953587,170019944,0,22.2720947265625,24.33540916442871,19.61695098876953,135.33255004882812,3.0995676517486572,0.0,0.10518022626638412,98
1671001053.77954483,170119953,0,22.234853744506836,24.325485229492188,19.859086990356445,135.88427734375,3.111835241317749,0.0,0.1052732765674591,98
1671001053.87961388,170220022,0,22.32733726501465,24.360122680664062,19.30484390258789,136.42092895507812,3.1238174438476562,0.0,0.10529926419258118,98
1671001053.97958088,170319989,0,22.190433502197266,24.26668357849121,19.717609405517578,136.968505859375,3.1359684467315674,0.0,0.10529926419258118,98
1671001054.07960701,170420015,0,22.32264518737793,24.437641143798828,20.085569381713867,137.52662658691406,3.1484270095825195,0.0,0.10529926419258118,98
1671001054.17963290,170520041,0,22.30056381225586,24.494476318359375,20.835025787353516,138.10557556152344,3.1613380908966064,0.0,0.10529926419258118,98
1671001054.27962899,170620037,0,22.42623519897461,24.68422508239746,21.443552017211914,138.7012481689453,3.174696922302246,0.0,0.10529926419258118,98
1671001054.37972283,170720131,0,22.528770446777344,24.696989059448242,20.591014862060547,139.2738037109375,3.187595844268799,0.0,0.10529926419258118,98
1671001054.47959590,170820004,0,22.649686813354492,24.710159301757812,19.44294548034668,139.813232421875,3.1998138427734375,0.0,0.10597531497478485,98
1671001054.57959795,170920006,0,22.66912269592285,24.7012939453125,19.08480453491211,140.3434295654297,3.2118330001831055,0.0,0.10648111253976822,98
1671001054.67966795,171020076,0,22.57836151123047,24.678443908691406,19.661449432373047,140.88999938964844,3.2241737842559814,0.0,0.10681223124265671,98
1671001054.77956796,171119976,0,22.513643264770508,24.695478439331055,20.426830291748047,141.45689392089844,3.236936569213867,0.0,0.10681223124265671,98
1671001054.87958193,171219990,0,22.524080276489258,24.578147888183594,19.244693756103516,141.99159240722656,3.2489800453186035,0.0,0.10673420876264572,98
1671001054.97960281,171320011,0,22.47980499267578,24.474323272705078,18.74988555908203,142.5125732421875,3.2606916427612305,0.0,0.10637491196393967,98
1671001055.07966089,171420069,0,22.319774627685547,24.467573165893555,20.126691818237305,143.072021484375,3.2731783390045166,0.0,0.10671396553516388,98
1671001055.17953801,171519946,0,22.074302673339844,24.309783935546875,20.790185928344727,143.64886474609375,3.285911798477173,0.0,0.10752581059932709,98
1671001055.27955985,171619968,0,22.161996841430664,24.435922622680664,21.086334228515625,144.23477172851562,3.2988967895507812,0.0,0.10783886164426804,98
1671001055.37956190,171719970,0,22.282245635986328,24.53752326965332,20.923376083374023,144.8160400390625,3.3118486404418945,0.0,0.10778746008872986,98
1671001055.47953701,171819945,0,22.374345779418945,24.50482177734375,19.775304794311523,145.36526489257812,3.3241372108459473,0.0,0.10773421078920364,98
1671001055.57956600,171919974,0,22.34064483642578,24.477237701416016,19.83207893371582,145.91635131835938,3.336448907852173,0.0,0.10773421078920364,98
1671001055.67959285,172020001,0,22.307329177856445,24.471364974975586,20.086795806884766,146.47451782226562,3.348900079727173,0.0,0.10773421078920364,98
1671001055.77965784,172120066,0,22.209718704223633,24.405223846435547,20.3177490234375,147.039306640625,3.3614439964294434,0.0,0.10805846750736237,98
1671001055.87964201,172220050,0,22.291242599487305,24.476037979125977,20.207712173461914,147.6005859375,3.373955726623535,0.0,0.10811689496040344,98
1671001055.97961402,172320022,0,22.25706672668457,24.476383209228516,20.517362594604492,148.17039489746094,3.3866381645202637,0.0,0.10816769301891327,98
1671001056.07965088,172420059,0,22.24069595336914,24.376127243041992,19.741853713989258,148.71888732910156,3.398836851119995,0.0,0.10816769301891327,98
1671001056.17962193,172520030,0,22.3328914642334,24.46441650390625,19.70932388305664,149.26638793945312,3.4110641479492188,0.0,0.1081480085849762,98
1671001056.27960992,172620018,0,22.247970581054688,24.389318466186523,19.80016326904297,149.81637573242188,3.423300266265869,0.0,0.1081480085849762,98
1671001056.37957597,172719984,0,22.280235290527344,24.470914840698242,20.265098571777344,150.379150390625,3.4358389377593994,0.0,0.10810111463069916,98
1671001056.47956991,172819978,0,22.2609920501709,24.43732452392578,20.11994171142578,150.93804931640625,3.4482808113098145,0.0,0.10816794633865356,98
1671001056.57958198,172919990,0,22.19748306274414,24.397342681884766,20.30206298828125,151.50210571289062,3.460801362991333,0.0,0.10835648328065872,98
1671001056.67960000,173020008,0,22.181625366210938,24.392513275146484,20.369441986083984,152.0680694580078,3.473355293273926,0.0,0.10853943973779678,98
1671001056.77954197,173119950,0,22.230833053588867,24.43906021118164,20.342742919921875,152.63287353515625,3.4859113693237305,0.0,0.10855109244585037,98
1671001056.87957788,173219986,0,22.279756546020508,24.48565101623535,20.321260452270508,153.19760131835938,3.4984934329986572,0.0,0.10855109244585037,98
1671001056.97957397,173319982,0,22.335954666137695,24.515270233154297,20.041685104370117,153.75433349609375,3.5109286308288574,0.0,0.10873911529779434,98
1671001057.07959199,173420000,0,22.239355087280273,24.467626571655273,20.494346618652344,154.32376098632812,3.523592472076416,0.0,0.10872618108987808,98
1671001057.17956901,173519977,0,22.202781677246094,24.35971450805664,19.83821678161621,154.87474060058594,3.5358259677886963,0.0,0.10872618108987808,98
1671001057.27962780,173620036,0,22.2734375,24.427940368652344,19.82563591003418,155.42581176757812,3.548100233078003,0.0,0.10867256671190262,98
1671001057.37968397,173720092,0,22.259183883666992,24.4212589263916,19.906517028808594,155.9791259765625,3.5604164600372314,0.0,0.10861143469810486,98
1671001057.47968888,173820097,0,22.371856689453125,24.477188110351562,19.36407470703125,156.51708984375,3.5724518299102783,0.0,0.10872354358434677,98
1671001057.57959795,173920006,0,22.227388381958008,24.396448135375977,19.95022964477539,157.07080078125,3.58475923538208,0.0,0.10872354358434677,98
1671001057.67958784,174019996,0,22.266544342041016,24.3773136138916,19.41409683227539,157.61007690429688,3.596766948699951,0.0,0.10872354358434677,98
1671001057.77962780,174120036,0,22.385833740234375,24.438793182373047,18.877042770385742,158.1346893310547,3.608510971069336,0.0,0.10875431448221207,98
1671001057.87960196,174220010,0,22.30531883239746,24.429521560668945,19.532556533813477,158.6771697998047,3.6206109523773193,0.0,0.10875186324119568,98
1671001057.97959495,174320003,0,22.300338745117188,24.467126846313477,19.92414665222168,159.23062133789062,3.632952928543091,0.0,0.10875186324119568,98
1671001058.07961202,174420020,0,22.32733726501465,24.42116355895996,19.26095962524414,159.76577758789062,3.644901752471924,0.0,0.10870835185050964,98
1671001058.17957997,174519988,0,22.29705238342285,24.448299407958984,19.79808235168457,160.31553649902344,3.6571595668792725,0.0,0.10865933448076248,98
1671001058.27954602,174619954,0,22.28913688659668,24.366914749145508,19.121936798095703,160.8466339111328,3.668997049331665,0.0,0.10865933448076248,98
1671001058.37954783,174719956,0,22.417043685913086,24.548208236694336,19.613265991210938,161.39149475097656,3.681211471557617,0.0,0.10865933448076248,98
1671001058.47954798,174819956,0,22.37310028076172,24.448755264282227,19.100149154663086,161.92208862304688,3.693082332611084,0.0,0.10867214947938919,98
1671001058.57957792,174919986,0,22.412067413330078,24.49537467956543,19.145261764526367,162.45411682128906,3.7050061225891113,0.0,0.10881584882736206,98
1671001058.67960882,175020017,0,22.317092895507812,24.448522567749023,19.583192825317383,162.99830627441406,3.717150926589966,0.0,0.1088397353887558,98
1671001058.77959991,175120008,0,22.340742111206055,24.446441650390625,19.351184844970703,163.53582763671875,3.7291595935821533,0.0,0.1088150143623352,98
1671001058.87965393,175220062,0,22.363910675048828,24.45724105834961,19.23548698425293,164.0704803466797,3.741116523742676,0.0,0.10882649570703506,98
1671001058.97965693,175320065,0,22.367259979248047,24.43828773498535,19.03846549987793,164.59938049316406,3.752946615219116,0.0,0.10878119617700577,98
1671001059.07966995,175420078,0,22.433320999145508,24.413631439208984,18.22237777709961,165.1056671142578,3.7643041610717773,0.0,0.10867460817098618,98
1671001059.17958784,175519996,0,22.465295791625977,24.37272834777832,17.58442497253418,165.59376525878906,3.7752692699432373,0.0,0.1084728017449379,98
1671001059.27960491,175620013,0,22.519866943359375,24.456279754638672,17.83822250366211,166.08938598632812,3.786430597305298,0.0,0.10855412483215332,98
1671001059.37962699,175720035,0,22.46979522705078,24.409440994262695,17.879653930664062,166.58619689941406,3.797593832015991,0.0,0.10848336666822433,98
1671001059.47956800,175819976,0,22.446434020996094,24.43170738220215,18.29886245727539,167.09423828125,3.808997392654419,0.0,0.10849161446094513,98
1671001059.57959986,175920008,0,22.422977447509766,24.428863525390625,18.489133834838867,167.6080322265625,3.8205182552337646,0.0,0.10848995298147202,98
1671001059.67957997,176019988,0,22.386886596679688,24.419939041137695,18.734336853027344,168.12835693359375,3.832166910171509,0.0,0.10852011293172836,97
1671001059.77961802,176120026,0,22.355960845947266,24.421905517578125,19.03386116027832,168.65728759765625,3.84399151802063,0.0,0.10854048281908035,97
1671001059.87953782,176219946,0,22.326412200927734,24.447368621826172,19.55223274230957,169.20005798339844,3.856109619140625,0.0,0.10847638547420502,97
1671001059.97953701,176319945,0,22.406511306762695,24.417097091674805,18.540996551513672,169.7151336669922,3.8676505088806152,0.0,0.10843998938798904,97
1671001060.07957792,176419986,0,22.451988220214844,24.462316513061523,18.5213565826416,170.22987365722656,3.8792073726654053,0.0,0.10854113101959229,97
1671001060.17955780,176519966,0,22.310199737548828,24.412569046020508,19.356708526611328,170.7675018310547,3.8912017345428467,0.0,0.10861192643642426,97
1671001060.27959180,176620000,0,22.382963180541992,24.456430435180664,19.104446411132812,171.29840087890625,3.9030849933624268,0.0,0.10853324085474014,97
1671001060.37961102,176720019,0,22.55768394470215,24.53228187561035,18.14664649963379,171.8026123046875,3.914458751678467,0.0,0.10881335288286209,97
1671001060.47964382,176820052,0,22.528770446777344,24.4598388671875,17.74462127685547,172.29571533203125,3.925567865371704,0.0,0.10882554948329926,97
1671001060.57964993,176920058,0,22.457828521728516,24.444438934326172,18.260807037353516,172.8030242919922,3.9369609355926514,0.0,0.10879089683294296,97
1671001060.67961383,177020022,0,22.41895866394043,24.416820526123047,18.364229202270508,173.31300354003906,3.9483940601348877,0.0,0.10879089683294296,97
1671001060.77958703,177119995,0,22.492387771606445,24.500272750854492,18.43082618713379,173.8248748779297,3.959907054901123,0.0,0.1089417040348053,97
1671001060.87968087,177220089,0,22.498231887817383,24.453489303588867,17.950237274169922,174.32400512695312,3.9711365699768066,0.0,0.10892650485038757,97
1671001060.97970080,177320109,0,22.56275749206543,24.506689071655273,17.823184967041016,174.81924438476562,3.9823102951049805,0.0,0.10906758904457092,97
1671001061.07956290,177419971,0,22.420106887817383,24.42108917236328,18.320959091186523,175.32749938964844,3.9937052726745605,0.0,0.10921818017959595,97
1671001061.17958689,177519995,0,22.391767501831055,24.42961311340332,18.64042854309082,175.845458984375,4.005303382873535,0.0,0.10932400822639465,97
1671001061.27960801,177620016,0,22.468168258666992,24.535001754760742,18.905582427978516,176.37071228027344,4.0171051025390625,0.0,0.10932400822639465,97
1671001061.37959695,177720005,0,22.395313262939453,24.454235076904297,18.82364273071289,176.8936309814453,4.028815746307373,0.0,0.10937951505184174,97
1671001061.47952890,177819937,0,22.41257667541504,24.467607498168945,18.78705596923828,177.41519165039062,4.0405049324035645,0.0,0.10938550531864166,97
1671001061.57955980,177919968,0,22.315082550048828,24.475751876831055,19.75658416748047,177.9641876220703,4.052755832672119,0.0,0.10936455428600311,97
1671001061.67956185,178019970,0,22.31450843811035,24.477581024169922,19.782976150512695,178.51377868652344,4.065019607543945,0.0,0.10934014618396759,97
1671001061.77958083,178119989,0,22.235525131225586,24.430917739868164,20.054880142211914,179.07098388671875,4.077409267425537,0.0,0.10946923494338989,97
1671001061.87961292,178220021,0,22.337581634521484,24.498027801513672,19.75412940979004,179.6199493408203,4.089672088623047,0.0,0.10936678946018219,97
1671001061.97961283,178320021,0,22.27822494506836,24.441682815551758,19.765178680419922,180.1690216064453,4.101904392242432,0.0,0.1094580590724945,97
1671001062.07963181,178420040,0,22.223079681396484,24.432029724121094,20.16014289855957,180.7291717529297,4.114352703094482,0.0,0.10957012325525284,97
1671001062.17964792,178520056,0,22.304935455322266,24.406450271606445,19.17963409423828,181.26206970214844,4.126238822937012,0.0,0.10957012325525284,97
1671001062.27961087,178620019,0,22.321210861206055,24.427366256713867,19.221982955932617,181.7958526611328,4.138153553009033,0.0,0.10957012325525284,97
1671001062.37959790,178720006,0,22.360984802246094,24.46378517150879,19.1839656829834,182.32870483398438,4.150068759918213,0.0,0.10961240530014038,97
1671001062.47962379,178820032,0,22.32810401916504,24.411760330200195,19.009309768676758,182.85693359375,4.161862850189209,0.0,0.10961240530014038,97
1671001062.57956600,178919974,0,22.361133575439453,24.461942672729492,19.15753746032715,183.38882446289062,4.1737565994262695,0.0,0.10965970158576965,97
1671001062.67959285,179020001,0,22.31450843811035,24.39768409729004,18.996728897094727,183.91668701171875,4.185535907745361,0.0,0.10965970158576965,97
1671001062.77960181,179120010,0,22.29804039001465,24.364927291870117,18.848194122314453,184.44020080566406,4.197209358215332,0.0,0.10965970158576965,97
1671001062.87956786,179219976,0,22.3754940032959,24.436351776123047,18.788963317871094,184.9621124267578,4.208887577056885,0.0,0.10968451201915741,97
1671001062.97952795,179319936,0,22.393970489501953,24.436946868896484,18.622323989868164,185.47923278808594,4.220468044281006,0.0,0.10970579087734222,97
1671001063.07961202,179420020,0,22.42795753479004,24.397911071777344,17.972332000732422,185.9787139892578,4.231670379638672,0.0,0.10961032658815384,97
1671001063.17964482,179520053,0,22.397153854370117,24.355873107910156,17.901851654052734,186.4763641357422,4.24281644821167,0.0,0.10941431671380997,97
1671001063.27954102,179619949,0,22.387939453125,24.385332107543945,18.26694679260254,186.98333740234375,4.254166603088379,0.0,0.10934463888406754,97
1671001063.37958503,179719993,0,22.465103149414062,24.443269729614258,18.07268524169922,187.48561096191406,4.265450477600098,0.0,0.1094561368227005,97
1671001063.47959685,179820005,0,22.44337272644043,24.425851821899414,18.1058292388916,187.9886474609375,4.276740074157715,0.0,0.10949399322271347,97
1671001063.57962298,179920031,0,22.386695861816406,24.371896743774414,18.130687713623047,188.49244689941406,4.288018703460693,0.0,0.10949399322271347,97
1671001063.67967296,180020081,0,22.340166091918945,24.35956382751465,18.41670799255371,189.00425720214844,4.299452781677246,0.0,0.10965026170015335,97
1671001063.77957296,180119981,0,22.443660736083984,24.4053955078125,17.88947296142578,189.50079345703125,4.310596942901611,0.0,0.10965856909751892,97
1671001063.87960291,180220011,0,22.483007431030273,24.44870376586914,17.904203414916992,189.99832153320312,4.321783065795898,0.0,0.10978970676660538,97
1671001063.97960281,180320011,0,22.497785568237305,24.454702377319336,17.804668426513672,190.49293518066406,4.332910537719727,0.0,0.10991034656763077,97
1671001064.07970595,180420114,0,22.474966049194336,24.410663604736328,17.616649627685547,190.9828338623047,4.343921184539795,0.0,0.10987888276576996,97
1671001064.17955995,180519968,0,22.514026641845703,24.367767333984375,16.893617630004883,191.45144653320312,4.354471683502197,0.0,0.10973023623228073,97
1671001064.27962995,180620038,0,22.50665283203125,24.384212493896484,17.12163543701172,191.9273681640625,4.365183353424072,0.0,0.10966011136770248,97
1671001064.37961602,180720024,0,22.500625610351562,24.424728393554688,17.536245346069336,192.4145050048828,4.3761444091796875,0.0,0.10972151160240173,97
1671001064.47957492,180819983,0,22.473051071166992,24.42978286743164,17.833620071411133,192.9097137451172,4.38727331161499,0.0,0.10972151160240173,97
1671001064.57955098,180919959,0,22.478412628173828,24.421335220336914,17.70319175720215,193.40139770507812,4.398325443267822,0.0,0.10974983870983124,97
1671001064.67957997,181019988,0,22.45907211303711,24.33722496032715,17.1130428314209,193.87693786621094,4.409005641937256,0.0,0.10974983870983124,97
1671001064.77958894,181119997,0,22.496187210083008,24.391239166259766,17.271364212036133,194.35678100585938,4.419800281524658,0.0,0.10972219705581665,97
1671001064.87957001,181219978,0,22.552417755126953,24.403629302978516,16.869680404663086,194.82533264160156,4.4303669929504395,0.0,0.10973605513572693,97
1671001064.97958183,181319990,0,22.56515121459961,24.409313201904297,16.801244735717773,195.29212951660156,4.4409003257751465,0.0,0.10976341366767883,97
1671001065.07963300,181420041,0,22.593585968017578,24.376569747924805,16.254674911499023,195.74391174316406,4.451107978820801,0.0,0.10969046503305435,97
1671001065.17973590,181520144,0,22.61186981201172,24.3406982421875,15.78421401977539,196.18284606933594,4.461032867431641,0.0,0.10952892899513245,97
1671001065.27966881,181620077,0,22.581043243408203,24.37706184387207,16.40106201171875,196.63816833496094,4.471314430236816,0.0,0.1095062792301178,97
1671001065.37962699,181720035,0,22.568883895874023,24.41484260559082,16.857099533081055,197.1061248779297,4.481875896453857,0.0,0.1095062792301178,97
1671001065.47959280,181820001,0,22.530683517456055,24.39322280883789,17.01085090637207,197.5786590576172,4.492522716522217,0.0,0.10949129611253738,97
1671001065.57963181,181920040,0,22.41579818725586,24.31879997253418,17.344745635986328,198.06068420410156,4.503327369689941,0.0,0.10971632599830627,97
1671001065.67960286,182020011,0,22.418319702148438,24.433095932006836,18.391849517822266,198.57147216796875,4.514778137207031,0.0,0.10954724252223969,97
1671001065.77955794,182119966,0,22.411970138549805,24.346811294555664,17.64150619506836,199.0613250732422,4.5257568359375,0.0,0.10967547446489334,97
1671001065.87965798,182220066,0,22.555002212524414,24.435108184814453,17.118568420410156,199.5373077392578,4.536492824554443,0.0,0.1098284050822258,97
1671001065.97963190,182320040,0,22.494781494140625,24.402509689331055,17.374818801879883,200.0198974609375,4.547348499298096,0.0,0.10979849845170975,97
1671001066.07961798,182420026,0,22.492008209228516,24.416963577270508,17.543302536010742,200.50718688964844,4.5583086013793945,0.0,0.10972590744495392,97
1671001066.17954087,182519949,0,22.40345001220703,24.3465518951416,17.682628631591797,200.99803161621094,4.569305419921875,0.0,0.10988765954971313,97
1671001066.27954388,182619952,0,22.432266235351562,24.390155792236328,17.816740036010742,201.4929962158203,4.580408573150635,0.0,0.10989045351743698,97
1671001066.37957096,182719979,0,22.337772369384766,24.369253158569336,18.47471046447754,202.00636291503906,4.591876029968262,0.0,0.10996006429195404,97
1671001066.47956896,182819977,0,22.305667877197266,24.432126998901367,19.363323211669922,202.5442657470703,4.603874206542969,0.0,0.1098189428448677,97
1671001066.57957697,182919985,0,22.282245635986328,24.381616592407227,19.109970092773438,203.07518005371094,4.61570405960083,0.0,0.10985737293958664,97
1671001066.67965293,183020061,0,22.303977966308594,24.416790008544922,19.246227264404297,203.61024475097656,4.62763786315918,0.0,0.10977797955274582,97
1671001066.77966189,183120070,0,22.32503890991211,24.46485710144043,19.532249450683594,204.1529083251953,4.6397528648376465,0.0,0.10955306887626648,97
1671001066.87967992,183220088,0,22.152040481567383,24.41210174560547,20.63520622253418,204.72625732421875,4.652453422546387,0.0,0.10952454060316086,97
1671001066.97959685,183320005,0,22.15587043762207,24.493410110473633,21.3990535736084,205.3202362060547,4.665613174438477,0.0,0.10923561453819275,97
1671001067.07961297,183420021,0,22.029115676879883,24.430988311767578,21.998714447021484,205.93145751953125,4.679078102111816,0.0,0.1091824397444725,97
1671001067.17964101,183520049,0,21.95960807800293,24.361799240112305,21.965877532958984,206.54183959960938,4.692481517791748,0.0,0.10936014354228973,97
1671001067.27967501,183620083,0,22.105789184570312,24.516618728637695,22.11475372314453,207.15640258789062,4.706067085266113,0.0,0.10901457071304321,97
1671001067.37959099,183719999,0,22.137393951416016,24.520357131958008,21.923221588134766,207.76492309570312,4.71953821182251,0.0,0.10869582742452621,97
1671001067.47959280,183820001,0,22.135862350463867,24.541793823242188,22.206787109375,208.3818359375,4.733193874359131,0.0,0.10834213346242905,97
1671001067.57957888,183919987,0,22.11345863342285,24.49428939819336,22.00761604309082,208.9931182861328,4.746711730957031,0.0,0.10818212479352951,97
1671001067.67958093,184019989,0,22.148883819580078,24.502958297729492,21.794633865356445,209.5985870361328,4.760122299194336,0.0,0.10801166296005249,97
1671001067.77954698,184119955,0,22.145915985107422,24.4969425201416,21.79309844970703,210.20379638671875,4.773525238037109,0.0,0.1078794077038765,97
1671001067.87962294,184220031,0,22.24394989013672,24.677875518798828,22.561548233032227,210.83103942871094,4.787477493286133,0.0,0.1078794077038765,97
1671001067.97957397,184319982,0,22.23495101928711,24.730655670166016,23.13420295715332,211.47340393066406,4.801760196685791,0.0,0.1078794077038765,97
1671001068.07957792,184419986,0,22.243436813354492,24.776857376098633,23.48381805419922,212.1258087158203,4.816271781921387,0.0,0.1078794077038765,97
1671001068.17959690,184520005,0,22.294309616088867,24.77468490600586,22.99211311340332,212.7646484375,4.830513954162598,0.0,0.1078794077038765,97
1671001068.27963185,184620040,0,22.275257110595703,24.74967384338379,22.936874389648438,213.40206909179688,4.844712734222412,0.0,0.1078794077038765,97
1671001068.37967992,184720088,0,22.265684127807617,24.738313674926758,22.920303344726562,214.0391082763672,4.858896732330322,0.0,0.1078794077038765,97
1671001068.47957492,184819983,0,22.047016143798828,24.489927291870117,22.535768508911133,214.66448974609375,4.872684478759766,0.0,0.10840149968862534,97
1671001068.57961392,184920022,0,21.596473693847656,24.232454299926758,24.02602195739746,215.3321990966797,4.887104511260986,0.0,0.10971356928348541,97
1671001068.67962193,185020030,0,21.874210357666016,24.196420669555664,21.16612434387207,215.9202423095703,4.899967670440674,0.0,0.10971356928348541,97
1671001068.77962494,185120033,0,22.12533187866211,24.571170806884766,22.26632308959961,216.538818359375,4.91365385055542,0.0,0.10984475910663605,97
1671001068.87964487,185220053,0,22.18995475769043,24.898900985717773,24.661588668823242,217.22366333007812,4.9288506507873535,0.0,0.10984475910663605,97
1671001068.97960091,185320009,0,22.353750228881836,24.860210418701172,22.81821060180664,217.85763549804688,4.94302225112915,0.0,0.10984475910663605,97
1671001069.07958102,185419989,0,22.593297958374023,24.76337432861328,19.69244384765625,218.4045867919922,4.955379486083984,0.0,0.11019841581583023,97
1671001069.17956185,185519970,0,22.48923110961914,24.5715389251709,18.943021774291992,218.93072509765625,4.967211723327637,0.0,0.1099248081445694,97
1671001069.27954388,185619952,0,22.181720733642578,24.516633987426758,21.241004943847656,219.52069091796875,4.980298042297363,0.0,0.1099248081445694,97
