timestamp,TimeUS,Instance,Volt,VoltR,Curr,CurrTot,EnrgTot,Temp,Res,RemPct
1671002792.17969108,107321356,0,24.80313491821289,24.90073585510254,0.6628799438476562,20.93383026123047,0.5196770429611206,0.0,0.14723803102970123,99
1671002792.27961612,107421281,0,24.823789596557617,24.924789428710938,0.6860671043395996,20.9528751373291,0.520149827003479,0.0,0.1472158282995224,99
1671002792.37979007,107521455,0,24.786176681518555,24.875450134277344,0.606412410736084,20.969751358032227,0.5205681324005127,0.0,0.1472158282995224,99
1671002792.47963190,107621297,0,24.797183990478516,24.889890670776367,0.6297359466552734,20.98721694946289,0.5210012793540955,0.0,0.1472158282995224,99
1671002792.57979012,107721455,0,24.828874588012695,24.932514190673828,0.7040030360221863,21.006805419921875,0.5214876532554626,0.0,0.1472158282995224,99
1671002792.67956901,107821234,0,24.821983337402344,24.924041748046875,0.6932619214057922,21.02602195739746,0.5219646096229553,0.0,0.1472158282995224,99
1671002792.77979493,107921460,0,24.808195114135742,24.9056453704834,0.6619592905044556,21.044452667236328,0.5224218368530273,0.0,0.1472158282995224,99
1671002792.87966204,108021327,0,24.79163360595703,24.883121490478516,0.6214499473571777,21.06168556213379,0.5228490829467773,0.0,0.1472158282995224,99
1671002792.97971797,108121383,0,24.80704689025879,24.90535545349121,0.6677901744842529,21.08025550842285,0.5233097672462463,0.0,0.1472158282995224,99
1671002793.07956195,108221227,0,24.825332641601562,24.929922103881836,0.7104477286338806,21.099960327148438,0.523798942565918,0.0,0.1472158282995224,99
1671002793.17972612,108321391,0,24.829111099243164,24.933725357055664,0.7106181979179382,21.119733810424805,0.5242899060249329,0.0,0.1472158282995224,99
1671002793.27973509,108421400,0,24.828969955444336,24.93328857421875,0.7086063623428345,21.139419555664062,0.5247787237167358,0.0,0.1472158282995224,99
1671002793.37968302,108521348,0,24.794885635375977,24.887863159179688,0.6315773129463196,21.15695571899414,0.5252135396003723,0.0,0.1472158282995224,99
1671002793.47962809,108621293,0,24.80149269104004,24.895463943481445,0.6383287906646729,21.174678802490234,0.5256531238555908,0.0,0.1472158282995224,99
1671002793.57978606,108721451,0,24.811067581176758,24.909196853637695,0.6665626168251038,21.193225860595703,0.5261132717132568,0.0,0.1472158282995224,99
1671002793.67962503,108821290,0,24.82935333251953,24.9333553314209,0.7064581513404846,21.212820053100586,0.5265997648239136,0.0,0.1472158282995224,99
1671002793.77978492,108921450,0,24.81987762451172,24.92116928100586,0.6880448460578918,21.231964111328125,0.527074933052063,0.0,0.1472158282995224,99
1671002793.87965202,109021317,0,24.792877197265625,24.885042190551758,0.6260533332824707,21.249332427978516,0.5275055766105652,0.0,0.1472158282995224,99
1671002793.97976804,109121433,0,24.809322357177734,24.906707763671875,0.661516010761261,21.267730712890625,0.5279620289802551,0.0,0.1472158282995224,99
1671002794.07956505,109221230,0,24.828874588012695,24.9335994720459,0.7113683819770813,21.287452697753906,0.528451681137085,0.0,0.1472158282995224,99
1671002794.17982101,109321486,0,24.827152252197266,24.930973052978516,0.7052306532859802,21.30709457397461,0.5289393067359924,0.0,0.1472158282995224,99
1671002794.27962708,109421292,0,24.82916259765625,24.93483543395996,0.7178130745887756,21.326990127563477,0.5294333100318909,0.0,0.1472158282995224,99
1671002794.37980700,109521472,0,24.72308349609375,24.956953048706055,1.6056426763534546,21.37169075012207,0.5305384397506714,0.0,0.14565439522266388,99
1671002794.47962999,109621295,0,24.34453773498535,25.000072479248047,4.557913303375244,21.498085021972656,0.5336154699325562,0.0,0.14382363855838776,99
1671002794.57969999,109721365,0,24.57583999633789,24.971052169799805,2.7635343074798584,21.57491111755371,0.5355035066604614,0.0,0.14300987124443054,99
1671002794.67957592,109821241,0,24.66152572631836,24.96193504333496,2.107712745666504,21.63338279724121,0.5369455218315125,0.0,0.1425289362668991,99
1671002794.77974296,109921408,0,24.655588150024414,24.97295379638672,2.23721981048584,21.69564437866211,0.5384805798530579,0.0,0.14185726642608643,99
1671002794.87962103,110021286,0,24.625932693481445,24.92013168334961,2.0646798610687256,21.752931594848633,0.5398913025856018,0.0,0.1424911767244339,99
1671002794.97985792,110121523,0,24.643047332763672,24.932126998901367,2.0248525142669678,21.809314727783203,0.5412807464599609,0.0,0.14276576042175293,99
1671002795.07965803,110221323,0,24.659896850585938,24.946765899658203,2.0107357501983643,21.865062713623047,0.5426554679870605,0.0,0.14266838133335114,99
1671002795.17978096,110321446,0,24.665353775024414,24.94767951965332,1.980353832244873,21.92012596130371,0.5440136194229126,0.0,0.14256282150745392,99
1671002795.27965307,110421318,0,24.681724548339844,24.965843200683594,1.992936372756958,21.975435256958008,0.5453787446022034,0.0,0.14256282150745392,99
1671002795.37977409,110521439,0,24.62763214111328,24.89731216430664,1.8916629552841187,22.028053283691406,0.5466746091842651,0.0,0.14256282150745392,99
1671002795.47963810,110621303,0,24.662099838256836,24.9422664642334,1.9662370681762695,22.08260154724121,0.5480198860168457,0.0,0.14248856902122498,99
1671002795.57976699,110721432,0,24.660472869873047,24.938034057617188,1.947516679763794,22.13677406311035,0.5493558049201965,0.0,0.1425209939479828,99
1671002795.67957401,110821239,0,24.674331665039062,24.95872688293457,1.9954596757888794,22.192100524902344,0.5507209300994873,0.0,0.1425209939479828,99
1671002795.77968812,110921353,0,24.66238784790039,24.94215202331543,1.962861180305481,22.24669075012207,0.5520672798156738,0.0,0.1425291895866394,99
1671002795.87963891,111021304,0,24.63155746459961,24.899250030517578,1.8781598806381226,22.298839569091797,0.5533518195152283,0.0,0.1425291895866394,99
1671002795.97993207,111121597,0,24.6527156829834,24.930715560913086,1.949051022529602,22.3531436920166,0.5546905398368835,0.0,0.14263345301151276,99
1671002796.07965994,111221325,0,24.671672821044922,24.956193923950195,1.9947776794433594,22.40840721130371,0.5560539960861206,0.0,0.14263345301151276,99
1671002796.17998409,111321649,0,24.674545288085938,24.95932960510254,1.9966189861297607,22.46405029296875,0.557426929473877,0.0,0.14263345301151276,99
1671002796.27958703,111421252,0,24.673587799072266,24.958328247070312,1.9963120222091675,22.519290924072266,0.5587899088859558,0.0,0.14263345301151276,99
1671002796.37980103,111521466,0,24.630123138427734,24.901601791381836,1.903324842453003,22.57227897644043,0.5600950121879578,0.0,0.14263345301151276,99
1671002796.47960806,111621273,0,24.645729064941406,24.92022705078125,1.9245001077651978,22.625638961791992,0.5614100694656372,0.0,0.14263345301151276,99
1671002796.57972598,111721391,0,24.64944076538086,24.927980422973633,1.9507901668548584,22.679895401000977,0.5627474784851074,0.0,0.14278334379196167,99
1671002796.67963791,111821303,0,24.675024032592773,24.96111488342285,2.0036776065826416,22.735509872436523,0.5641197562217712,0.0,0.14278334379196167,99
1671002796.77978706,111921452,0,24.664398193359375,24.946897506713867,1.9785125255584717,22.79055404663086,0.5654773712158203,0.0,0.14278334379196167,99
1671002796.87966299,112021328,0,24.660852432250977,24.942562103271484,1.9729886054992676,22.84529685974121,0.5668273568153381,0.0,0.14278334379196167,99
1671002796.97978401,112121449,0,24.61576271057129,24.88314437866211,1.8726359605789185,22.897380828857422,0.5681094527244568,0.0,0.14278334379196167,99
1671002797.07963800,112221303,0,24.670045852661133,24.95534896850586,1.9981533288955688,22.952808380126953,0.569476842880249,0.0,0.14278334379196167,99
1671002797.17979598,112321461,0,24.659896850585938,24.940336227416992,1.964088797569275,23.007457733154297,0.5708244442939758,0.0,0.14278334379196167,99
1671002797.27958703,112421252,0,24.675886154174805,24.962635040283203,2.0082807540893555,23.06313133239746,0.572198212146759,0.0,0.14278334379196167,99
1671002797.37973094,112521396,0,24.65099334716797,24.928190231323242,1.9413788318634033,23.11713981628418,0.5735296010971069,0.0,0.14278334379196167,99
1671002797.47959399,112621259,0,24.62199592590332,24.891870498657227,1.890094518661499,23.169574737548828,0.5748206377029419,0.0,0.14278334379196167,99
1671002797.57980895,112721474,0,24.662673950195312,24.94342041015625,1.9662370681762695,23.224306106567383,0.5761704444885254,0.0,0.14278334379196167,99
1671002797.67956710,112821232,0,24.662673950195312,24.946311950683594,1.9864915609359741,23.27936553955078,0.5775283575057983,0.0,0.14278334379196167,99
1671002797.77990699,112921572,0,24.666887283325195,24.952234268188477,1.998460292816162,23.335071563720703,0.5789024233818054,0.0,0.14278334379196167,99
1671002797.87969804,113021363,0,24.629642486572266,24.903553009033203,1.9183621406555176,23.38825225830078,0.5802122354507446,0.0,0.14278334379196167,99
1671002797.97992897,113121594,0,24.641992568969727,24.920021057128906,1.9472097158432007,23.44247055053711,0.581548273563385,0.0,0.14278334379196167,99
1671002798.07971096,113221376,0,24.64448356628418,24.921154022216797,1.9376964569091797,23.496179580688477,0.5828718543052673,0.0,0.14278334379196167,99
1671002798.17985606,113321521,0,24.650514602661133,24.930252075195312,1.9591785669326782,23.550687789916992,0.584215521812439,0.0,0.14278334379196167,99
1671002798.27965212,113421317,0,24.65284538269043,24.93318748474121,1.9634068012237549,23.605119705200195,0.5855574011802673,0.0,0.14278334379196167,99
1671002798.37981296,113521478,0,24.614519119262695,24.88347816467285,1.8836838006973267,23.657529830932617,0.5868474245071411,0.0,0.14278334379196167,99
1671002798.47964907,113621314,0,24.645824432373047,24.92424774169922,1.9499719142913818,23.71161460876465,0.588180422782898,0.0,0.14278334379196167,99
1671002798.57979798,113721463,0,24.64888572692871,24.963809967041016,2.2056102752685547,23.772977828979492,0.5896929502487183,0.0,0.14278334379196167,99
1671002798.67968392,113821349,0,24.47186851501465,24.992279052734375,3.683587074279785,23.87519073486328,0.5921943187713623,0.0,0.14127813279628754,99
1671002798.77980494,113921470,0,23.333925247192383,25.02910614013672,14.407817840576172,24.275928497314453,0.6015450954437256,0.0,0.11765704303979874,99
1671002798.87966514,114021330,0,22.579320907592773,25.02747344970703,21.166431427001953,24.863109588623047,0.6148032546043396,0.0,0.11566203087568283,99
1671002798.97980905,114121474,0,21.71212387084961,24.959856033325195,28.117158889770508,25.645328521728516,0.6317868828773499,0.0,0.115507110953331,99
1671002799.07975292,114221418,0,21.564594268798828,24.963455200195312,29.461332321166992,26.463306427001953,0.6494262218475342,0.0,0.1153668612241745,99
1671002799.17981911,114321484,0,22.50161361694336,25.02407455444336,22.620777130126953,27.092069625854492,0.6635743975639343,0.0,0.11151082068681717,99
1671002799.27968812,114421353,0,22.58659553527832,24.737510681152344,19.185771942138672,27.624401092529297,0.6755979061126709,0.0,0.11210992187261581,99
1671002799.37991405,114521579,0,22.810335159301758,24.888469696044922,18.540077209472656,28.14060401916504,0.687372624874115,0.0,0.11208873987197876,99
1671002799.47970700,114621372,0,22.436574935913086,24.67190933227539,19.80660629272461,28.689697265625,0.69969242811203,0.0,0.11285803467035294,99
1671002799.57996297,114721628,0,22.4744873046875,24.945858001708984,21.960351943969727,29.30131721496582,0.7134382724761963,0.0,0.11253782361745834,99
1671002799.67968798,114821353,0,22.305030822753906,24.792823791503906,22.051807403564453,29.9122314453125,0.7270647287368774,0.0,0.11281581223011017,99
1671002799.77995300,114921618,0,22.465103149414062,24.773099899291992,20.400745391845703,30.48046112060547,0.7398300766944885,0.0,0.11313299834728241,99
1671002799.87970805,115021373,0,22.549352645874023,24.89523696899414,20.765634536743164,31.055744171142578,0.752802312374115,0.0,0.11296950280666351,99
1671002799.97983503,115121500,0,22.44844627380371,24.781185150146484,20.599916458129883,31.62891387939453,0.7656691074371338,0.0,0.11324022710323334,99
1671002800.07966995,115221335,0,22.418319702148438,24.81694793701172,21.1610107421875,32.215797424316406,0.7788260579109192,0.0,0.11335128545761108,99
1671002800.17973208,115321397,0,22.410629272460938,24.960723876953125,22.582725524902344,32.843326568603516,0.792889416217804,0.0,0.11292237788438797,99
1671002800.27968192,115421347,0,22.368696212768555,24.8408260345459,21.881175994873047,33.45108413696289,0.8064841032028198,0.0,0.11297973245382309,99
1671002800.37983513,115521500,0,22.331167221069336,24.83718490600586,22.168424606323242,34.06786346435547,0.8202575445175171,0.0,0.11304447054862976,99
1671002800.47969604,115621361,0,22.285978317260742,24.868633270263672,22.858001708984375,34.70197677612305,0.8343893885612488,0.0,0.11298689991235733,99
1671002800.57975507,115721420,0,22.233226776123047,24.836393356323242,23.0258731842041,35.34193801879883,0.8486177325248718,0.0,0.11305394023656845,99
1671002800.67975092,115821416,0,22.20240020751953,24.8992977142334,23.891298294067383,36.00569152832031,0.8633546233177185,0.0,0.11288198083639145,99
1671002800.77984691,115921512,0,22.12772560119629,24.882781982421875,24.42681884765625,36.68492126464844,0.8783844113349915,0.0,0.11278817802667618,99
1671002800.87964606,116021311,0,22.03036880493164,24.81003189086914,24.604644775390625,37.3670654296875,0.8934122920036316,0.0,0.11297307908535004,99
1671002800.97980094,116121466,0,21.96965980529785,24.8136043548584,25.139415740966797,38.06652069091797,0.9087790846824646,0.0,0.11312693357467651,99
1671002801.07971597,116221381,0,21.92705535888672,24.843740463256836,25.776208877563477,38.78182601928711,0.9244635701179504,0.0,0.11315415799617767,99
1671002801.17988706,116321552,0,21.890295028686523,24.84832763671875,26.139873504638672,39.50918960571289,0.9403857588768005,0.0,0.11316173523664474,99
1671002801.27971196,116421377,0,21.854488372802734,24.827865600585938,26.256183624267578,40.23750686645508,0.9563027620315552,0.0,0.11324486136436462,99
1671002801.37990713,116521572,0,21.817916870117188,24.81414031982422,26.428348541259766,40.97311782836914,0.9723522663116455,0.0,0.11337155103683472,99
1671002801.47966409,116621329,0,21.869997024536133,24.745506286621094,25.281198501586914,41.6736946105957,0.9876738786697388,0.0,0.11374104022979736,99
1671002801.57986808,116721533,0,21.997522354125977,24.782695770263672,24.486968994140625,42.35527420043945,1.00266695022583,0.0,0.11374104022979736,99
1671002801.67966795,116821333,0,22.080236434936523,24.816242218017578,24.06192970275879,43.022457122802734,1.017398476600647,0.0,0.11370681971311569,99
1671002801.77983093,116921496,0,22.118871688842773,24.84214210510254,23.9383544921875,43.68854904174805,1.0321316719055176,0.0,0.11376180499792099,99
1671002801.87967992,117021345,0,22.098237991333008,24.798357009887695,23.75473403930664,44.34745788574219,1.0466923713684082,0.0,0.1136665791273117,99
1671002801.97985291,117121518,0,22.049985885620117,24.7148380279541,23.444467544555664,44.9998664855957,1.0610779523849487,0.0,0.1136665791273117,99
1671002802.07963610,117221301,0,22.050941467285156,24.719606399536133,23.532852172851562,45.652198791503906,1.0754624605178833,0.0,0.11340171843767166,99
1671002802.17981100,117321476,0,22.096132278442383,24.744604110717773,23.38063621520996,46.30284881591797,1.0898393392562866,0.0,0.11327631771564484,99
1671002802.27976513,117421430,0,22.10828971862793,24.728269577026367,23.15936851501465,46.94591522216797,1.1040563583374023,0.0,0.11312825977802277,99
1671002802.37986112,117521526,0,22.133468627929688,24.729867935180664,22.973085403442383,47.5847282409668,1.1181954145431519,0.0,0.11301916092634201,99
1671002802.47968602,117621351,0,22.148691177368164,24.727418899536133,22.83529281616211,48.21797561645508,1.132220983505249,0.0,0.11292731761932373,99
1671002802.57988310,117721548,0,22.132413864135742,24.709108352661133,22.843271255493164,48.85381317138672,1.1462935209274292,0.0,0.11279881000518799,99
1671002802.67974210,117821407,0,22.108131408691406,24.715438842773438,23.130895614624023,49.49549102783203,1.1604797840118408,0.0,0.11271968483924866,99
1671002802.77983713,117921502,0,22.09048080444336,24.72455596923828,23.36836051940918,50.14527893066406,1.1748340129852295,0.0,0.11271968483924866,99
1671002802.87967896,118021344,0,22.079090118408203,24.74371910095215,23.647628784179688,50.801170349121094,1.1893155574798584,0.0,0.11268061399459839,99
1671002802.97986412,118121529,0,22.06252670288086,24.70087432861328,23.414392471313477,51.4527587890625,1.2036912441253662,0.0,0.11268061399459839,99
1671002803.07967305,118221338,0,22.076313018798828,24.72726058959961,23.52518081665039,52.105106353759766,1.218092679977417,0.0,0.11268553137779236,99
1671002803.17983603,118321501,0,22.05946159362793,24.687585830688477,23.322633743286133,52.754066467285156,1.2324084043502808,0.0,0.11268553137779236,99
1671002803.27968907,118421354,0,22.10359764099121,24.74576187133789,23.447229385375977,53.40447235107422,1.2467846870422363,0.0,0.11268553137779236,99
1671002803.37981200,118521477,0,22.045486450195312,24.653690338134766,23.145864486694336,54.048255920410156,1.2609771490097046,0.0,0.11268553137779236,99
1671002803.47967005,118621335,0,22.036643981933594,24.68332862854004,23.464040756225586,54.699161529541016,1.2753208875656128,0.0,0.11279745399951935,99
1671002803.57972598,118721391,0,22.053144454956055,24.648534774780273,23.009300231933594,55.33871841430664,1.2894251346588135,0.0,0.11279745399951935,99
1671002803.67970109,118821366,0,22.067123413085938,24.646175384521484,22.86444664001465,55.97372817993164,1.3034379482269287,0.0,0.11279745399951935,99
1671002803.77986193,118921527,0,22.121402740478516,24.68187713623047,22.705787658691406,56.60551071166992,1.3174138069152832,0.0,0.11276749521493912,99
1671002803.87970591,119021371,0,22.19483757019043,24.66147804260254,21.890689849853516,57.21269226074219,1.3308900594711304,0.0,0.1126798465847969,99
1671002803.97972298,119121388,0,22.287607192993164,24.664674758911133,21.10658836364746,57.79912567138672,1.3439602851867676,0.0,0.11262210458517075,99
1671002804.07970190,119221367,0,22.383726119995117,24.71106719970703,20.646255493164062,58.37255859375,1.3567957878112793,0.0,0.11272457242012024,99
1671002804.17986512,119321530,0,22.372047424316406,24.686216354370117,20.52933120727539,58.94379806518555,1.3695756196975708,0.0,0.11272500455379486,99
1671002804.27977300,119421438,0,22.35117530822754,24.68887710571289,20.736480712890625,59.51893997192383,1.3824307918548584,0.0,0.11273377388715744,99
1671002804.37983513,119521500,0,22.358642578125,24.618940353393555,20.0882625579834,60.07770538330078,1.3949240446090698,0.0,0.11251834779977798,99
1671002804.47967005,119621335,0,22.392919540405273,24.644237518310547,20.02388572692871,60.633052825927734,1.4073598384857178,0.0,0.11243162304162979,99
1671002804.57972908,119721394,0,22.40852165222168,24.62684440612793,19.751981735229492,61.18208694458008,1.4196628332138062,0.0,0.11230891197919846,99
1671002804.67967010,119821335,0,22.42623519897461,24.634584426879883,19.675565719604492,61.72835159301758,1.4319134950637817,0.0,0.11223816871643066,99
1671002804.77976894,119921434,0,22.446626663208008,24.644529342651367,19.58656883239746,62.27301025390625,1.4441392421722412,0.0,0.11221478879451752,99
1671002804.87969208,120021357,0,22.40976905822754,24.616069793701172,19.680477142333984,62.819313049316406,1.4563817977905273,0.0,0.11210604757070541,99
1671002804.97979498,120121460,0,22.37635612487793,24.55649185180664,19.494808197021484,63.36143493652344,1.4685125350952148,0.0,0.1118316501379013,99
1671002805.07968211,120221347,0,22.478124618530273,24.646163940429688,19.374202728271484,63.8990364074707,1.4805967807769775,0.0,0.1119033619761467,99
1671002805.17987609,120321541,0,22.47714614868164,24.633710861206055,19.268871307373047,64.43537139892578,1.4926520586013794,0.0,0.11191960424184799,99
1671002805.27973104,120421396,0,22.48032569885254,24.62342643737793,19.152013778686523,64.9665756225586,1.5045937299728394,0.0,0.1118994951248169,99
1671002805.37981892,120521484,0,22.4247989654541,24.551231384277344,19.04490852355957,65.49617004394531,1.5164698362350464,0.0,0.111653633415699,99
1671002805.47972512,120621390,0,22.436382293701172,24.59018898010254,19.301774978637695,66.03186798095703,1.5284889936447144,0.0,0.11158596724271774,99
1671002805.57980204,120721467,0,22.398853302001953,24.605937957763672,19.7786808013916,66.58173370361328,1.540805459022522,0.0,0.11158903688192368,99
1671002805.67969394,120821359,0,22.41330909729004,24.61508560180664,19.73111343383789,67.1292724609375,1.5530775785446167,0.0,0.11158903688192368,99
1671002805.77987194,120921537,0,22.434850692749023,24.600143432617188,19.408573150634766,67.66940307617188,1.5651953220367432,0.0,0.11156373471021652,99
1671002805.87970400,121021369,0,22.399812698364258,24.558326721191406,19.347808837890625,68.20598602294922,1.5772147178649902,0.0,0.11156373471021652,99
1671002805.97970510,121121370,0,22.41162109375,24.58921241760254,19.518814086914062,68.74822235107422,1.5893670320510864,0.0,0.11156373471021652,99
1671002806.07975006,121221415,0,22.475154876708984,24.646501541137695,19.435272216796875,69.2883071899414,1.6015055179595947,0.0,0.11172191053628922,99
1671002806.17982292,121321488,0,22.462709426879883,24.595603942871094,19.097694396972656,69.81929779052734,1.6134330034255981,0.0,0.11168339848518372,99
1671002806.27968097,121421346,0,22.482528686523438,24.64466667175293,19.337682723999023,70.35574340820312,1.6254936456680298,0.0,0.11180959641933441,99
1671002806.37978792,121521453,0,22.486358642578125,24.59741973876953,18.889623641967773,70.88105773925781,1.6373060941696167,0.0,0.11175766587257385,99
1671002806.47966599,121621331,0,22.456201553344727,24.516130447387695,18.481767654418945,71.39385223388672,1.648821473121643,0.0,0.11145740002393723,99
1671002806.57981396,121721479,0,22.504547119140625,24.578670501708984,18.614959716796875,71.9117431640625,1.6604764461517334,0.0,0.11142240464687347,99
1671002806.67964792,121821313,0,22.514602661132812,24.572067260742188,18.473482131958008,72.42408752441406,1.6720116138458252,0.0,0.11137393116950989,99
1671002806.77980113,121921466,0,22.530109405517578,24.57037353515625,18.326175689697266,72.93396759033203,1.6834992170333862,0.0,0.11133056879043579,99
1671002806.87974000,122021405,0,22.518312454223633,24.529460906982422,18.091440200805664,73.43624114990234,1.6948095560073853,0.0,0.11116576939821243,99
1671002806.97986913,122121534,0,22.54159927368164,24.547679901123047,18.057340621948242,73.93852233886719,1.7061316967010498,0.0,0.11109498143196106,99
1671002807.07965112,122221316,0,22.53336524963379,24.527141571044922,17.96619415283203,74.43653106689453,1.7173534631729126,0.0,0.11097380518913269,99
1671002807.17976594,122321431,0,22.525896072387695,24.519140243530273,17.980924606323242,74.93658447265625,1.7286176681518555,0.0,0.11085325479507446,99
1671002807.27971411,122421379,0,22.540067672729492,24.53800392150879,18.02880096435547,75.43719482421875,1.7399014234542847,0.0,0.11081909388303757,99
1671002807.37981510,122521480,0,22.516708374023438,24.49298858642578,17.860931396484375,75.93387603759766,1.7510850429534912,0.0,0.11064822971820831,99
1671002807.47967601,122621341,0,22.544185638427734,24.514877319335938,17.820730209350586,76.4282455444336,1.7622301578521729,0.0,0.11058425903320312,99
1671002807.57986999,122721535,0,22.57759666442871,24.552745819091797,17.849576950073242,76.9250717163086,1.7734473943710327,0.0,0.11065525561571121,99
1671002807.67975497,122821420,0,22.6068172454834,24.587770462036133,17.87491226196289,77.42106628417969,1.7846602201461792,0.0,0.11082305014133453,99
1671002807.77981091,122921476,0,22.628719329833984,24.56230354309082,17.439573287963867,77.90580749511719,1.7956293821334839,0.0,0.11087332665920258,99
1671002807.87968612,123021351,0,22.615318298339844,24.48835563659668,16.92369270324707,78.37535858154297,1.806248426437378,0.0,0.11067549884319305,99
1671002807.97986603,123121531,0,22.599807739257812,24.43275260925293,16.611587524414062,78.837646484375,1.816696047782898,0.0,0.11034134030342102,99
1671002808.07974696,123221412,0,22.77519989013672,24.449209213256836,15.200204849243164,79.25941467285156,1.8263019323349,0.0,0.11013074219226837,99
1671002808.17980599,123321471,0,22.72130012512207,24.54371452331543,16.526884078979492,79.71879577636719,1.8367396593093872,0.0,0.11026965826749802,99
1671002808.27972102,123421386,0,22.46491241455078,24.520597457885742,18.649023056030273,80.2364273071289,1.8483681678771973,0.0,0.11023014038801193,99
1671002808.37982202,123521487,0,22.40976905822754,24.490562438964844,18.864151000976562,80.7610092163086,1.860123872756958,0.0,0.11030406504869461,99
1671002808.47974706,123621412,0,22.48827362060547,24.563613891601562,18.848806381225586,81.28423309326172,1.8718901872634888,0.0,0.11010462790727615,99
1671002808.57987690,123721542,0,22.417680740356445,24.510969161987305,19.00937843322754,81.81300354003906,1.8837440013885498,0.0,0.11011873930692673,99
1671002808.67966413,123821329,0,22.399429321289062,24.52950096130371,19.35302734375,82.3494873046875,1.8957608938217163,0.0,0.11006395518779755,99
1671002808.77994800,123921613,0,22.372907638549805,24.53329849243164,19.639659881591797,82.89662170410156,1.9080018997192383,0.0,0.11000145226716995,99
1671002808.87979102,124021456,0,22.366016387939453,24.530635833740234,19.686307907104492,83.44265747070312,1.9202144145965576,0.0,0.10995558649301529,99
1671002808.97985601,124121521,0,22.329633712768555,24.47303581237793,19.4635066986084,83.98369598388672,1.9322956800460815,0.0,0.11012417078018188,99
1671002809.07969594,124221361,0,22.37319564819336,24.542240142822266,19.714540481567383,84.5304946899414,1.9445292949676514,0.0,0.11002258956432343,98
1671002809.17990398,124321569,0,22.311922073364258,24.525671005249023,20.126386642456055,85.0906982421875,1.9570286273956299,0.0,0.1099923774600029,98
1671002809.27968693,124421352,0,22.316137313842773,24.52400016784668,20.076669692993164,85.64728546142578,1.969449520111084,0.0,0.1099715605378151,98
1671002809.37984991,124521515,0,22.336942672729492,24.606473922729492,20.697608947753906,86.22320556640625,1.9823137521743774,0.0,0.10965187102556229,98
1671002809.47976899,124621434,0,22.389184951782227,24.752927780151367,21.556795120239258,86.82156372070312,1.9957104921340942,0.0,0.10965187102556229,98
1671002809.57983708,124721502,0,22.496505737304688,24.93017578125,22.194509506225586,87.43854522705078,2.0095903873443604,0.0,0.10965187102556229,98
1671002809.67970395,124821369,0,22.52541732788086,24.99098777770996,22.485441207885742,88.06236267089844,2.023642063140869,0.0,0.10965187102556229,98
1671002809.77984095,124921506,0,22.576351165771484,25.01570701599121,22.246374130249023,88.68122100830078,2.0376136302948,0.0,0.10965187102556229,98
1671002809.87969112,125021356,0,22.52206802368164,24.952136993408203,22.161672592163086,89.29595184326172,2.0514585971832275,0.0,0.10965187102556229,98
1671002809.97978306,125121448,0,22.432170867919922,24.97742462158203,23.369586944580078,89.94575500488281,2.066035032272339,0.0,0.10891307145357132,98
1671002810.07968307,125221348,0,22.34878158569336,24.974815368652344,24.257415771484375,90.61894989013672,2.081080198287964,0.0,0.10825696587562561,98
1671002810.17968392,125321349,0,22.321413040161133,24.85637855529785,23.44903564453125,91.2703628540039,2.095620632171631,0.0,0.10810529440641403,98
1671002810.27968192,125421347,0,22.13126564025879,24.680599212646484,23.470861434936523,91.92237091064453,2.1100504398345947,0.0,0.10861694812774658,98
1671002810.37997007,125521635,0,21.718923568725586,24.4483699798584,24.82638931274414,92.61404418945312,2.125072717666626,0.0,0.10994134098291397,98
1671002810.47978902,125621454,0,21.786418914794922,24.39124870300293,23.395057678222656,93.26252746582031,2.1392009258270264,0.0,0.11134099215269089,98
1671002810.57989502,125721560,0,22.0675048828125,24.636272430419922,22.99671745300293,93.90230560302734,2.1533191204071045,0.0,0.11170152574777603,98
1671002810.67971802,125821383,0,22.06597328186035,24.642274856567383,23.00162696838379,94.54015350341797,2.167393922805786,0.0,0.11200522631406784,98
1671002810.77975011,125921415,0,22.151561737060547,24.667034149169922,22.49004364013672,95.16509246826172,2.1812374591827393,0.0,0.11184822767972946,98
1671002810.87969494,126021360,0,21.958362579345703,24.414966583251953,21.963729858398438,95.77494049072266,2.1946287155151367,0.0,0.11184822767972946,98
1671002810.97976303,126121428,0,21.828161239624023,24.29513168334961,22.05640983581543,96.3880844116211,2.208012580871582,0.0,0.11184822767972946,98
1671002811.07969403,126221359,0,21.78028106689453,24.231428146362305,21.914934158325195,96.99646759033203,2.2212634086608887,0.0,0.11184822767972946,98
1671002811.17977595,126321441,0,21.79378890991211,24.21905517578125,21.68354034423828,97.59932708740234,2.2344019412994385,0.0,0.11184822767972946,98
1671002811.27972198,126421387,0,21.72198486328125,24.17083168029785,21.894372940063477,98.20722961425781,2.2476067543029785,0.0,0.11184822767972946,98
1671002811.37972808,126521393,0,21.71365737915039,24.18255043029785,22.073596954345703,98.82047271728516,2.260922431945801,0.0,0.11184822767972946,98
1671002811.47971606,126621381,0,21.74802589416504,24.249483108520508,22.262331008911133,99.4388427734375,2.2743709087371826,0.0,0.11236278712749481,98
1671002811.57980704,126721472,0,21.83773422241211,24.428091049194336,23.093080520629883,100.08094787597656,2.288393020629883,0.0,0.11217022687196732,98
1671002811.67976809,126821433,0,21.93940544128418,24.531965255737305,23.112720489501953,100.72254180908203,2.302469253540039,0.0,0.11217022687196732,98
1671002811.77986693,126921532,0,22.053049087524414,24.574533462524414,22.373117446899414,101.34490203857422,2.3161940574645996,0.0,0.11270152032375336,98
1671002811.87970400,127021369,0,22.17588996887207,24.634672164916992,21.700794219970703,101.94676971435547,2.329540967941284,0.0,0.11330381780862808,98
1671002811.97982693,127121492,0,22.183347702026367,24.574434280395508,21.05196189880371,102.53231048583984,2.3425302505493164,0.0,0.11358018219470978,98
1671002812.07968998,127221355,0,22.249502182006836,24.63028335571289,20.889310836791992,103.11182403564453,2.355424165725708,0.0,0.1139713004231453,98
1671002812.17970705,127321372,0,22.26185417175293,24.6539363861084,20.919078826904297,103.69305419921875,2.368363380432129,0.0,0.11434929072856903,98
1671002812.27970195,127421367,0,22.267118453979492,24.636579513549805,20.678173065185547,104.2674560546875,2.3811538219451904,0.0,0.11458756774663925,98
1671002812.37976313,127521428,0,22.297182083129883,24.600770950317383,20.09078598022461,104.825927734375,2.393606185913086,0.0,0.11465898156166077,98
1671002812.47968602,127621351,0,22.31527328491211,24.57025909423828,19.674030303955078,105.37205505371094,2.4057931900024414,0.0,0.11461739987134933,98
1671002812.57971501,127721380,0,22.32101821899414,24.58002471923828,19.70932388305664,105.91973876953125,2.418018102645874,0.0,0.11461617797613144,98
1671002812.67968798,127821353,0,22.302349090576172,24.552549362182617,19.64763832092285,106.46540069580078,2.430187702178955,0.0,0.11452778428792953,98
1671002812.77968812,127921353,0,22.389598846435547,24.599748611450195,19.28421401977539,107.00111389160156,2.4421820640563965,0.0,0.11460929363965988,98
1671002812.87970495,128021370,0,22.451988220214844,24.590726852416992,18.655466079711914,107.51944732666016,2.453819751739502,0.0,0.11464408040046692,98
1671002812.97971797,128121383,0,22.34303855895996,24.486238479614258,18.744464874267578,108.04023742675781,2.4654557704925537,0.0,0.11433771997690201,98
1671002813.07978201,128221447,0,22.328392028808594,24.502079010009766,19.04245376586914,108.569580078125,2.4772751331329346,0.0,0.1141495481133461,98
1671002813.17976594,128321431,0,22.40488624572754,24.591705322265625,19.134214401245117,109.10103607177734,2.489182472229004,0.0,0.11428838223218918,98
1671002813.27980113,128421466,0,22.42805290222168,24.558000564575195,18.63644027709961,109.61888885498047,2.5007970333099365,0.0,0.11428936570882797,98
1671002813.37982202,128521487,0,22.402015686035156,24.525188446044922,18.59408950805664,110.13558959960938,2.5123722553253174,0.0,0.11418537050485611,98
1671002813.47977304,128621438,0,22.388513565063477,24.497806549072266,18.499876022338867,110.64917755126953,2.5238707065582275,0.0,0.11401661485433578,98
1671002813.57978296,128721448,0,22.36385726928711,24.429012298583984,18.16884422302246,111.15404510498047,2.5351614952087402,0.0,0.11366458237171173,98
1671002813.67969394,128821359,0,22.433225631713867,24.488933563232422,18.099077224731445,111.65638732910156,2.546430826187134,0.0,0.11358077824115753,98
1671002813.77974010,128921405,0,22.452373504638672,24.496604919433594,18.00455665588379,112.15677642822266,2.5576658248901367,0.0,0.11353971809148788,98
1671002813.87985396,129021519,0,22.422882080078125,24.48868179321289,18.20372772216797,112.66305541992188,2.5690181255340576,0.0,0.11348225176334381,98
1671002813.97978592,129121451,0,22.364866256713867,24.431119918823242,18.207717895507812,113.16851806640625,2.580322742462158,0.0,0.11348225176334381,98
1671002814.07969594,129221361,0,22.388418197631836,24.48253059387207,18.457523345947266,113.6808090209961,2.591792106628418,0.0,0.11345575004816055,98
1671002814.17970991,129321375,0,22.44078826904297,24.547504425048828,18.568618774414062,114.19671630859375,2.6033694744110107,0.0,0.11345575004816055,98
1671002814.27975798,129421423,0,22.447681427001953,24.532230377197266,18.35594367980957,114.7068862915039,2.614821672439575,0.0,0.11356262862682343,98
1671002814.37971711,129521382,0,22.400672912597656,24.4445858001709,17.998111724853516,115.2066650390625,2.6260170936584473,0.0,0.11356262862682343,98
1671002814.47968912,129621354,0,22.428852081298828,24.471757888793945,18.001419067382812,115.70659637451172,2.637230157852173,0.0,0.11348580569028854,98
1671002814.57977295,129721438,0,22.459552764892578,24.508588790893555,18.046293258666992,116.2083511352539,2.6484992504119873,0.0,0.11354336887598038,98
1671002814.67974997,129821415,0,22.467018127441406,24.504541397094727,17.939804077148438,116.70659637451172,2.659693479537964,0.0,0.11357558518648148,98
1671002814.77984905,129921514,0,22.480518341064453,24.4791316986084,17.605907440185547,117.19617462158203,2.6706995964050293,0.0,0.11351950466632843,98
1671002814.87983704,130021502,0,22.459360122680664,24.459320068359375,17.634449005126953,117.68599700927734,2.6817007064819336,0.0,0.1134120523929596,98
1671002814.97969103,130121356,0,22.439159393310547,24.430070877075195,17.582279205322266,118.17372131347656,2.6926448345184326,0.0,0.1132340058684349,98
1671002815.07973504,130221400,0,22.437625885009766,24.446121215820312,17.73756217956543,118.66667938232422,2.7037057876586914,0.0,0.1132340058684349,98
1671002815.17978191,130321447,0,22.388322830200195,24.397443771362305,17.743085861206055,119.15978240966797,2.71474552154541,0.0,0.1132340058684349,98
1671002815.27970409,130421369,0,22.46156120300293,24.502756118774414,18.026344299316406,119.66020202636719,2.7259857654571533,0.0,0.1132340058684349,98
1671002815.37968707,130521352,0,22.32513427734375,24.301536560058594,17.454133987426758,120.1449966430664,2.736809015274048,0.0,0.1132340058684349,98
1671002815.47970104,130621366,0,22.364866256713867,24.399560928344727,17.947168350219727,120.64363861083984,2.7479610443115234,0.0,0.11337137222290039,98
1671002815.57968807,130721353,0,22.254194259643555,24.2952880859375,17.92476463317871,121.14152526855469,2.7590410709381104,0.0,0.11387007683515549,98
1671002815.67969298,130821358,0,22.300626754760742,24.399871826171875,18.42499351501465,121.65339660644531,2.770456075668335,0.0,0.11393463611602783,98
1671002815.77977705,130921442,0,22.157209396362305,24.272968292236328,18.486064910888672,122.16737365722656,2.7818443775177,0.0,0.11445151269435883,98
1671002815.87977791,131021443,0,21.993595123291016,24.20966911315918,19.24653434753418,122.7020492553711,2.7936038970947266,0.0,0.11514141410589218,98
1671002815.97970009,131121365,0,21.866933822631836,24.118560791015625,19.39629554748535,123.2404556274414,2.805377244949341,0.0,0.11608539521694183,98
1671002816.07968307,131221348,0,21.892017364501953,24.23296546936035,20.092321395874023,123.79852294921875,2.817594289779663,0.0,0.11650960147380829,98
1671002816.17989492,131321560,0,21.793682098388672,24.19203758239746,20.492334365844727,124.36901092529297,2.8300273418426514,0.0,0.11703671514987946,98
1671002816.27977896,131421444,0,21.807003021240234,24.274682998657227,21.054418563842773,124.95321655273438,2.8427672386169434,0.0,0.11720483005046844,98
1671002816.37983513,131521500,0,21.734243392944336,24.179588317871094,20.7757625579834,125.53069305419922,2.855318307876587,0.0,0.11770177632570267,98
1671002816.47970009,131621365,0,21.893930435180664,24.445831298828125,21.77928924560547,126.13490295410156,2.868546962738037,0.0,0.11717095971107483,98
1671002816.57990503,131721570,0,21.910110473632812,24.539690017700195,22.600522994995117,126.76403045654297,2.882331371307373,0.0,0.11635036766529083,98
1671002816.67979312,131821458,0,22.048358917236328,24.636089324951172,22.2408504486084,127.38117980957031,2.8959386348724365,0.0,0.11635036766529083,98
1671002816.77986097,131921526,0,22.136436462402344,24.586410522460938,21.05687141418457,127.96653747558594,2.9088964462280273,0.0,0.11635036766529083,98
1671002816.87973309,132021398,0,22.164295196533203,24.571504592895508,20.605438232421875,128.53822326660156,2.921567678451538,0.0,0.1168239638209343,98
1671002816.97983503,132121500,0,22.16546630859375,24.52760887145996,20.179988861083984,129.09939575195312,2.9340062141418457,0.0,0.11705368757247925,98
1671002817.07971907,132221384,0,22.176645278930664,24.55146026611328,20.244230270385742,129.66094970703125,2.9464595317840576,0.0,0.11730822920799255,98
1671002817.17980003,132321465,0,22.19579315185547,24.545196533203125,19.9971866607666,130.2170867919922,2.958803653717041,0.0,0.11748668551445007,98
1671002817.27970195,132421367,0,22.212739944458008,24.54355812072754,19.81642723083496,130.7670440673828,2.971019744873047,0.0,0.1176205426454544,98
1671002817.37982512,132521490,0,22.181913375854492,24.43623161315918,19.20479965209961,131.3012237548828,2.9828689098358154,0.0,0.11738301813602448,98
1671002817.47971606,132621381,0,22.192825317382812,24.435945510864258,19.139738082885742,131.8323516845703,2.9946560859680176,0.0,0.11719697713851929,98
1671002817.57986712,132721532,0,22.204315185546875,24.438566207885742,19.086339950561523,132.36337280273438,3.0064468383789062,0.0,0.11706024408340454,98
1671002817.67971301,132821378,0,22.242706298828125,24.461063385009766,18.956218719482422,132.8891143798828,3.0181407928466797,0.0,0.11702525615692139,98
1671002817.77990294,132921568,0,22.253864288330078,24.42156410217285,18.54768180847168,133.4053955078125,3.029630184173584,0.0,0.11687178164720535,98
1671002817.87979293,133021458,0,22.251895904541016,24.390743255615234,18.33507537841797,133.9141845703125,3.040951728820801,0.0,0.11665336042642593,98
1671002817.97983408,133121499,0,22.313264846801758,24.461206436157227,18.40443229675293,134.42567443847656,3.0523645877838135,0.0,0.11670783162117004,98
1671002818.07969904,133221364,0,22.305030822753906,24.419599533081055,18.13252830505371,134.9287109375,3.063585042953491,0.0,0.11661741882562637,98
1671002818.17986298,133321528,0,22.371280670166016,24.676603317260742,19.768245697021484,135.47877502441406,3.07589054107666,0.0,0.11661741882562637,98
1671002818.27975702,133421422,0,22.41895866394043,24.835369110107422,20.720829010009766,136.0537872314453,3.0887818336486816,0.0,0.11661741882562637,98
1671002818.37983108,133521496,0,22.542747497558594,24.85390281677246,19.818267822265625,136.6046905517578,3.101200819015503,0.0,0.11661741882562637,98
1671002818.47980404,133621469,0,22.598180770874023,24.867542266845703,19.314664840698242,137.1411590576172,3.113323926925659,0.0,0.11749426275491714,98
1671002818.57985497,133721520,0,22.605457305908203,24.950252532958984,19.956676483154297,137.69583129882812,3.1258625984191895,0.0,0.11749426275491714,98
1671002818.67970014,133821365,0,22.692026138305664,24.955564498901367,19.13349723815918,138.22654724121094,3.1379055976867676,0.0,0.1183023750782013,98
1671002818.77971005,133921375,0,22.657535552978516,24.97264862060547,19.456754684448242,138.76710510253906,3.150153398513794,0.0,0.11898764967918396,98
1671002818.87968898,134021354,0,22.578170776367188,24.819438934326172,18.82855224609375,139.29005432128906,3.1619606018066406,0.0,0.11903560906648636,98
1671002818.97984505,134121510,0,22.418001174926758,24.75811767578125,19.629226684570312,139.83619689941406,3.174204111099243,0.0,0.11921589076519012,98
1671002819.07969999,134221365,0,22.230260848999023,24.66780662536621,20.362689971923828,140.4010467529297,3.186760902404785,0.0,0.11970643699169159,98
1671002819.17972708,134321392,0,22.182676315307617,24.672483444213867,20.726354598999023,140.9769744873047,3.1995365619659424,0.0,0.12012764066457748,98
1671002819.27975106,134421416,0,22.13863754272461,24.504318237304688,19.693058013916016,141.52410888671875,3.2116494178771973,0.0,0.12012764066457748,98
1671002819.37985992,134521525,0,22.192251205444336,24.467683792114258,18.941795349121094,142.0509490966797,3.223341226577759,0.0,0.12012764066457748,98
1671002819.47975802,134621423,0,22.23695182800293,24.520544052124023,19.009719848632812,142.5784912109375,3.235072135925293,0.0,0.12012764066457748,98
1671002819.57975101,134721416,0,22.325998306274414,24.588613510131836,18.870288848876953,143.10267639160156,3.246774911880493,0.0,0.1199035570025444,98
1671002819.67969608,134821361,0,22.341888427734375,24.579526901245117,18.693828582763672,143.6217041015625,3.258371114730835,0.0,0.11969934403896332,98
1671002819.77980900,134921474,0,22.37645149230957,24.594961166381836,18.551124572753906,144.13763427734375,3.269915819168091,0.0,0.11958891153335571,98
1671002819.87979412,135021459,0,22.37319564819336,24.547704696655273,18.219377517700195,144.64369201660156,3.281238079071045,0.0,0.11935140192508698,98
1671002819.97970104,135121366,0,22.34122085571289,24.48460578918457,18.01713752746582,145.1437530517578,3.292409896850586,0.0,0.11896364390850067,98
1671002820.07970810,135221373,0,22.393205642700195,24.611007690429688,18.62692642211914,145.66123962402344,3.3039982318878174,0.0,0.11906427145004272,98
1671002820.17991304,135321578,0,22.382482528686523,24.543344497680664,18.169662475585938,146.16702270507812,3.315319061279297,0.0,0.11892686784267426,98
1671002820.27978396,135421449,0,22.377790451049805,24.541048049926758,18.20741081237793,146.6721649169922,3.32662296295166,0.0,0.11881192773580551,98
1671002820.37975693,135521422,0,22.354389190673828,24.518169403076172,18.211809158325195,147.17794799804688,3.3379294872283936,0.0,0.11881192773580551,98
1671002820.47976208,135621427,0,22.34524154663086,24.513019561767578,18.24546241760254,147.68482971191406,3.3492560386657715,0.0,0.11881192773580551,98
1671002820.57976007,135721425,0,22.369653701782227,24.5112247467041,18.04506492614746,148.1861114501953,3.3604695796966553,0.0,0.11867906898260117,98
1671002820.67975903,135821424,0,22.3803768157959,24.583972930908203,18.56769561767578,148.70184326171875,3.37201189994812,0.0,0.11867906898260117,98
1671002820.77972198,135921387,0,22.366304397583008,24.57682228088379,18.626005172729492,149.2191619873047,3.383582353591919,0.0,0.11867906898260117,98
1671002820.87976694,136021432,0,22.341028213500977,24.54595375061035,18.573835372924805,149.73538208007812,3.3951151371002197,0.0,0.11871140450239182,98
1671002820.97984195,136121507,0,22.306467056274414,24.51082420349121,18.544679641723633,150.25094604492188,3.4066154956817627,0.0,0.11886739730834961,98
1671002821.07967806,136221343,0,22.285404205322266,24.525108337402344,18.8282470703125,150.7731475830078,3.418252944946289,0.0,0.11895444989204407,98
1671002821.17987800,136321543,0,22.32928466796875,24.594396591186523,19.069732666015625,151.30397033691406,3.430105686187744,0.0,0.1187804713845253,98
1671002821.27972913,136421394,0,22.336719512939453,24.589332580566406,18.98629379272461,151.83062744140625,3.4418694972991943,0.0,0.11864415556192398,98
1671002821.37999797,136521663,0,22.33059310913086,24.548032760620117,18.689838409423828,152.35122680664062,3.4534947872161865,0.0,0.11864415556192398,98
1671002821.47969294,136621358,0,22.303403854370117,24.543895721435547,18.877962112426758,152.87405395507812,3.465155601501465,0.0,0.11868295073509216,98
1671002821.57972407,136721389,0,22.317955017089844,24.57798194885254,19.05687713623047,153.40362548828125,3.4769744873046875,0.0,0.11859379708766937,98
1671002821.67978096,136821446,0,22.334135055541992,24.59893035888672,19.097078323364258,153.93443298339844,3.4888298511505127,0.0,0.11859379708766937,98
1671002821.77989292,136921558,0,22.334806442260742,24.56169319152832,18.778223037719727,154.45668029785156,3.5004940032958984,0.0,0.11858882009983063,98
1671002821.87975192,137021417,0,22.34150505065918,24.536901473999023,18.525653839111328,154.97052001953125,3.5119740962982178,0.0,0.11850574612617493,98
1671002821.97979712,137121462,0,22.267478942871094,24.455463409423828,18.463115692138672,155.48373413085938,3.523401975631714,0.0,0.11850574612617493,98
1671002822.07977605,137221441,0,22.34208106994629,24.57504653930664,18.842670440673828,156.00698852539062,3.535092830657959,0.0,0.11850574612617493,98
1671002822.17969704,137321362,0,22.328582763671875,24.501235961914062,18.35594367980957,156.51658630371094,3.54647159576416,0.0,0.11836239695549011,98
1671002822.27969813,137421363,0,22.37635612487793,24.51300621032715,18.06317138671875,157.0183868408203,3.5577001571655273,0.0,0.11828762292861938,98
1671002822.37971210,137521377,0,22.445955276489258,24.5161190032959,17.508317947387695,157.5048370361328,3.5686190128326416,0.0,0.1182389035820961,98
1671002822.47975993,137621425,0,22.371089935302734,24.444650650024414,17.576753616333008,157.99334716796875,3.579547643661499,0.0,0.11797179281711578,98
1671002822.57985210,137721517,0,22.33729362487793,24.433626174926758,17.769784927368164,158.48745727539062,3.5905845165252686,0.0,0.11797179281711578,98
1671002822.67969108,137821356,0,22.4163761138916,24.50434684753418,17.695520401000977,158.97824096679688,3.601586103439331,0.0,0.11799432337284088,98
1671002822.77969313,137921358,0,22.434946060180664,24.502826690673828,17.52335548400879,159.46505737304688,3.6125078201293945,0.0,0.11800714582204819,98
1671002822.87973404,138021399,0,22.390344619750977,24.413986206054688,17.18850326538086,159.9427490234375,3.6232035160064697,0.0,0.11773228645324707,98
1671002822.97978091,138121446,0,22.386119842529297,24.39143943786621,17.074682235717773,160.4173126220703,3.633826971054077,0.0,0.11744404584169388,98
1671002823.07969999,138221365,0,22.455339431762695,24.46405029296875,17.102609634399414,160.8920440673828,3.644487142562866,0.0,0.11745057255029678,98
1671002823.17982793,138321493,0,22.436861038208008,24.474653244018555,17.344440460205078,161.37448120117188,3.6553115844726562,0.0,0.11748968064785004,98
1671002823.27977896,138421444,0,22.430543899536133,24.490802764892578,17.52335548400879,161.86094665527344,3.6662232875823975,0.0,0.11757214367389679,98
1671002823.37971497,138521380,0,22.357208251953125,24.434961318969727,17.652860641479492,162.35113525390625,3.67718243598938,0.0,0.11770068109035492,98
1671002823.47968793,138621353,0,22.500337600708008,24.519105911254883,17.127159118652344,162.82679748535156,3.687885046005249,0.0,0.11786939203739166,98
1671002823.57979894,138721464,0,22.569171905517578,24.491844177246094,16.305620193481445,163.2801971435547,3.698117733001709,0.0,0.11791472136974335,98
1671002823.67976213,138821427,0,22.564577102661133,24.478557586669922,16.232887268066406,163.73106384277344,3.7082912921905518,0.0,0.11790762841701508,98
1671002823.77972794,138921393,0,22.538951873779297,24.53581428527832,16.91025733947754,164.20066833496094,3.7188756465911865,0.0,0.11808585375547409,98
1671002823.87973905,139021404,0,22.50809097290039,24.497175216674805,16.84206199645996,164.66859436035156,3.729407548904419,0.0,0.11810217052698135,98
1671002823.97976613,139121431,0,22.447490692138672,24.42577362060547,16.750608444213867,165.13404846191406,3.739856004714966,0.0,0.11810217052698135,98
1671002824.07976794,139221433,0,22.48195457458496,24.446680068969727,16.65178871154785,165.59664916992188,3.750256061553955,0.0,0.11798889189958572,98
1671002824.17978001,139321445,0,22.489614486694336,24.485271453857422,16.90896224975586,166.06643676757812,3.7608213424682617,0.0,0.1180235892534256,98
1671002824.27969408,139421359,0,22.49334716796875,24.431560516357422,16.442489624023438,166.5228271484375,3.7710869312286377,0.0,0.11787830293178558,98
1671002824.37991190,139521577,0,22.518335342407227,24.457712173461914,16.45660972595215,166.98098754882812,3.7814040184020996,0.0,0.11784789711236954,98
1671002824.47979212,139621457,0,22.538055419921875,24.39912986755371,15.820734977722168,167.41995239257812,3.791297435760498,0.0,0.11763517558574677,98
1671002824.57988095,139721546,0,22.581809997558594,24.47022247314453,16.044763565063477,167.86607360839844,3.8013718128204346,0.0,0.11769644916057587,98
1671002824.67968893,139821354,0,22.513952255249023,24.420042037963867,16.21055030822754,168.31553649902344,3.811491012573242,0.0,0.11758331209421158,97
1671002824.77986908,139921534,0,22.500242233276367,24.459463119506836,16.66836166381836,168.7794189453125,3.8219285011291504,0.0,0.11754131317138672,97
1671002824.87969995,140021365,0,22.398948669433594,24.422208786010742,17.198972702026367,169.25637817382812,3.8326120376586914,0.0,0.11763846129179001,97
1671002824.97978711,140121452,0,22.408714294433594,24.470666885375977,17.541152954101562,169.74392700195312,3.8435373306274414,0.0,0.11754944920539856,97
1671002825.07968712,140221352,0,22.44806480407715,24.506412506103516,17.541460037231445,170.23094177246094,3.8544697761535645,0.0,0.11734181642532349,97
1671002825.17980599,140321471,0,22.418384552001953,24.470699310302734,17.49818992614746,170.71762084960938,3.86538028717041,0.0,0.11728721857070923,97
1671002825.27970099,140421366,0,22.404788970947266,24.470043182373047,17.615421295166016,171.2064666748047,3.8763327598571777,0.0,0.11724129319190979,97
1671002825.37980795,140521473,0,22.349645614624023,24.418947219848633,17.628311157226562,171.6965789794922,3.88728666305542,0.0,0.1173851490020752,97
1671002825.47969413,140621359,0,22.31407356262207,24.361652374267578,17.39377784729004,172.17933654785156,3.898059129714966,0.0,0.11771900951862335,97
1671002825.57978892,140721454,0,22.40861701965332,24.545141220092773,18.2061824798584,172.68557739257812,3.9094033241271973,0.0,0.11735152453184128,97
1671002825.67977309,140821438,0,22.29315757751465,24.41891098022461,18.094167709350586,173.1881561279297,3.920607566833496,0.0,0.11748282611370087,97
1671002825.77977490,140921440,0,22.330402374267578,24.457096099853516,18.10552215576172,173.69114685058594,3.9318394660949707,0.0,0.11746103316545486,97
1671002825.87974191,141021407,0,22.3005313873291,24.38706398010254,17.728355407714844,174.18328857421875,3.942814350128174,0.0,0.1176946759223938,97
1671002825.97973299,141121398,0,22.22585678100586,24.33137321472168,17.827789306640625,174.67869567871094,3.9538252353668213,0.0,0.11810304969549179,97
1671002826.07976699,141221432,0,22.282629013061523,24.443973541259766,18.30745506286621,175.1874542236328,3.9651615619659424,0.0,0.11805813759565353,97
1671002826.17983699,141321502,0,22.31450843811035,24.50004005432129,18.550512313842773,175.70315551757812,3.9766690731048584,0.0,0.11781519651412964,97
1671002826.27969503,141421360,0,22.24428939819336,24.43978500366211,18.634634017944336,176.2200927734375,3.9881677627563477,0.0,0.11781798303127289,97
1671002826.37983513,141521500,0,22.251035690307617,24.4593448638916,18.75428581237793,176.7418212890625,3.999776601791382,0.0,0.11774954944849014,97
1671002826.47981596,141621481,0,22.206037521362305,24.401880264282227,18.625085830688477,177.25914001464844,4.011263847351074,0.0,0.11789704114198685,97
1671002826.57983208,141721497,0,22.301105499267578,24.516956329345703,18.7947940826416,177.78134155273438,4.022909641265869,0.0,0.11789704114198685,97
1671002826.67975211,141821417,0,22.28090476989746,24.493915557861328,18.795408248901367,178.30299377441406,4.03453254699707,0.0,0.1177421286702156,97
1671002826.77983212,141921497,0,22.280712127685547,24.476776123046875,18.6634464263916,178.8219451904297,4.046095371246338,0.0,0.11766663193702698,97
1671002826.87971306,142021378,0,22.22748374938965,24.436172485351562,18.75796890258789,179.3423614501953,4.0576629638671875,0.0,0.11774669587612152,97
1671002826.97981405,142121479,0,22.237152099609375,24.410898208618164,18.46120834350586,179.85572814941406,4.06907844543457,0.0,0.11774669587612152,97
1671002827.07973599,142221401,0,22.255151748657227,24.41892433166504,18.376506805419922,180.36585998535156,4.0804314613342285,0.0,0.11774669587612152,97
1671002827.17989802,142321563,0,22.264915466308594,24.46079444885254,18.659151077270508,180.8850860595703,4.091991901397705,0.0,0.1176837608218193,97
1671002827.27972412,142421389,0,22.320241928100586,24.498943328857422,18.486303329467773,181.39773559570312,4.1034345626831055,0.0,0.11785492300987244,97
1671002827.37986708,142521532,0,22.295551300048828,24.44633674621582,18.254669189453125,181.90557861328125,4.114757061004639,0.0,0.11782107502222061,97
1671002827.47983408,142621499,0,22.30924415588379,24.40180778503418,17.786052703857422,182.39950561523438,4.125776290893555,0.0,0.11765195429325104,97
1671002827.57994294,142721608,0,22.37319564819336,24.431791305541992,17.502792358398438,182.88626098632812,4.136666297912598,0.0,0.11761528998613358,97
1671002827.67979908,142821464,0,22.428821563720703,24.46382713317871,17.291345596313477,183.3659210205078,4.147424697875977,0.0,0.11768922209739685,97
1671002827.77983308,142921498,0,22.414268493652344,24.49776268005371,17.678333282470703,183.85719299316406,4.158436298370361,0.0,0.11785583198070526,97
1671002827.87969398,143021359,0,22.411779403686523,24.42616844177246,17.106292724609375,184.3317413330078,4.169071674346924,0.0,0.11775720119476318,97
1671002827.97977996,143121445,0,22.457733154296875,24.39995574951172,16.516145706176758,184.79095458984375,4.179384231567383,0.0,0.1175953596830368,97
1671002828.07971692,143221382,0,22.489910125732422,24.430524826049805,16.506528854370117,185.2492218017578,4.189690589904785,0.0,0.11756647378206253,97
1671002828.17981005,143321475,0,22.492292404174805,24.461593627929688,16.739559173583984,185.7146759033203,4.200159549713135,0.0,0.1176435649394989,97
1671002828.27969408,143421359,0,22.54791831970215,24.498260498046875,16.55327796936035,186.1739959716797,4.210516452789307,0.0,0.1178220808506012,97
1671002828.37981892,143521484,0,22.65542984008789,24.415538787841797,14.954693794250488,186.58995056152344,4.219940185546875,0.0,0.11769606918096542,97
1671002828.47977901,143621444,0,22.550119400024414,24.36608123779297,15.463210105895996,187.01934814453125,4.229623317718506,0.0,0.11743755638599396,97
1671002828.57989311,143721558,0,22.505027770996094,24.44931411743164,16.546833038330078,187.47955322265625,4.239980220794678,0.0,0.11750201135873795,97
1671002828.67972708,143821392,0,22.555194854736328,24.470783233642578,16.285978317260742,187.9312286376953,4.2501678466796875,0.0,0.11762195825576782,97
1671002828.77982306,143921488,0,22.54734230041504,24.434911727905273,16.050594329833984,188.37753295898438,4.260231018066406,0.0,0.1176011711359024,97
1671002828.87973213,144021397,0,22.58490562438965,24.396530151367188,15.423211097717285,188.80560302734375,4.269898891448975,0.0,0.1174609437584877,97
1671002828.97973800,144121403,0,22.528770446777344,24.351383209228516,15.55067253112793,189.2376251220703,4.279631614685059,0.0,0.11720477789640427,97
1671002829.07972312,144221388,0,22.560077667236328,24.460060119628906,16.210790634155273,189.68789672851562,4.28978967666626,0.0,0.11720477789640427,97
1671002829.17979908,144321464,0,22.607946395874023,24.459489822387695,15.781146049499512,190.1266326904297,4.299708366394043,0.0,0.1173262745141983,97
1671002829.27980494,144421470,0,22.622211456298828,24.385818481445312,15.049830436706543,190.54473876953125,4.30916690826416,0.0,0.11718457192182541,97
1671002829.37972403,144521389,0,22.579225540161133,24.37019920349121,15.304547309875488,190.9695587158203,4.318758964538574,0.0,0.1170223206281662,97
1671002829.47977400,144621439,0,22.581714630126953,24.43293571472168,15.809379577636719,191.40896606445312,4.328681468963623,0.0,0.11709636449813843,97
1671002829.57980013,144721465,0,22.46156120300293,24.330326080322266,15.918018341064453,191.8512725830078,4.338616371154785,0.0,0.11739932745695114,97
1671002829.67968607,144821351,0,22.57937240600586,24.466947555541992,16.078248977661133,192.29742431640625,4.348690032958984,0.0,0.11739932745695114,97
1671002829.77979612,144921461,0,22.52187728881836,24.36650276184082,15.712403297424316,192.73439025878906,4.358531475067139,0.0,0.11739932745695114,97
1671002829.87975311,145021418,0,22.570415496826172,24.400066375732422,15.58780574798584,193.16722106933594,4.368300437927246,0.0,0.11737708002328873,97
1671002829.97972894,145121394,0,22.488752365112305,24.356670379638672,15.890089988708496,193.60855102539062,4.378225326538086,0.0,0.11755236238241196,97
1671002830.07971096,145221376,0,22.423555374145508,24.31260871887207,16.027271270751953,194.0537109375,4.38820743560791,0.0,0.11786495894193649,97
1671002830.17981505,145321480,0,22.511632919311523,24.38237953186035,15.868608474731445,194.4949951171875,4.398141384124756,0.0,0.11788978427648544,97
1671002830.27975798,145421423,0,22.47199821472168,24.375139236450195,16.136831283569336,194.94302368164062,4.408209323883057,0.0,0.11793767660856247,97
1671002830.37998104,145521646,0,22.365535736083984,24.316913604736328,16.510622024536133,195.4027099609375,4.418490409851074,0.0,0.11818928271532059,97
1671002830.47970200,145621367,0,22.28980827331543,24.316709518432617,17.117340087890625,195.8769073486328,4.429059982299805,0.0,0.11841216683387756,97
1671002830.57968497,145721350,0,22.303434371948242,24.384931564331055,17.58575439453125,196.3653564453125,4.4399542808532715,0.0,0.11836268752813339,97
1671002830.67974401,145821409,0,22.294116973876953,24.424335479736328,18.025732040405273,196.8664093017578,4.451124668121338,0.0,0.11817651987075806,97
1671002830.77982402,145921489,0,22.251131057739258,24.391239166259766,18.11626434326172,197.37008666992188,4.462332248687744,0.0,0.11813181638717651,97
1671002830.87969995,146021365,0,22.25859832763672,24.405359268188477,18.186542510986328,197.8746795654297,4.4735636711120605,0.0,0.11804122477769852,97
1671002830.97971392,146121379,0,22.1469669342041,24.311279296875,18.294872283935547,198.3829803466797,4.484821319580078,0.0,0.11830155551433563,97
1671002831.07978702,146221452,0,22.255247116088867,24.512954711914062,19.165517807006836,198.91578674316406,4.496678829193115,0.0,0.1178005114197731,97
1671002831.17975807,146321423,0,22.20977020263672,24.432273864746094,18.890851974487305,199.4404296875,4.508330821990967,0.0,0.11764975637197495,97
1671002831.27976394,146421429,0,22.212642669677734,24.537128448486328,19.844661712646484,199.99176025390625,4.5205769538879395,0.0,0.11713403463363647,97
1671002831.37984109,146521506,0,22.168315887451172,24.501220703125,19.972328186035156,200.5469970703125,4.532885551452637,0.0,0.11680687963962555,97
1671002831.47968912,146621354,0,22.162273406982422,24.493511199951172,20.00301742553711,201.1018524169922,4.545182228088379,0.0,0.11654426157474518,97
1671002831.57970810,146721373,0,22.150222778320312,24.562387466430664,20.784048080444336,201.67933654785156,4.557973861694336,0.0,0.11605848371982574,97
