timestamp,TimeUS,Instance,Volt,VoltR,Curr,CurrTot,EnrgTot,Temp,Res,RemPct
1666162805.44017887,293509503,0,24.737438201904297,24.813114166259766,0.5002288222312927,46.55424118041992,1.154942274093628,0.0,0.15128114819526672,99
1666162805.54028606,293609610,0,24.74921417236328,24.828758239746094,0.5258029103279114,46.56886291503906,1.155304193496704,0.0,0.15128114819526672,99
1666162805.64023805,293709562,0,24.765642166137695,24.8500919342041,0.5582308173179626,46.5843620300293,1.1556880474090576,0.0,0.15128114819526672,99
1666162805.74056792,293809892,0,24.758073806762695,24.8392276763916,0.5364417433738708,46.59931182861328,1.1560581922531128,0.0,0.15128114819526672,99
1666162805.83994794,293909272,0,24.72769546508789,24.799610137939453,0.475370854139328,46.61243438720703,1.15638267993927,0.0,0.15128114819526672,99
1666162805.94021797,294009542,0,24.724245071411133,24.794767379760742,0.46616417169570923,46.62541961669922,1.1567037105560303,0.0,0.15128114819526672,99
1666162806.04027987,294109604,0,24.74686050415039,24.823881149291992,0.5091286301612854,46.63956832885742,1.157053828239441,0.0,0.15128114819526672,99
1666162806.14028907,294209613,0,24.77838897705078,24.865903854370117,0.5784854888916016,46.6556396484375,1.15745210647583,0.0,0.15128114819526672,99
1666162806.24022508,294309549,0,24.772733688354492,24.85866928100586,0.5680513381958008,46.67141342163086,1.1578428745269775,0.0,0.15128114819526672,99
1666162806.34023309,294409557,0,24.697986602783203,24.759780883789062,0.4084691107273102,46.682762145996094,1.1581231355667114,0.0,0.15128114819526672,99
1666162806.44028401,294509608,0,24.749107360839844,24.827001571655273,0.5148912668228149,46.69707107543945,1.1584773063659668,0.0,0.15128114819526672,99
1666162806.54033589,294609660,0,24.76573944091797,24.850467681884766,0.5600721836090088,46.71263885498047,1.158862829208374,0.0,0.15128114819526672,99
1666162806.64046597,294709790,0,24.762672424316406,24.845218658447266,0.5456483960151672,46.727813720703125,1.159238576889038,0.0,0.15128114819526672,99
1666162806.74041200,294809736,0,24.74523162841797,24.82295036315918,0.5137319564819336,46.74208068847656,1.159591555595398,0.0,0.15128114819526672,99
1666162806.84013200,294909456,0,24.716388702392578,24.78500747680664,0.4535817503929138,46.75464630126953,1.1599020957946777,0.0,0.15128114819526672,99
1666162806.94029903,295009623,0,24.733348846435547,24.80712127685547,0.4876464009284973,46.76821517944336,1.1602376699447632,0.0,0.15128114819526672,99
1666162807.04016495,295109489,0,24.76880645751953,24.854324340820312,0.5652892589569092,46.783897399902344,1.1606260538101196,0.0,0.15128114819526672,99
1666162807.14025998,295209584,0,24.758453369140625,24.841278076171875,0.5474897027015686,46.79912185668945,1.1610029935836792,0.0,0.15128114819526672,99
1666162807.24039793,295309722,0,24.765546798706055,24.85092544555664,0.5643686056137085,46.814823150634766,1.1613918542861938,0.0,0.15128114819526672,99
1666162807.34042406,295409748,0,24.72749137878418,24.799091339111328,0.4732908606529236,46.82797622680664,1.1617170572280884,0.0,0.15128114819526672,99
1666162807.43993187,295509256,0,24.711883544921875,24.779340744018555,0.4459095299243927,46.840301513671875,1.1620216369628906,0.0,0.15128114819526672,99
1666162807.54033709,295609661,0,24.764015197753906,24.847768783569336,0.5536274909973145,46.855743408203125,1.1624040603637695,0.0,0.15128114819526672,99
1666162807.63997197,295709296,0,24.758935928344727,24.841854095458984,0.5481035113334656,46.87091064453125,1.1627795696258545,0.0,0.15128114819526672,99
1666162807.74033093,295809655,0,24.74388885498047,24.87652015686035,0.8942741751670837,46.89584732055664,1.1633965969085693,0.0,0.14831259846687317,99
1666162807.84023809,295909562,0,24.419509887695312,24.870691299438477,3.0698094367980957,46.98104476928711,1.1654771566390991,0.0,0.14697398245334625,99
1666162807.94022989,296009554,0,24.513996124267578,24.89032554626465,2.592597007751465,47.05302429199219,1.1672416925430298,0.0,0.14515569806098938,99
1666162808.04016900,296109493,0,24.645187377929688,24.89202117919922,1.7191914319992065,47.10078048706055,1.1684186458587646,0.0,0.1435755044221878,99
1666162808.14029193,296209616,0,24.645187377929688,24.88673973083496,1.696481704711914,47.1479606628418,1.169581413269043,0.0,0.14238448441028595,99
1666162808.24020505,296309529,0,24.61803436279297,24.856525421142578,1.674931287765503,47.194454193115234,1.1707260608673096,0.0,0.1423880159854889,99
1666162808.34026408,296409588,0,24.599380493164062,24.823780059814453,1.5635987520217896,47.2379150390625,1.1717952489852905,0.0,0.1435149759054184,99
1666162808.44022989,296509554,0,24.62659454345703,24.85190773010254,1.5697364807128906,47.28150939941406,1.1728687286376953,0.0,0.1435352861881256,99
1666162808.54036188,296609686,0,24.659849166870117,24.890623092651367,1.6077908277511597,47.32623291015625,1.1739716529846191,0.0,0.1435352861881256,99
1666162808.64017487,296709499,0,24.644420623779297,24.867355346679688,1.5531646013259888,47.369300842285156,1.1750329732894897,0.0,0.1435352861881256,99
1666162808.74026108,296809585,0,24.66234016418457,24.887609481811523,1.569429636001587,47.41293716430664,1.1761091947555542,0.0,0.1435352861881256,99
1666162808.83995795,296909282,0,24.614904403686523,24.82215690612793,1.443912148475647,47.45292663574219,1.177093505859375,0.0,0.1435352861881256,99
1666162808.94032001,297009644,0,24.609155654907227,24.818082809448242,1.4555739164352417,47.493507385253906,1.1780922412872314,0.0,0.1435352861881256,99
1666162809.04020309,297109527,0,24.645570755004883,24.86625862121582,1.5375131368637085,47.536170959472656,1.1791436672210693,0.0,0.1435352861881256,99
1666162809.14036107,297209685,0,24.662221908569336,24.888635635375977,1.577408790588379,47.58005905151367,1.1802260875701904,0.0,0.1435352861881256,99
1666162809.24022007,297309544,0,24.664926528930664,24.891693115234375,1.5798639059066772,47.623878479003906,1.1813068389892578,0.0,0.1435352861881256,99
1666162809.34037495,297409699,0,24.5860595703125,24.78754234313965,1.4037096500396729,47.662940979003906,1.1822673082351685,0.0,0.1435352861881256,99
1666162809.44024706,297509571,0,24.626211166381836,24.840864181518555,1.4954694509506226,47.70443344116211,1.1832890510559082,0.0,0.1435352861881256,99
1666162809.54025006,297609574,0,24.656782150268555,24.882314682006836,1.5712709426879883,47.748085021972656,1.1843653917312622,0.0,0.1435352861881256,99
1666162809.64016700,297709491,0,24.654481887817383,24.87917709350586,1.565440058708191,47.79153823852539,1.185436725616455,0.0,0.1435352861881256,99
1666162809.74021292,297809537,0,24.628225326538086,24.843538284301758,1.500072717666626,47.833229064941406,1.186463475227356,0.0,0.1435352861881256,99
1666162809.84025002,297909574,0,24.59765625,24.804115295410156,1.4383881092071533,47.87320327758789,1.1874467134475708,0.0,0.1435352861881256,99
1666162809.94019890,298009523,0,24.631961822509766,24.849918365478516,1.5184861421585083,47.915367126464844,1.1884852647781372,0.0,0.1435352861881256,99
1666162810.04020810,298109532,0,24.66030502319336,24.886768341064453,1.5777496099472046,47.95920181274414,1.1895662546157837,0.0,0.1435352861881256,99
1666162810.14020395,298209528,0,24.64394187927246,24.864849090576172,1.5390475988388062,48.001953125,1.1906198263168335,0.0,0.1435352861881256,99
1666162810.24023795,298309562,0,24.655344009399414,24.88083267211914,1.5709640979766846,48.04560852050781,1.1916961669921875,0.0,0.1435352861881256,99
1666162810.34032393,298409648,0,24.61595916748047,24.82823371887207,1.4788973331451416,48.086727142333984,1.1927083730697632,0.0,0.1435352861881256,99
1666162810.44031692,298509641,0,24.6065673828125,24.817916870117188,1.4724527597427368,48.12762451171875,1.1937147378921509,0.0,0.1435352861881256,99
1666162810.54039288,298609717,0,24.635507583618164,24.856679916381836,1.540889024734497,48.170467376708984,1.1947702169418335,0.0,0.1435352861881256,99
1666162810.63994408,298709268,0,24.649978637695312,24.874454498291016,1.5639057159423828,48.21371841430664,1.1958363056182861,0.0,0.1435352861881256,99
1666162810.74030495,298809629,0,24.65285301208496,24.878517150878906,1.5721917152404785,48.25755310058594,1.196916937828064,0.0,0.1435352861881256,99
1666162810.84021091,298909535,0,24.5887451171875,24.793882369995117,1.4291815757751465,48.297218322753906,1.1978923082351685,0.0,0.1435352861881256,99
1666162810.94032693,299009651,0,24.629854202270508,24.848114013671875,1.520804762840271,48.339515686035156,1.1989340782165527,0.0,0.14351627230644226,99
1666162811.04015899,299109483,0,24.649211883544922,24.874229431152344,1.5678951740264893,48.382999420166016,1.2000058889389038,0.0,0.14351627230644226,99
1666162811.14028907,299209613,0,24.644804000854492,24.867752075195312,1.5534714460372925,48.426212310791016,1.201070785522461,0.0,0.14351627230644226,99
1666162811.24022508,299309549,0,24.654769897460938,24.881153106689453,1.577408790588379,48.469993591308594,1.2021502256393433,0.0,0.14351627230644226,99
1666162811.34023690,299409561,0,24.617971420288086,24.832508087158203,1.4948557615280151,48.51153564453125,1.2031729221343994,0.0,0.14351627230644226,99
1666162811.44023108,299509555,0,24.6065673828125,24.81793212890625,1.4727596044540405,48.55244445800781,1.2041795253753662,0.0,0.14351627230644226,99
1666162811.54026604,299609590,0,24.587688446044922,24.790992736816406,1.4165990352630615,48.59181594848633,1.2051475048065186,0.0,0.14351627230644226,99
1666162811.64022493,299709549,0,24.639055252075195,24.861783981323242,1.5519371032714844,48.634910583496094,1.2062093019485474,0.0,0.14351627230644226,99
1666162811.74025607,299809580,0,24.64384651184082,24.86785125732422,1.5608367919921875,48.67828369140625,1.2072781324386597,0.0,0.14351627230644226,99
1666162811.84035993,299909684,0,24.597909927368164,24.805992126464844,1.4498794078826904,48.71860122680664,1.2082699537277222,0.0,0.14351627230644226,99
1666162811.94051003,300009834,0,24.59909439086914,24.808345794677734,1.45802903175354,48.75916290283203,1.2092677354812622,0.0,0.14351627230644226,99
1666162812.04000688,300109331,0,24.628990173339844,24.849384307861328,1.5356718301773071,48.801612854003906,1.210313320159912,0.0,0.14351627230644226,99
1666162812.14031887,300209643,0,24.650362014770508,24.8773193359375,1.581398367881775,48.845680236816406,1.2113995552062988,0.0,0.14351627230644226,99
1666162812.24043489,300309759,0,24.648540496826172,24.87430763244629,1.5731122493743896,48.889427185058594,1.2124778032302856,0.0,0.14351627230644226,99
1666162812.34051609,300409840,0,24.583375930786133,24.787914276123047,1.425191879272461,48.92905807495117,1.2134519815444946,0.0,0.14351627230644226,99
1666162812.44023204,300509556,0,24.61701202392578,24.83238410949707,1.500686526298523,48.97063064575195,1.2144752740859985,0.0,0.14351627230644226,99
1666162812.54035187,300609676,0,24.651321411132812,24.877838134765625,1.5783294439315796,49.014530181884766,1.2155574560165405,0.0,0.14351627230644226,99
1666162812.64043307,300709757,0,24.263790130615234,25.02996826171875,5.482263088226318,49.16695022583008,1.219255805015564,0.0,0.13975581526756287,99
1666162812.74046493,300809789,0,24.048175811767578,25.035259246826172,7.906821250915527,49.38667297363281,1.2245397567749023,0.0,0.12483937293291092,99
1666162812.84047008,300909794,0,24.04903793334961,24.98433494567871,7.588440895080566,49.597476959228516,1.2296093702316284,0.0,0.12325277924537659,99
1666162812.94050908,301009833,0,23.933849334716797,24.919139862060547,8.024223327636719,49.820491790771484,1.2349469661712646,0.0,0.12278947979211807,99
1666162813.04056501,301109889,0,24.04463005065918,24.949792861938477,7.4214935302734375,50.02676773071289,1.2399067878723145,0.0,0.12196511030197144,99
1666162813.14040208,301209726,0,23.81875991821289,25.009845733642578,9.868931770324707,50.30044937133789,1.2464255094528198,0.0,0.12069045007228851,99
1666162813.24039102,301309715,0,23.44330406188965,25.029930114746094,13.585049629211426,50.67786407470703,1.2552733421325684,0.0,0.11679203063249588,99
1666162813.34037089,301409695,0,23.18408966064453,25.02890396118164,16.007938385009766,51.12247085571289,1.2655811309814453,0.0,0.11524374037981033,99
1666162813.43999100,301509315,0,22.750944137573242,24.991424560546875,19.508617401123047,51.66236114501953,1.2778640985488892,0.0,0.11484567075967789,99
1666162813.54032993,301609654,0,22.26394271850586,25.028331756591797,24.168724060058594,52.33604431152344,1.292862892150879,0.0,0.11437876522541046,99
1666162813.64030004,301709624,0,22.013202667236328,25.0255184173584,27.35232162475586,53.095664978027344,1.3095844984054565,0.0,0.11013016104698181,99
1666162813.74036503,301809689,0,21.953937530517578,25.024574279785156,28.24728012084961,53.88089370727539,1.326823353767395,0.0,0.10870559513568878,99
1666162813.84035301,301909677,0,21.924999237060547,24.901269912719727,27.368349075317383,54.64108657836914,1.3434906005859375,0.0,0.10874864459037781,99
1666162813.94045806,302009782,0,21.89663314819336,24.954076766967773,28.158588409423828,55.42401885986328,1.360634207725525,0.0,0.10857943445444107,99
1666162814.04034209,302109666,0,21.903244018554688,24.971017837524414,28.31049919128418,56.209712982177734,1.3778434991836548,0.0,0.10836168378591537,99
1666162814.14034510,302209669,0,21.974634170532227,24.925748825073242,27.238536834716797,56.96625518798828,1.3944683074951172,0.0,0.10834334790706635,99
1666162814.24026108,302309585,0,21.97665023803711,24.915559768676758,27.120075225830078,57.71917724609375,1.4110150337219238,0.0,0.10836657136678696,99
1666162814.34030008,302409624,0,21.92624282836914,24.88579559326172,27.275976181030273,58.47720718383789,1.4276357889175415,0.0,0.10850401222705841,99
1666162814.44022298,302509547,0,21.92298698425293,24.8634090423584,27.046730041503906,59.22798538208008,1.4440951347351074,0.0,0.10871636867523193,99
1666162814.54030800,302609632,0,21.988819122314453,24.901531219482422,26.780826568603516,59.972412109375,1.4604641199111938,0.0,0.10876106470823288,99
1666162814.64021993,302709544,0,22.0211124420166,24.853471755981445,25.987655639648438,60.693878173828125,1.4763516187667847,0.0,0.1089886724948883,99
1666162814.74034095,302809665,0,22.04152488708496,24.85911750793457,25.808124542236328,61.41170120239258,1.4921735525131226,0.0,0.10917466878890991,99
1666162814.84025693,302909581,0,21.997732162475586,24.77366828918457,25.310352325439453,62.11423110961914,1.5076276063919067,0.0,0.10967593640089035,99
1666162814.94028687,303009611,0,22.038841247558594,24.80191993713379,25.1931209564209,62.81430435180664,1.5230563879013062,0.0,0.10967593640089035,99
1666162815.04029107,303109615,0,22.06653594970703,24.84165382385254,25.271377563476562,63.51633071899414,1.5385476350784302,0.0,0.1098126545548439,99
1666162815.14041591,303209740,0,22.113779067993164,24.831348419189453,24.778512954711914,64.20558166503906,1.553789496421814,0.0,0.10967442393302917,99
1666162815.24007702,303309401,0,22.185745239257812,24.785680770874023,23.76117706298828,64.8634262084961,1.5683842897415161,0.0,0.10941950976848602,99
1666162815.34035492,303409679,0,22.130069732666016,24.70856285095215,23.661745071411133,65.52257537841797,1.5829713344573975,0.0,0.10897304117679596,99
1666162815.44034410,303509668,0,22.086669921875,24.69679069519043,23.951993942260742,66.1878890991211,1.5976659059524536,0.0,0.10897304117679596,99
1666162815.54036593,303609690,0,22.127674102783203,24.779787063598633,24.34764289855957,66.86441040039062,1.6126357316970825,0.0,0.10892686992883682,99
1666162815.64032197,303709646,0,22.11195945739746,24.7683162689209,24.386615753173828,67.54158020019531,1.6276092529296875,0.0,0.10892686992883682,99
1666162815.74038291,303809707,0,22.12891960144043,24.78589630126953,24.3930606842041,68.2196273803711,1.6426136493682861,0.0,0.10892345756292343,99
1666162815.84001589,303909340,0,22.138601303100586,24.76252555847168,24.107040405273438,68.8868637084961,1.6573853492736816,0.0,0.10884476453065872,99
1666162815.94035101,304009675,0,22.058677673339844,24.67806053161621,24.065303802490234,69.55764770507812,1.6721818447113037,0.0,0.10884476453065872,99
1666162816.04023600,304109560,0,22.104389190673828,24.713150024414062,23.967714309692383,70.22270202636719,1.686882495880127,0.0,0.10884476453065872,99
1666162816.14038110,304209705,0,22.1298770904541,24.760334014892578,24.163509368896484,70.89493560791016,1.7017589807510376,0.0,0.10886067897081375,99
1666162816.24026108,304309585,0,22.17424774169922,24.736730575561523,23.5531063079834,71.54837799072266,1.7162485122680664,0.0,0.10879594087600708,99
1666162816.34033394,304409658,0,22.173446655273438,24.65383529663086,22.865947723388672,72.18413543701172,1.730345368385315,0.0,0.1084752231836319,99
1666162816.44022608,304509550,0,22.188528060913086,24.64022445678711,22.662208557128906,72.8130111694336,1.7442991733551025,0.0,0.10818438977003098,99
1666162816.54038310,304609707,0,22.26930809020996,24.70138931274414,22.485746383666992,73.43864440917969,1.7582316398620605,0.0,0.10816103219985962,99
1666162816.64031005,304709634,0,22.269981384277344,24.69480323791504,22.426822662353516,74.06120300292969,1.772096037864685,0.0,0.10812151432037354,99
1666162816.74033689,304809661,0,22.285503387451172,24.67275047302246,22.10029411315918,74.6753158569336,1.7857818603515625,0.0,0.10801883041858673,99
1666162816.84034491,304909669,0,22.27276039123535,24.67670440673828,22.268470764160156,75.29398345947266,1.7995612621307373,0.0,0.1079527959227562,99
1666162816.94036603,305009690,0,22.22283172607422,24.58959197998047,21.992576599121094,75.90505981445312,1.813141107559204,0.0,0.1076163649559021,99
1666162817.04034090,305109665,0,22.28818702697754,24.614824295043945,21.655305862426758,76.50650024414062,1.8265460729599,0.0,0.10743963718414307,99
1666162817.14036894,305209693,0,22.34185218811035,24.687074661254883,21.807830810546875,77.11248779296875,1.8400850296020508,0.0,0.10754041373729706,99
1666162817.24041200,305309736,0,22.362655639648438,24.653547286987305,21.308998107910156,77.70470428466797,1.8533285856246948,0.0,0.10750813782215118,99
1666162817.34030008,305409624,0,22.359006881713867,24.60387420654297,20.917545318603516,78.28514099121094,1.8663066625595093,0.0,0.10731981694698334,99
1666162817.44029498,305509619,0,22.349424362182617,24.535354614257812,20.439105987548828,78.85291290283203,1.8789960145950317,0.0,0.10694842785596848,99
1666162817.54033899,305609663,0,22.400211334228516,24.611169815063477,20.680320739746094,79.42765808105469,1.8918704986572266,0.0,0.10691121965646744,99
1666162817.64023209,305709556,0,22.427139282226562,24.599910736083984,20.335683822631836,79.99198150634766,1.904526710510254,0.0,0.10684530436992645,99
1666162817.74033093,305809655,0,22.445537567138672,24.576147079467773,19.965269088745117,80.54716491699219,1.9169881343841553,0.0,0.10671581327915192,99
1666162817.84025192,305909576,0,22.42991828918457,24.517173767089844,19.613265991210938,81.09152221679688,1.929198145866394,0.0,0.10642058402299881,99
1666162817.94032502,306009649,0,22.41152000427246,24.544252395629883,20.066848754882812,81.64944458007812,1.941702127456665,0.0,0.10628142207860947,99
1666162818.04024410,306109568,0,22.408653259277344,24.573974609375,20.375375747680664,82.21501159667969,1.9543757438659668,0.0,0.10627149045467377,99
1666162818.14036489,306209689,0,22.41075325012207,24.598995208740234,20.57659149169922,82.78732299804688,1.9672017097473145,0.0,0.10634616762399673,99
1666162818.24035406,306309678,0,22.393693923950195,24.594207763671875,20.69198226928711,83.3620834350586,1.9800727367401123,0.0,0.10634616762399673,99
1666162818.34042287,306409747,0,22.378650665283203,24.534517288208008,20.272159576416016,83.92556762695312,1.9926828145980835,0.0,0.10634616762399673,99
1666162818.44031405,306509638,0,22.47170066833496,24.55190086364746,19.574905395507812,84.46879577636719,2.004889965057373,0.0,0.10626868158578873,98
1666162818.54036403,306609688,0,22.501405715942383,24.577552795410156,19.532249450683594,85.01170349121094,2.017106294631958,0.0,0.10629325360059738,98
1666162818.64002800,306709352,0,22.4704532623291,24.56239891052246,19.686614990234375,85.5567626953125,2.0293538570404053,0.0,0.10626228898763657,98
1666162818.74036694,306809691,0,22.47994041442871,24.578107833862305,19.740013122558594,86.10700225830078,2.0417232513427734,0.0,0.10629009455442429,98
1666162818.84026909,306909593,0,22.45952796936035,24.53905487060547,19.58441925048828,86.65052795410156,2.0539305210113525,0.0,0.10618270933628082,98
1666162818.94031405,307009638,0,22.41983413696289,24.47653579711914,19.369461059570312,87.18885040283203,2.065999746322632,0.0,0.10618270933628082,98
1666162819.04026699,307109591,0,22.46307373046875,24.530513763427734,19.48222541809082,87.72976684570312,2.0781502723693848,0.0,0.10611926764249802,98
1666162819.14034796,307209672,0,22.467100143432617,24.543811798095703,19.57061004638672,88.27392578125,2.0903759002685547,0.0,0.10611382871866226,98
1666162819.24028397,307309608,0,22.50044822692871,24.537641525268555,19.20265007019043,88.80702209472656,2.1023707389831543,0.0,0.10608917474746704,98
1666162819.34043789,307409762,0,22.4909610748291,24.462120056152344,18.627540588378906,89.32530212402344,2.114027261734009,0.0,0.10581964999437332,98
1666162819.44022799,307509552,0,22.48271942138672,24.46170997619629,18.738943099975586,89.84477996826172,2.125706434249878,0.0,0.10560841858386993,98
1666162819.54034400,307609668,0,22.48204803466797,24.516559600830078,19.261571884155273,90.38048553466797,2.1377501487731934,0.0,0.1056254655122757,98
1666162819.64025092,307709575,0,22.505813598632812,24.52798080444336,19.135440826416016,90.91157531738281,2.149702787399292,0.0,0.1056765466928482,98
1666162819.74042201,307809746,0,22.535905838012695,24.509065628051758,18.675722122192383,91.4312744140625,2.161414623260498,0.0,0.10565377026796341,98
1666162819.84027910,307909603,0,22.47711753845215,24.441360473632812,18.591327667236328,91.9469985961914,2.173006534576416,0.0,0.10565377026796341,98
1666162819.94037104,308009695,0,22.500734329223633,24.48857307434082,18.822721481323242,92.47038269042969,2.1847829818725586,0.0,0.10560847073793411,98
1666162820.04031491,308109639,0,22.522584915161133,24.518049240112305,18.883790969848633,92.99468231201172,2.19659161567688,0.0,0.10567071288824081,98
1666162820.14041305,308209737,0,22.50859260559082,24.50140380859375,18.85985565185547,93.51911926269531,2.2083959579467773,0.0,0.10566418617963791,98
1666162820.24030304,308309627,0,22.507442474365234,24.51602554321289,19.001331329345703,94.04639434814453,2.220263719558716,0.0,0.10570748895406723,98
1666162820.34039903,308409723,0,22.505334854125977,24.47779655456543,18.676029205322266,94.56571197509766,2.2319512367248535,0.0,0.10561466217041016,98
1666162820.44034100,308509665,0,22.47102928161621,24.417400360107422,18.428983688354492,95.0773696899414,2.2434487342834473,0.0,0.10561466217041016,98
1666162820.54028201,308609606,0,22.51999855041504,24.49665641784668,18.70948028564453,95.59680938720703,2.2551465034484863,0.0,0.10565010458230972,98
1666162820.64024687,308709571,0,22.52469253540039,24.50767707824707,18.75796890258789,96.11772155761719,2.2668800354003906,0.0,0.10571429133415222,98
1666162820.74035287,308809677,0,22.52440643310547,24.504638671875,18.724822998046875,96.63844299316406,2.278609037399292,0.0,0.10575436800718307,98
1666162820.84026694,308909591,0,22.455291748046875,24.431358337402344,18.685440063476562,97.1570816040039,2.290255308151245,0.0,0.10575436800718307,98
1666162820.94031405,309009638,0,22.46729278564453,24.453691482543945,18.78313446044922,97.67912292480469,2.3019840717315674,0.0,0.10575436800718307,98
1666162821.04029989,309109624,0,22.512042999267578,24.50016212463379,18.799396514892578,98.2012939453125,2.31373929977417,0.0,0.10575436800718307,98
1666162821.14033604,309209660,0,22.55027961730957,24.52320098876953,18.632143020629883,98.71907806396484,2.3254153728485107,0.0,0.10588803887367249,98
1666162821.24025297,309309577,0,22.539066314697266,24.494688034057617,18.467037200927734,99.23167419433594,2.3369686603546143,0.0,0.10589800775051117,98
1666162821.34039688,309409721,0,22.506196975708008,24.434682846069336,18.210784912109375,99.73829650878906,2.3483707904815674,0.0,0.10589800775051117,98
1666162821.44030309,309509627,0,22.5819034576416,24.481557846069336,17.939189910888672,100.2361831665039,2.359614133834839,0.0,0.10589411109685898,98
1666162821.54035997,309609684,0,22.61649513244629,24.501893997192383,17.793724060058594,100.73076629638672,2.370800018310547,0.0,0.10595864057540894,98
1666162821.64026093,309709585,0,22.6392822265625,24.47988510131836,17.374683380126953,101.21295928955078,2.38171648979187,0.0,0.10593593120574951,98
1666162821.74041796,309809742,0,22.751327514648438,24.460229873657227,16.144195556640625,101.66214752197266,2.3919360637664795,0.0,0.105852410197258,98
1666162821.84030604,309909630,0,22.790136337280273,24.46025848388672,15.787590980529785,102.10023498535156,2.4019200801849365,0.0,0.10578706115484238,98
1666162821.94042706,310009751,0,22.590238571166992,24.475114822387695,17.817352294921875,102.5958023071289,2.4131150245666504,0.0,0.10578875243663788,98
1666162822.04029489,310109619,0,22.440555572509766,24.432722091674805,18.80277442932129,103.1174545288086,2.424821138381958,0.0,0.10595066100358963,98
1666162822.14029408,310209618,0,22.475339889526367,24.50815773010254,19.212162017822266,103.65116119384766,2.436816453933716,0.0,0.10580892115831375,98
1666162822.24026608,310309590,0,22.441608428955078,24.529972076416016,19.776226043701172,104.20039367675781,2.4491419792175293,0.0,0.10559973120689392,98
1666162822.34036589,310409690,0,22.365617752075195,24.465003967285156,19.869213104248047,104.75291442871094,2.4614994525909424,0.0,0.10566022247076035,98
1666162822.44032097,310509645,0,22.32259178161621,24.454240798950195,20.156461715698242,105.31260681152344,2.4739933013916016,0.0,0.10575513541698456,98
1666162822.54042101,310609745,0,22.29403305053711,24.503889083862305,20.9166259765625,105.89424896240234,2.4869604110717773,0.0,0.10565070062875748,98
1666162822.64032698,310709651,0,22.255861282348633,24.5137996673584,21.39833641052246,106.48812866210938,2.5001778602600098,0.0,0.1055193841457367,98
1666162822.74034691,310809671,0,22.257617950439453,24.507160186767578,21.33736801147461,107.08100128173828,2.513373851776123,0.0,0.1054273322224617,98
1666162822.84038591,310909710,0,22.163801193237305,24.44611358642578,21.617252349853516,107.68177032470703,2.526689052581787,0.0,0.10557826608419418,98
1666162822.94041610,311009740,0,22.163705825805664,24.44390106201172,21.567842483520508,108.2811050415039,2.5399725437164307,0.0,0.10572201758623123,98
1666162823.04007602,311109400,0,22.229732513427734,24.520545959472656,21.70195198059082,108.88192749023438,2.5533287525177,0.0,0.10555791109800339,98
1666162823.14036798,311209692,0,22.21104621887207,24.503177642822266,21.731109619140625,109.48738861083984,2.566776752471924,0.0,0.10547692328691483,98
1666162823.24004507,311309369,0,22.172521591186523,24.52105712890625,22.29578399658203,110.10475158691406,2.580465316772461,0.0,0.10533540695905685,98
1666162823.34042001,311409744,0,22.118377685546875,24.496366500854492,22.582416534423828,110.73445129394531,2.594393253326416,0.0,0.10530270636081696,98
1666162823.44026208,311509586,0,22.08685302734375,24.461000442504883,22.5231876373291,111.3591537475586,2.6081910133361816,0.0,0.10540899634361267,98
1666162823.54039001,311609714,0,22.01213836669922,24.49041175842285,23.514846801757812,112.01323699951172,2.622588872909546,0.0,0.10539186745882034,98
1666162823.64027500,311709599,0,21.970706939697266,24.525808334350586,24.278898239135742,112.68692779541016,2.637390375137329,0.0,0.10523960739374161,98
1666162823.74041295,311809737,0,21.947324752807617,24.523582458496094,24.509986877441406,113.3687515258789,2.6523544788360596,0.0,0.10511051118373871,98
1666162823.84033203,311909656,0,21.874113082885742,24.457042694091797,24.540674209594727,114.04981994628906,2.6672523021698,0.0,0.1052509993314743,98
1666162823.94030309,312009627,0,21.86817169189453,24.45760154724121,24.573205947875977,114.73239135742188,2.6821787357330322,0.0,0.10537617653608322,98
1666162824.04028988,312109614,0,21.912059783935547,24.491193771362305,24.479297637939453,115.41233825683594,2.697077751159668,0.0,0.10535982996225357,98
1666162824.14032197,312209646,0,21.93419647216797,24.479320526123047,24.149391174316406,116.08341979980469,2.7117974758148193,0.0,0.10539085417985916,98
1666162824.24027300,312309597,0,21.902667999267578,24.461706161499023,24.259258270263672,116.75699615478516,2.726550579071045,0.0,0.10548710823059082,98
1666162824.34035802,312409682,0,21.833097457885742,24.4062442779541,24.323396682739258,117.43328857421875,2.741316080093384,0.0,0.105788953602314,98
1666162824.44032407,312509648,0,21.850507736206055,24.423828125,24.27763557434082,118.10749053955078,2.7560477256774902,0.0,0.10599551349878311,98
1666162824.54044104,312609765,0,21.90515899658203,24.456422805786133,24.055482864379883,118.77652740478516,2.770703077316284,0.0,0.10605747997760773,98
1666162824.64040303,312709727,0,21.893373489379883,24.432353973388672,23.906028747558594,119.440185546875,2.7852327823638916,0.0,0.10620670020580292,98
1666162824.74038696,312809711,0,21.931034088134766,24.44150733947754,23.65652847290039,120.09746551513672,2.799647569656372,0.0,0.10612177848815918,98
1666162824.84033608,312909660,0,21.95192527770996,24.408842086791992,23.189443588256836,120.74134063720703,2.81378173828125,0.0,0.1059497743844986,98
1666162824.94041491,313009739,0,21.88724136352539,24.33846664428711,23.1357364654541,121.38455963134766,2.827860116958618,0.0,0.1059497743844986,98
1666162825.04027700,313109601,0,21.91598892211914,24.375669479370117,23.21552848815918,122.02859497070312,2.8419747352600098,0.0,0.1059497743844986,98
1666162825.14039397,313209718,0,21.935443878173828,24.396392822265625,23.245603561401367,122.67510986328125,2.856156349182129,0.0,0.10586731880903244,98
1666162825.24027205,313309596,0,21.955705642700195,24.422100067138672,23.292524337768555,123.3213882446289,2.8703458309173584,0.0,0.10588780045509338,98
1666162825.34037709,313409701,0,21.866159439086914,24.31296157836914,23.10750389099121,123.9639892578125,2.884397029876709,0.0,0.10588780045509338,98
1666162825.44025397,313509578,0,21.889062881469727,24.322185516357422,22.978303909301758,124.6015396118164,2.8983523845672607,0.0,0.10588780045509338,98
1666162825.54043508,313609759,0,21.97702980041504,24.40813446044922,22.944238662719727,125.24008178710938,2.9123857021331787,0.0,0.10595705360174179,98
1666162825.64029098,313709615,0,22.00616455078125,24.42012596130371,22.762561798095703,125.87150573730469,2.926280975341797,0.0,0.10604959726333618,98
1666162825.74032402,313809648,0,21.96524429321289,24.397357940673828,22.934419631958008,126.50884246826172,2.9402801990509033,0.0,0.1060464084148407,98
1666162825.84028196,313909606,0,21.958345413208008,24.349367141723633,22.580883026123047,127.13587951660156,2.9540488719940186,0.0,0.10588695108890533,98
1666162825.94034696,314009671,0,21.94215202331543,24.35208511352539,22.759492874145508,127.76854705810547,2.967931032180786,0.0,0.10588695108890533,98
1666162826.04032803,314109652,0,21.9364013671875,24.402992248535156,23.313119888305664,128.4160614013672,2.98213529586792,0.0,0.10580270737409592,98
1666162826.14034891,314209673,0,21.91172981262207,24.3719482421875,23.24342155456543,129.06190490722656,2.996286630630493,0.0,0.10584577918052673,98
1666162826.24032998,314309654,0,21.921833038330078,24.394039154052734,23.366825103759766,129.7106475830078,3.0105082988739014,0.0,0.10579982399940491,98
1666162826.34038496,314409709,0,21.907459259033203,24.358787536621094,23.148935317993164,130.35433959960938,3.0246098041534424,0.0,0.10589376837015152,98
1666162826.44038200,314509706,0,21.8668270111084,24.310745239257812,23.078962326049805,130.99545288085938,3.0386290550231934,0.0,0.10589376837015152,98
1666162826.54040790,314609732,0,21.927106857299805,24.36203384399414,22.99917221069336,131.63453674316406,3.052642345428467,0.0,0.10587019473314285,98
1666162826.64034891,314709673,0,21.94675064086914,24.376005172729492,22.93963623046875,132.27142333984375,3.066619873046875,0.0,0.1058976799249649,98
1666162826.74045491,314809779,0,21.96006965637207,24.413406372070312,23.16703987121582,132.91567993164062,3.080767869949341,0.0,0.1058976799249649,98
1666162826.84029007,314909614,0,21.848047256469727,24.284809112548828,23.010528564453125,133.55386352539062,3.0947108268737793,0.0,0.1058976799249649,98
1666162826.94039702,315009721,0,21.919342041015625,24.321617126464844,22.712844848632812,134.1855010986328,3.108556032180786,0.0,0.10576726496219635,98
1666162827.04025102,315109575,0,21.982215881347656,24.37066078186035,22.569290161132812,134.81155395507812,3.1223180294036865,0.0,0.10582717508077621,98
1666162827.14040589,315209730,0,22.00108528137207,24.37348747253418,22.405956268310547,135.43496704101562,3.136033773422241,0.0,0.10588261485099792,98
1666162827.24028802,315309612,0,22.00846290588379,24.37490463256836,22.33966827392578,136.05482482910156,3.1496760845184326,0.0,0.10592999309301376,98
1666162827.34042096,315409745,0,22.046125411987305,24.382484436035156,22.04290771484375,136.66798400878906,3.163193941116333,0.0,0.10599139332771301,98
1666162827.44028592,315509610,0,21.970422744750977,24.241159439086914,21.508304595947266,137.26467895507812,3.1763033866882324,0.0,0.10557487607002258,98
1666162827.54040003,315609724,0,21.980005264282227,24.266124725341797,21.70318031311035,137.8682861328125,3.189570665359497,0.0,0.10533569008111954,98
1666162827.64032292,315709647,0,22.031463623046875,24.328317642211914,21.801076889038086,138.4734649658203,3.2029035091400146,0.0,0.10535508394241333,98
1666162827.74035406,315809678,0,22.041046142578125,24.329551696777344,21.717910766601562,139.0769805908203,3.216205596923828,0.0,0.10537411272525787,98
1666162827.84036207,315909686,0,22.059349060058594,24.317262649536133,21.432811737060547,139.67242431640625,3.2293407917022705,0.0,0.10534847527742386,98
1666162827.94037604,316009700,0,22.070913314819336,24.290096282958984,21.087017059326172,140.25831604003906,3.242271900177002,0.0,0.10523933917284012,98
1666162828.04034901,316109673,0,22.060115814208984,24.255409240722656,20.899438858032227,140.8387451171875,3.2550761699676514,0.0,0.10504082590341568,98
1666162828.14038110,316209705,0,22.09116554260254,24.271921157836914,20.780672073364258,141.41622924804688,3.2678332328796387,0.0,0.10494156926870346,98
1666162828.24030805,316309632,0,22.143871307373047,24.294357299804688,20.49281120300293,141.985107421875,3.280430316925049,0.0,0.10493858903646469,98
1666162828.34039903,316409723,0,22.11128807067871,24.187345504760742,19.850799560546875,142.5370635986328,3.2926347255706787,0.0,0.10458304733037949,98
1666162828.44035697,316509681,0,22.164474487304688,24.195266723632812,19.464426040649414,143.0775604248047,3.304614543914795,0.0,0.10433350503444672,98
1666162828.54037309,316609697,0,22.231935501098633,24.2654972076416,19.4837589263916,143.618896484375,3.3166496753692627,0.0,0.10437218099832535,98
1666162828.64025187,316709576,0,22.238548278808594,24.24964141845703,19.272621154785156,144.1536407470703,3.3285417556762695,0.0,0.1043497771024704,98
1666162828.74045587,316809780,0,22.22589874267578,24.244422912597656,19.350261688232422,144.69229125976562,3.3405137062072754,0.0,0.1043151319026947,98
1666162828.84034705,316909671,0,22.184629440307617,24.19428825378418,19.30092430114746,145.22784423828125,3.3523948192596436,0.0,0.10412240773439407,98
1666162828.94035697,317009681,0,22.178367614746094,24.197559356689453,19.418394088745117,145.7673797607422,3.364361047744751,0.0,0.10398340970277786,98
1666162829.04027390,317109598,0,22.170223236083984,24.250364303588867,20.00455093383789,146.32264709472656,3.376671314239502,0.0,0.10398340970277786,98
1666162829.14041209,317209736,0,22.117517471313477,24.229623794555664,20.308984756469727,146.88760375976562,3.389166831970215,0.0,0.10399863868951797,98
1666162829.24030995,317309634,0,22.08263397216797,24.24866485595703,20.83928871154785,147.46592712402344,3.40193772315979,0.0,0.1039397343993187,98
1666162829.34043407,317409758,0,22.007217407226562,24.21586799621582,21.234561920166016,148.05654907226562,3.414935827255249,0.0,0.10401205718517303,98
1666162829.44034791,317509672,0,21.943588256835938,24.18044662475586,21.464420318603516,148.65231323242188,3.428009033203125,0.0,0.10421240329742432,98
1666162829.54038191,317609706,0,21.94675064086914,24.22403907775879,21.849567413330078,149.25950622558594,3.4413347244262695,0.0,0.104225754737854,98
1666162829.64036298,317709687,0,21.8953857421875,24.18155288696289,21.898056030273438,149.8677215576172,3.4546518325805664,0.0,0.10440041869878769,98
1666162829.74036908,317809693,0,21.867755889892578,24.16520881652832,21.959943771362305,150.47779846191406,3.4679930210113525,0.0,0.10462015122175217,98
1666162829.84028387,317909608,0,21.792945861816406,24.101200103759766,21.970172882080078,151.08761596679688,3.4812827110290527,0.0,0.10506308078765869,98
1666162829.94034410,318009668,0,21.799747467041016,24.129905700683594,22.117788314819336,151.70242309570312,3.494685173034668,0.0,0.1053522601723671,98
1666162830.04026699,318109591,0,21.833576202392578,24.178844451904297,22.245759963989258,152.31993103027344,3.5081677436828613,0.0,0.1054253950715065,98
1666162830.14029598,318209620,0,21.873729705810547,24.189403533935547,21.959739685058594,152.93014526367188,3.5215156078338623,0.0,0.105450838804245,98
1666162830.24032807,318309652,0,21.952978134155273,24.212369918823242,21.414705276489258,153.5252227783203,3.5345795154571533,0.0,0.10550658404827118,98
1666162830.34039307,318409717,0,22.005779266357422,24.201683044433594,20.81136131286621,154.10366821289062,3.5473084449768066,0.0,0.10551465302705765,98
1666162830.44029808,318509622,0,22.014787673950195,24.177587509155273,20.511837005615234,154.6730194091797,3.559842824935913,0.0,0.10544154793024063,98
1666162830.54037905,318609703,0,22.06797218322754,24.219038009643555,20.385093688964844,155.23977661132812,3.572349786758423,0.0,0.10552148520946503,98
1666162830.64027500,318709599,0,22.058666229248047,24.208698272705078,20.369918823242188,155.80506896972656,3.5848193168640137,0.0,0.10554935038089752,98
1666162830.74041700,318809741,0,22.053598403930664,24.207468032836914,20.402891159057617,156.37266540527344,3.597336769104004,0.0,0.10556689649820328,98
1666162830.84036398,318909688,0,22.02801513671875,24.161190032958984,20.233489990234375,156.93446350097656,3.6097118854522705,0.0,0.10542795062065125,98
1666162830.94043088,319009755,0,21.924518585205078,24.05999183654785,20.255279541015625,157.49752807617188,3.622056722640991,0.0,0.10542795062065125,98
1666162831.04032207,319109646,0,21.95614242553711,24.085241317749023,20.194822311401367,158.0579376220703,3.6343610286712646,0.0,0.10542795062065125,98
1666162831.14046192,319209786,0,21.97808837890625,24.10087776184082,20.134977340698242,158.61807250976562,3.646671772003174,0.0,0.10542795062065125,98
1666162831.24028707,319309611,0,21.978567123413086,24.11190414428711,20.23502540588379,159.17921447753906,3.6590049266815186,0.0,0.10542795062065125,98
1666162831.34039497,319409719,0,21.938892364501953,24.039260864257812,19.922304153442383,159.73326110839844,3.6711599826812744,0.0,0.10542795062065125,98
1666162831.44030309,319509627,0,21.99126625061035,24.083221435546875,19.86832618713379,160.28469848632812,3.683286666870117,0.0,0.10529094934463501,98
1666162831.54034591,319609670,0,22.076213836669922,24.16465950012207,19.804458618164062,160.83509826660156,3.695437431335449,0.0,0.10545329749584198,98
1666162831.64024997,319709574,0,22.06854820251465,24.108776092529297,19.357934951782227,161.37234497070312,3.707293748855591,0.0,0.10539494454860687,98
1666162831.74041009,319809734,0,22.06653594970703,24.118022918701172,19.46749496459961,161.9140167236328,3.7192466259002686,0.0,0.10538014769554138,98
1666162831.84030294,319909627,0,21.99504852294922,24.063190460205078,19.62554359436035,162.4586181640625,3.7312252521514893,0.0,0.10538014769554138,98
1666162831.94032097,320009645,0,21.998592376708984,24.12782096862793,20.2169189453125,163.02035522460938,3.7435827255249023,0.0,0.10531917214393616,98
1666162832.04031301,320109637,0,21.947134017944336,24.066864013671875,20.09293556213379,163.5784912109375,3.7558321952819824,0.0,0.10549630224704742,98
1666162832.14037395,320209698,0,21.95930290222168,24.138216018676758,20.676023483276367,164.15322875976562,3.7684528827667236,0.0,0.10538358241319656,98
1666162832.24010396,320309428,0,21.9364013671875,24.143585205078125,20.968488693237305,164.73416137695312,3.781196355819702,0.0,0.1052619069814682,98
1666162832.34043097,320409755,0,21.90427589416504,24.0882511138916,20.727956771850586,165.31187438964844,3.7938506603240967,0.0,0.10536372661590576,98
1666162832.44030690,320509631,0,21.872962951660156,24.051246643066406,20.628456115722656,165.8842315673828,3.8063697814941406,0.0,0.10559607297182083,98
1666162832.54039502,320609719,0,21.89519500732422,24.10724449157715,20.949153900146484,166.46670532226562,3.8191232681274414,0.0,0.10559134185314178,98
1666162832.64032793,320709652,0,21.85552215576172,24.10040855407715,21.2557373046875,167.05679321289062,3.8320200443267822,0.0,0.10561320185661316,98
1666162832.74040508,320809729,0,21.847759246826172,24.119890213012695,21.524877548217773,167.65521240234375,3.8450942039489746,0.0,0.10555838793516159,98
1666162832.84026694,320909591,0,21.787961959838867,24.041873931884766,21.30207633972168,168.24615478515625,3.8579697608947754,0.0,0.10580715537071228,97
1666162832.94045997,321009784,0,21.86079216003418,24.112220764160156,21.28765296936035,168.8386688232422,3.870922565460205,0.0,0.10576219856739044,97
1666162833.04032993,321109654,0,21.88178062438965,24.093677520751953,20.913862228393555,169.4188995361328,3.8836190700531006,0.0,0.10576219856739044,97
1666162833.14035392,321209678,0,21.847843170166016,24.047758102416992,20.800586700439453,169.99688720703125,3.896246910095215,0.0,0.10576219856739044,97
1666162833.24031210,321309636,0,21.863189697265625,24.06138801574707,20.78435516357422,170.57395935058594,3.9088637828826904,0.0,0.10576219856739044,97
1666162833.34035587,321409680,0,21.844406127929688,23.99443817138672,20.32893180847168,171.13890075683594,3.9212045669555664,0.0,0.10576219856739044,97
1666162833.44029093,321509615,0,21.858779907226562,24.015010833740234,20.38754653930664,171.70501708984375,3.9335789680480957,0.0,0.10576219856739044,97
1666162833.54034400,321609668,0,21.878999710083008,24.04851722717285,20.521657943725586,172.27540588378906,3.946058511734009,0.0,0.10571839660406113,97
1666162833.64026904,321709593,0,21.857824325561523,24.00518226623535,20.312053680419922,172.83924865722656,3.9583828449249268,0.0,0.10571839660406113,97
1666162833.74036407,321809688,0,21.83721923828125,23.981430053710938,20.282285690307617,173.40322875976562,3.970698595046997,0.0,0.10571839660406113,97
1666162833.84037089,321909695,0,21.728933334350586,23.858640670776367,20.145105361938477,173.96290588378906,3.9828596115112305,0.0,0.10571839660406113,97
1666162833.94038391,322009708,0,21.710725784301758,23.83832550048828,20.12515640258789,174.5220489501953,3.9949991703033447,0.0,0.10571839660406113,97
1666162834.04027009,322109594,0,21.723052978515625,23.894824981689453,20.480056762695312,175.09033203125,4.0073442459106445,0.0,0.10604329407215118,97
1666162834.14039493,322209719,0,21.6698055267334,23.85138511657715,20.48421859741211,175.66009521484375,4.019690990447998,0.0,0.1065005362033844,97
1666162834.24035597,322309680,0,21.675844192504883,23.883766174316406,20.675716400146484,176.23423767089844,4.032135963439941,0.0,0.10678815096616745,97
1666162834.34041500,322409739,0,21.57579803466797,23.759763717651367,20.451379776000977,176.80271911621094,4.044401168823242,0.0,0.10678815096616745,97
1666162834.44026899,322509593,0,21.612308502197266,23.827669143676758,20.67755699157715,177.3762969970703,4.056797504425049,0.0,0.10713844746351242,97
1666162834.54040194,322609726,0,21.715133666992188,23.96866798400879,21.033855438232422,177.96139526367188,4.069502830505371,0.0,0.10713844746351242,97
1666162834.64022708,322709551,0,21.664918899536133,23.898584365844727,20.832536697387695,178.5391082763672,4.082018852233887,0.0,0.10722006857395172,97
1666162834.74042892,322809753,0,21.575031280517578,23.768388748168945,20.45659637451172,179.10853576660156,4.094304084777832,0.0,0.10722006857395172,97
1666162834.84030604,322909630,0,21.60895538330078,23.82703971862793,20.638891220092773,179.6810302734375,4.106675148010254,0.0,0.10747107863426208,97
1666162834.94034696,323009671,0,21.595495223999023,23.82273292541504,20.677490234375,180.25584411621094,4.119088649749756,0.0,0.10771312564611435,97
1666162835.04033709,323109661,0,21.690217971801758,23.928503036499023,20.780059814453125,180.8330535888672,4.131608486175537,0.0,0.10771312564611435,97
1666162835.14037108,323209695,0,21.694721221923828,23.925966262817383,20.714691162109375,181.40870666503906,4.144097328186035,0.0,0.10771312564611435,97
1666162835.24029088,323309615,0,21.675748825073242,23.908082962036133,20.72481918334961,181.98397827148438,4.156566619873047,0.0,0.10771312564611435,97
1666162835.34037805,323409702,0,21.643260955810547,23.85979461669922,20.578126907348633,182.55613708496094,4.168950080871582,0.0,0.10771312564611435,97
1666162835.44032407,323509648,0,21.50373649597168,23.705692291259766,20.442787170410156,183.1237335205078,4.181155681610107,0.0,0.10771312564611435,97
1666162835.54035401,323609678,0,21.54273796081543,23.80272674560547,20.939334869384766,183.70559692382812,4.193690776824951,0.0,0.10793028026819229,97
1666162835.64036894,323709693,0,21.558359146118164,23.83334732055664,21.06300926208496,184.2908172607422,4.206307411193848,0.0,0.10800871253013611,97
1666162835.74041295,323809737,0,21.529895782470703,23.748104095458984,20.537309646606445,184.86158752441406,4.2185959815979,0.0,0.10800871253013611,97
1666162835.84035707,323909681,0,21.426837921142578,23.575037002563477,19.88912582397461,185.41380310058594,4.230428218841553,0.0,0.10800871253013611,97
1666162835.94039702,324009721,0,21.456300735473633,23.594558715820312,19.79709243774414,185.9639892578125,4.2422332763671875,0.0,0.10800871253013611,97
1666162836.04026389,324109588,0,21.460708618164062,23.601221084594727,19.817962646484375,186.5137939453125,4.254032611846924,0.0,0.10800871253013611,97
1666162836.14038396,324209708,0,21.540342330932617,23.681787490844727,19.85724449157715,187.0660858154297,4.265929222106934,0.0,0.10784201323986053,97
1666162836.24033904,324309663,0,21.62131690979004,23.714874267578125,19.416858673095703,187.60523986816406,4.277586460113525,0.0,0.10782160609960556,97
1666162836.34037995,324409704,0,21.485145568847656,23.495615005493164,18.646259307861328,188.12344360351562,4.28872013092041,0.0,0.10782160609960556,97
1666162836.44026089,324509585,0,21.633869171142578,23.687692642211914,19.045215606689453,188.65188598632812,4.30015230178833,0.0,0.10783935338258743,97
1666162836.54043102,324609755,0,21.738994598388672,23.818077087402344,19.2001953125,189.18617248535156,4.311767101287842,0.0,0.10828445851802826,97
1666162836.64030290,324709627,0,21.66353416442871,23.671531677246094,18.56745719909668,189.70130920410156,4.322926998138428,0.0,0.10814611613750458,97
1666162836.74034190,324809666,0,21.619783401489258,23.600698471069336,18.37527847290039,190.21197509765625,4.333967685699463,0.0,0.10780331492424011,97
1666162836.84031105,324909635,0,21.492618560791016,23.424339294433594,17.918933868408203,190.70960998535156,4.344663143157959,0.0,0.10780331492424011,97
1666162836.94040489,325009729,0,21.469524383544922,23.418548583984375,18.079437255859375,191.2123260498047,4.355456352233887,0.0,0.10780331492424011,97
1666162837.04007101,325109395,0,21.394393920898438,23.359363555908203,18.227357864379883,191.7169952392578,4.36625337600708,0.0,0.10780331492424011,97
1666162837.14041805,325209742,0,21.49213981628418,23.455322265625,18.210784912109375,192.22463989257812,4.377163887023926,0.0,0.10780331492424011,97
1666162837.24041390,325309738,0,21.501148223876953,23.46879768371582,18.252216339111328,192.73165893554688,4.388065338134766,0.0,0.10780331492424011,97
1666162837.34038901,325409713,0,21.388837814331055,23.313875198364258,17.856943130493164,193.22760009765625,4.398673057556152,0.0,0.10780331492424011,97
1666162837.44037509,325509699,0,21.5334415435791,23.547208786010742,18.680017471313477,193.7464599609375,4.40984582901001,0.0,0.10780331492424011,97
1666162837.54044008,325609764,0,21.52750015258789,23.500513076782227,18.30377197265625,194.25526428222656,4.420799255371094,0.0,0.10779272764921188,97
1666162837.64025593,325709580,0,21.483163833618164,23.460599899291992,18.34479331970215,194.76394653320312,4.431727409362793,0.0,0.10779272764921188,97
1666162837.74040198,325809726,0,21.483800888061523,23.483489990234375,18.54314613342285,195.2798309326172,4.442810535430908,0.0,0.10783979296684265,97
1666162837.84024692,325909571,0,21.367753982543945,23.345932006835938,18.34366798400879,195.78863525390625,4.4536824226379395,0.0,0.10783979296684265,97
1666162837.94038987,326009714,0,21.343605041503906,23.333332061767578,18.450773239135742,196.3019256591797,4.4646382331848145,0.0,0.10783979296684265,97
1666162838.04027700,326109601,0,21.404455184936523,23.43025779724121,18.774232864379883,196.82284545898438,4.475788116455078,0.0,0.107903391122818,97
1666162838.14038992,326209714,0,21.341402053833008,23.304851531982422,18.196361541748047,197.32875061035156,4.486584663391113,0.0,0.107903391122818,97
1666162838.24024606,326309570,0,21.34906768798828,23.31546401977539,18.223674774169922,197.83447265625,4.497381687164307,0.0,0.107903391122818,97
1666162838.34039903,326409723,0,21.25707244873047,23.259923934936523,18.468265533447266,198.34829711914062,4.508304119110107,0.0,0.10844825953245163,97
1666162838.44031310,326509637,0,21.30726432800293,23.298240661621094,18.35877227783203,198.8578643798828,4.519161701202393,0.0,0.10844825953245163,97
1666162838.54035902,326609683,0,21.37570571899414,23.386648178100586,18.55143165588379,199.3734588623047,4.530182838439941,0.0,0.10839823633432388,97
1666162838.64032793,326709652,0,21.30143928527832,23.276687622070312,18.22214126586914,199.8795166015625,4.5409626960754395,0.0,0.10839823633432388,97
1666162838.74037004,326809694,0,21.32904052734375,23.305187225341797,18.230426788330078,200.38616943359375,4.551769256591797,0.0,0.10839823633432388,97
1666162838.84036493,326909689,0,21.297607421875,23.309091567993164,18.530258178710938,200.90090942382812,4.562732219696045,0.0,0.10855137556791306,97
1666162838.94038296,327009707,0,21.215579986572266,23.177595138549805,18.074525833129883,201.40310668945312,4.5733866691589355,0.0,0.10855137556791306,97
1666162839.04027987,327109604,0,21.108156204223633,23.08392906188965,18.201271057128906,201.90821838378906,4.584048748016357,0.0,0.10855137556791306,97
1666162839.14040089,327209725,0,21.278539657592773,23.33155059814453,18.94793128967285,202.4352264404297,4.59526252746582,0.0,0.10835009068250656,97
1666162839.24034810,327309672,0,21.16977310180664,23.242273330688477,19.099843978881836,202.96554565429688,4.606489181518555,0.0,0.10850878059864044,97
1666162839.34045506,327409779,0,21.20195960998535,23.28366470336914,19.1873722076416,203.49913024902344,4.617802143096924,0.0,0.10849346965551376,97
1666162839.44023395,327509558,0,21.18385887145996,23.22024917602539,18.730653762817383,204.01832580566406,4.628800868988037,0.0,0.10871970653533936,97
1666162839.54039693,327609721,0,21.321853637695312,23.288043975830078,18.076982498168945,204.5213165283203,4.639525890350342,0.0,0.10876762866973877,97
1666162839.64026594,327709590,0,21.282371520996094,23.16404151916504,17.359783172607422,205.00294494628906,4.649775981903076,0.0,0.10839246958494186,97
1666162839.74034905,327809673,0,21.248926162719727,23.078205108642578,16.876434326171875,205.47216796875,4.659746170043945,0.0,0.10839246958494186,97
1666162839.84024405,327909568,0,21.22928237915039,23.03617286682129,16.669897079467773,205.9347686767578,4.669567108154297,0.0,0.10839246958494186,97
1666162839.94037390,328009698,0,21.193058013916016,22.93425178527832,16.063791275024414,206.381591796875,4.679036617279053,0.0,0.10839246958494186,97
1666162840.04031992,328109644,0,21.532100677490234,23.357900619506836,16.736799240112305,206.84629821777344,4.689042568206787,0.0,0.10908900201320648,97
1666162840.14044809,328209772,0,21.612106323242188,23.404232025146484,16.323076248168945,207.30032348632812,4.698854923248291,0.0,0.10979090631008148,97
1666162840.24033308,328309657,0,21.706701278686523,23.487916946411133,16.101844787597656,207.7471160888672,4.708553314208984,0.0,0.110621877014637,97
1666162840.34037399,328409698,0,21.712833404541016,23.483749389648438,15.916790962219238,208.18946838378906,4.71815824508667,0.0,0.11126089841127396,97
1666162840.44035888,328509683,0,21.696252822875977,23.458030700683594,15.775622367858887,208.62765502929688,4.727664947509766,0.0,0.11167722195386887,97
1666162840.54038000,328609704,0,21.67201042175293,23.538911819458008,16.628158569335938,209.0896759033203,4.737678050994873,0.0,0.11227349191904068,97
1666162840.64029408,328709618,0,21.6538028717041,23.509342193603516,16.472566604614258,209.54689025878906,4.7475786209106445,0.0,0.1126442700624466,97
1666162840.74038196,328809706,0,21.63636016845703,23.48834800720215,16.408733367919922,210.00302124023438,4.757447719573975,0.0,0.11286601424217224,97
1666162840.84029388,328909618,0,21.665014266967773,23.55049705505371,16.705493927001953,210.466796875,4.767495632171631,0.0,0.11286601424217224,97
1666162840.94035697,329009681,0,21.632625579833984,23.495346069335938,16.484228134155273,210.92501831054688,4.777408123016357,0.0,0.11300019174814224,97
1666162841.04036498,329109689,0,21.706443786621094,23.58551788330078,16.628944396972656,211.3870086669922,4.787436485290527,0.0,0.11300019174814224,97
1666162841.14038396,329209708,0,21.800994873046875,23.71049690246582,16.898221969604492,211.8564910888672,4.797671794891357,0.0,0.11300019174814224,97
1666162841.24027991,329309604,0,21.80281639099121,23.6544246673584,16.321884155273438,212.30947875976562,4.8075480461120605,0.0,0.11344325542449951,97
1666162841.34045506,329409779,0,21.68753433227539,23.506444931030273,16.054277420043945,212.75624084472656,4.817237377166748,0.0,0.11329760402441025,97
1666162841.44034290,329509667,0,21.68293571472168,23.585712432861328,16.794492721557617,213.22227478027344,4.8273420333862305,0.0,0.11329760402441025,97
1666162841.54036808,329609692,0,21.759307861328125,23.646541595458984,16.657312393188477,213.6851348876953,4.837413311004639,0.0,0.11329760402441025,97
1666162841.64030099,329709625,0,21.811534881591797,23.677227020263672,16.412723541259766,214.14077758789062,4.847351551055908,0.0,0.11367356032133102,97
1666162841.74038410,329809708,0,21.86922264099121,23.697309494018555,16.03064727783203,214.5864715576172,4.857098579406738,0.0,0.11403703689575195,97
1666162841.84031200,329909636,0,21.755477905273438,23.544065475463867,15.715471267700195,215.02273559570312,4.866589546203613,0.0,0.11381065100431442,97
1666162841.94045305,330009777,0,21.796310424804688,23.607681274414062,15.910823822021484,215.46533203125,4.876236438751221,0.0,0.11384525150060654,97
1666162842.04038095,330109705,0,21.810867309570312,23.6291446685791,15.95760726928711,215.90834045410156,4.885899066925049,0.0,0.11394426971673965,97
1666162842.14036894,330209693,0,21.70650863647461,23.5131778717041,15.855719566345215,216.3487548828125,4.895459175109863,0.0,0.11394426971673965,97
1666162842.24029708,330309621,0,21.67507553100586,23.437053680419922,15.463515281677246,216.77801513671875,4.904763698577881,0.0,0.11394426971673965,97
1666162842.34038901,330409713,0,21.679580688476562,23.51908302307129,16.119644165039062,217.22598266601562,4.914475440979004,0.0,0.11411557346582413,97
1666162842.44029188,330509616,0,21.680347442626953,23.475759506225586,15.733272552490234,217.66287231445312,4.923947334289551,0.0,0.11411557346582413,97
1666162842.54034805,330609672,0,21.7210750579834,23.54673957824707,15.997810363769531,218.1075439453125,4.933606147766113,0.0,0.11411961168050766,97
1666162842.64027596,330709600,0,21.758352279663086,23.585697174072266,16.012540817260742,218.5520477294922,4.943277835845947,0.0,0.11411961168050766,97
1666162842.74038196,330809706,0,21.751163482666016,23.552858352661133,15.787590980529785,218.99105834960938,4.952826976776123,0.0,0.11412100493907928,97
1666162842.84033394,330909658,0,21.732955932617188,23.571401596069336,16.109621047973633,219.4384002685547,4.962549209594727,0.0,0.11412100493907928,97
1666162842.94035101,331009675,0,21.72701644897461,23.5743350982666,16.197288513183594,219.888427734375,4.97232723236084,0.0,0.11405110359191895,97
1666162843.04027295,331109597,0,21.525009155273438,23.321155548095703,15.748617172241211,220.32559204101562,4.98173713684082,0.0,0.11405110359191895,97
1666162843.14039707,331209721,0,21.51858901977539,23.361957550048828,16.080055236816406,220.77284240722656,4.991361618041992,0.0,0.11463700234889984,97
1666162843.24032497,331309649,0,21.579151153564453,23.399477005004883,15.879045486450195,221.21365356445312,5.000874042510986,0.0,0.11463700234889984,97
1666162843.34087396,331410198,0,21.567363739013672,23.354515075683594,15.58964729309082,221.64910888671875,5.010265827178955,0.0,0.11463700234889984,97
1666162843.44035292,331509677,0,21.52692413330078,23.290538787841797,15.384339332580566,222.0742645263672,5.019418239593506,0.0,0.11463700234889984,97
1666162843.54089499,331610219,0,21.54254722595215,23.33645248413086,15.64857006072998,222.51133728027344,5.028833866119385,0.0,0.11463700234889984,97
1666162843.64033794,331709662,0,21.39889907836914,23.227951049804688,15.857254981994629,222.9493865966797,5.038207530975342,0.0,0.11534484475851059,97
1666162843.74089098,331810215,0,21.346553802490234,23.212865829467773,16.08506965637207,223.39871215820312,5.047799110412598,0.0,0.11602765321731567,97
1666162843.84030795,331909632,0,21.589021682739258,23.535120010375977,16.772705078125,223.8619384765625,5.057799816131592,0.0,0.11602765321731567,97
1666162843.94075894,332010083,0,21.569568634033203,23.451074600219727,16.216007232666016,224.314453125,5.067560195922852,0.0,0.11602765321731567,97
1666162844.04029298,332109617,0,21.601001739501953,23.52349090576172,16.569236755371094,224.77259826660156,5.077456474304199,0.0,0.11602765321731567,97
1666162844.14074397,332210068,0,21.522708892822266,23.465303421020508,16.76288414001465,225.24037170410156,5.0875244140625,0.0,0.1158866211771965,97
1666162844.24028087,332309605,0,21.42515754699707,23.418764114379883,17.195598602294922,225.71585083007812,5.097711563110352,0.0,0.1159370020031929,97
1666162844.34080696,332410131,0,21.27767562866211,23.353137969970703,17.85663604736328,226.2145233154297,5.1083221435546875,0.0,0.11622915416955948,97
1666162844.44029689,332509621,0,21.186542510986328,23.303512573242188,18.144189834594727,226.7159881591797,5.118946552276611,0.0,0.11667479574680328,97
1666162844.54076695,332610091,0,21.204750061035156,23.42593002319336,19.04828453063965,227.2476348876953,5.13021993637085,0.0,0.1166078969836235,97
1666162844.64032793,332709652,0,21.375303268432617,23.740154266357422,20.50119972229004,227.81466674804688,5.142340183258057,0.0,0.11535178869962692,97
1666162844.74085093,332810175,0,21.40167808532715,23.82099723815918,20.973398208618164,228.4003448486328,5.154874801635742,0.0,0.11535178869962692,97
1666162844.84031105,332909635,0,21.2579345703125,23.585039138793945,20.22428321838379,228.9591522216797,5.166753768920898,0.0,0.11506489664316177,97
