timestamp,TimeUS,Instance,Volt,VoltR,Curr,CurrTot,EnrgTot,Temp,Res,RemPct
1666161032.77940893,192949336,0,24.804330825805664,24.868270874023438,0.4169304668903351,23.681177139282227,0.587531566619873,0.0,0.15335947275161743,99
1666161032.87974882,193049676,0,24.79918098449707,24.86177635192871,0.4081622064113617,23.692554473876953,0.5878137350082397,0.0,0.15335947275161743,99
1666161032.97967982,193149607,0,24.747150421142578,24.791013717651367,0.286020427942276,23.70049476623535,0.5880102515220642,0.0,0.15335947275161743,99
1666161033.07981491,193249742,0,24.777620315551758,24.832733154296875,0.35936686396598816,23.710491180419922,0.5882579684257507,0.0,0.15335947275161743,99
1666161033.17987800,193349805,0,24.79391098022461,24.85504722595215,0.39864861965179443,23.721572875976562,0.5885327458381653,0.0,0.15335947275161743,99
1666161033.27973580,193449663,0,24.81058692932129,24.87619400024414,0.42780303955078125,23.733440399169922,0.5888271927833557,0.0,0.15335947275161743,99
1666161033.37989688,193549824,0,24.766218185424805,24.816905975341797,0.33051928877830505,23.742637634277344,0.5890549421310425,0.0,0.15335947275161743,99
1666161033.47968197,193649609,0,24.745805740356445,24.789764404296875,0.2866342067718506,23.75058364868164,0.5892515778541565,0.0,0.15335947275161743,99
1666161033.57988787,193749815,0,24.794677734375,24.85533905029297,0.39554563164711,23.761594772338867,0.5895245671272278,0.0,0.15335947275161743,99
1666161033.67968583,193849613,0,24.804931640625,24.869457244873047,0.4207446575164795,23.77326011657715,0.5898138880729675,0.0,0.15335947275161743,99
1666161033.77978086,193949708,0,24.804359436035156,24.86992073059082,0.42749619483947754,23.785146713256836,0.5901087522506714,0.0,0.15335947275161743,99
1666161033.87970090,194049628,0,24.747243881225586,24.79077911376953,0.28387221693992615,23.793025970458984,0.5903037190437317,0.0,0.15335947275161743,99
1666161033.97985387,194149781,0,24.75261116027832,24.79863929748535,0.30013731122016907,23.801376342773438,0.5905104279518127,0.0,0.15335947275161743,99
1666161034.07973480,194249662,0,24.813844680786133,24.882888793945312,0.4502059519290924,23.813867568969727,0.5908203721046448,0.0,0.15335947275161743,99
1666161034.17974591,194349673,0,24.79237937927246,24.852527618408203,0.3922039568424225,23.824764251708984,0.5910905003547668,0.0,0.15335947275161743,99
1666161034.27993989,194449867,0,24.81049156188965,24.877464294433594,0.4367028474807739,23.8369197845459,0.5913920998573303,0.0,0.15335947275161743,99
1666161034.37988281,194549810,0,24.793241500854492,24.853248596191406,0.3912833034992218,23.8477840423584,0.5916614532470703,0.0,0.15335947275161743,99
1666161034.47976279,194649690,0,24.749534606933594,24.795448303222656,0.299387127161026,23.856090545654297,0.5918670296669006,0.0,0.15335947275161743,99
1666161034.57983780,194749765,0,24.788833618164062,24.84860610961914,0.38974887132644653,23.866926193237305,0.5921356081962585,0.0,0.15335947275161743,99
1666161034.67967892,194849606,0,24.78959846496582,24.849088668823242,0.3879075348377228,23.877685546875,0.5924023389816284,0.0,0.15335947275161743,99
1666161034.77970695,194949634,0,24.805604934692383,24.87248420715332,0.43608909845352173,23.889802932739258,0.5927029252052307,0.0,0.15335947275161743,99
1666161034.87977481,195049702,0,24.76056480407715,24.81073570251465,0.3271435499191284,23.898895263671875,0.5929280519485474,0.0,0.15335947275161743,99
1666161034.97988582,195149813,0,24.755199432373047,24.803911209106445,0.31762996315956116,23.907730102539062,0.5931467413902283,0.0,0.15335947275161743,99
1666161035.07969999,195249627,0,24.748680114746094,24.855823516845703,0.7046168446540833,23.92726707458496,0.5936302542686462,0.0,0.15205810964107513,99
1666161035.17969894,195349626,0,24.583566665649414,25.034038543701172,3.1106255054473877,24.01367950439453,0.5957546234130859,0.0,0.1448173224925995,99
1666161035.27972293,195449650,0,24.66761016845703,24.959989547729492,2.0638277530670166,24.071002960205078,0.5971686840057373,0.0,0.14166849851608276,99
1666161035.37980485,195549732,0,24.728269577026367,24.932857513427734,1.462018609046936,24.11166763305664,0.5981742739677429,0.0,0.13993586599826813,99
1666161035.47969699,195649624,0,24.652320861816406,24.85000991821289,1.3997541666030884,24.150510787963867,0.5991318225860596,0.0,0.14123189449310303,99
1666161035.57988596,195749813,0,24.654674530029297,24.858917236328125,1.4377743005752563,24.190526962280273,0.6001183986663818,0.0,0.142054483294487,99
1666161035.67980099,195849728,0,24.724149703979492,24.94029426574707,1.521554946899414,24.232759475708008,0.6011625528335571,0.0,0.142054483294487,99
1666161035.77980995,195949737,0,24.724533081054688,24.933177947998047,1.468770146369934,24.2735652923584,0.6021714806556702,0.0,0.142054483294487,99
1666161035.87975097,196049678,0,24.72108268737793,24.921531677246094,1.4110749959945679,24.312742233276367,0.6031399965286255,0.0,0.142054483294487,99
1666161035.97977781,196149705,0,24.669910430908203,24.85205078125,1.282181739807129,24.348371505737305,0.6040189266204834,0.0,0.142054483294487,99
1666161036.07988381,196249811,0,24.71073341369629,24.903335571289062,1.3558349609375,24.386062622070312,0.6049503087997437,0.0,0.142054483294487,99
1666161036.17983890,196349766,0,24.705175399780273,24.899606704711914,1.3702588081359863,24.424123764038086,0.6058906316757202,0.0,0.14189346134662628,99
1666161036.27971387,196449641,0,24.728748321533203,24.928926467895508,1.4107681512832642,24.463266372680664,0.6068585515022278,0.0,0.14189346134662628,99
1666161036.37993789,196549865,0,24.685009002685547,24.871431350708008,1.313825249671936,24.499845504760742,0.6077615022659302,0.0,0.14189346134662628,99
1666161036.47974181,196649669,0,24.679492950439453,24.864213943481445,1.301822543144226,24.535932540893555,0.6086521148681641,0.0,0.14189346134662628,99
1666161036.57981491,196749742,0,24.705080032348633,24.89824867248535,1.3613590002059937,24.57378578186035,0.6095872521400452,0.0,0.14189346134662628,99
1666161036.67974687,196849674,0,24.71236228942871,24.908056259155273,1.3791584968566895,24.612071990966797,0.6105334162712097,0.0,0.14189346134662628,99
1666161036.77977085,196949698,0,24.730281829833984,24.930721282958984,1.4126094579696655,24.651323318481445,0.6115041375160217,0.0,0.14189346134662628,99
1666161036.87970090,197049628,0,24.680931091308594,24.865955352783203,1.3039706945419312,24.68752098083496,0.6123975515365601,0.0,0.14189346134662628,99
1666161036.97985077,197149778,0,24.66454315185547,24.842819213867188,1.2564030885696411,24.722476959228516,0.6132597327232361,0.0,0.14189346134662628,99
1666161037.07974482,197249672,0,24.714950561523438,24.91094970703125,1.381306767463684,24.76080894470215,0.6142070889472961,0.0,0.14189346134662628,99
1666161037.17993283,197349860,0,24.705942153930664,24.90085220336914,1.3736345767974854,24.799039840698242,0.6151516437530518,0.0,0.14189346134662628,99
1666161037.27977180,197449699,0,24.719402313232422,24.91719627380371,1.393957495689392,24.83770179748535,0.6161073446273804,0.0,0.14189346134662628,99
1666161037.37982392,197549751,0,24.703351974487305,24.895801544189453,1.3561419248580933,24.875394821166992,0.6170384883880615,0.0,0.141909658908844,99
1666161037.47973299,197649660,0,24.665695190429688,24.84516716003418,1.2646890878677368,24.91049575805664,0.6179043054580688,0.0,0.141909658908844,99
1666161037.57985497,197749782,0,24.6983699798584,24.889774322509766,1.3487765789031982,24.94801139831543,0.6188308596611023,0.0,0.141909658908844,99
1666161037.67980289,197849730,0,24.704792022705078,24.898983001708984,1.368417501449585,24.986005783081055,0.6197695136070251,0.0,0.141909658908844,99
1666161037.77977085,197949698,0,24.732389450073242,24.934507369995117,1.4242712259292603,25.02554702758789,0.6207475066184998,0.0,0.141909658908844,99
1666161037.88000488,198049932,0,24.68447494506836,24.868824005126953,1.2990604639053345,25.061729431152344,0.621640682220459,0.0,0.141909658908844,99
1666161037.97989893,198149826,0,24.679492950439453,24.863189697265625,1.294457197189331,25.0976505279541,0.6225272417068481,0.0,0.141909658908844,99
1666161038.07971287,198249640,0,24.700193405151367,24.892555236816406,1.3555281162261963,25.135236740112305,0.6234556436538696,0.0,0.141909658908844,99
1666161038.17975092,198349678,0,24.72291374206543,24.921842575073242,1.4018000364303589,25.1741943359375,0.6244187951087952,0.0,0.141909658908844,99
1666161038.27974486,198449672,0,24.722904205322266,24.92336654663086,1.4126094579696655,25.21343421936035,0.6253889203071594,0.0,0.141909658908844,99
1666161038.37975788,198549685,0,24.73133659362793,24.93319320678711,1.4224298000335693,25.252954483032227,0.6263663172721863,0.0,0.141909658908844,99
1666161038.47978592,198649713,0,24.670677185058594,24.852283477783203,1.2797266244888306,25.288515090942383,0.6272436380386353,0.0,0.141909658908844,99
1666161038.57984185,198749769,0,24.66981315612793,24.85102653503418,1.276964545249939,25.32400894165039,0.6281192898750305,0.0,0.141909658908844,99
1666161038.67975283,198849680,0,24.71887969970703,24.917034149169922,1.3963444232940674,25.362764358520508,0.6290772557258606,0.0,0.141909658908844,99
1666161038.77980685,198949734,0,24.727598190307617,24.930021286010742,1.4264194965362549,25.40241241455078,0.6300576329231262,0.0,0.141909658908844,99
1666161038.87974286,199049670,0,24.71533203125,24.912702560424805,1.3908203840255737,25.441024780273438,0.631011962890625,0.0,0.141909658908844,99
1666161038.97985291,199149780,0,24.661861419677734,24.84220314025879,1.270826816558838,25.476367950439453,0.6318835616111755,0.0,0.141909658908844,99
1666161039.07976294,199249690,0,24.69906234741211,24.89039421081543,1.3482651710510254,25.5137882232666,0.6328078508377075,0.0,0.141909658908844,99
1666161039.17981076,199349738,0,24.71753692626953,24.91473388671875,1.3895927667617798,25.552410125732422,0.6337624788284302,0.0,0.141909658908844,99
1666161039.27972579,199449653,0,24.725587844848633,24.926355361938477,1.4147576093673706,25.591678619384766,0.6347333788871765,0.0,0.141909658908844,99
1666161039.37986994,199549797,0,24.679109573364258,24.864938735961914,1.3094948530197144,25.628108978271484,0.6356324553489685,0.0,0.141909658908844,99
1666161039.47976899,199649696,0,24.664926528930664,24.845226287841797,1.2705198526382446,25.663368225097656,0.6365020871162415,0.0,0.141909658908844,99
1666161039.57982278,199749750,0,24.699426651000977,24.89222526550293,1.3585970401763916,25.701129913330078,0.6374347805976868,0.0,0.141909658908844,99
1666161039.67986584,199849793,0,24.72271156311035,24.9232177734375,1.4129163026809692,25.740398406982422,0.6384056210517883,0.0,0.141909658908844,99
1666161039.77988076,199949808,0,24.72846221923828,24.929752349853516,1.418440341949463,25.779808044433594,0.639380156993866,0.0,0.141909658908844,99
1666161039.87975979,200049687,0,24.725299835205078,24.927200317382812,1.4227367639541626,25.819284439086914,0.6403562426567078,0.0,0.141909658908844,99
1666161039.97977591,200149703,0,24.65242576599121,24.828853607177734,1.2432409524917603,25.85382652282715,0.6412078142166138,0.0,0.141909658908844,99
1666161040.07975078,200249678,0,24.6953067779541,24.88846206665039,1.3601315021514893,25.8916015625,0.6421406865119934,0.0,0.14201177656650543,99
1666161040.17973280,200349660,0,24.694345474243164,24.88614845275879,1.3506178855895996,25.929115295410156,0.6430670619010925,0.0,0.14201177656650543,99
1666161040.27987385,200449801,0,24.72922706604004,24.932275772094727,1.429795265197754,25.968891143798828,0.644050657749176,0.0,0.14201177656650543,99
1666161040.37987399,200549801,0,24.70354652404785,24.897584915161133,1.3662692308425903,26.006845474243164,0.6449882984161377,0.0,0.1420210897922516,99
1666161040.47977686,200649704,0,24.511600494384766,25.023099899291992,3.997227668762207,26.117780685424805,0.6477075219154358,0.0,0.12796345353126526,99
1666161040.58015585,200750083,0,24.181087493896484,24.992828369140625,9.981253623962402,26.39611053466797,0.6544378399848938,0.0,0.08132653683423996,99
1666161040.67978597,200849713,0,24.330007553100586,24.921180725097656,7.341088771820068,26.59929084777832,0.6593812108039856,0.0,0.08052933216094971,99
1666161040.77995086,200949878,0,24.374950408935547,24.925397872924805,6.897940635681152,26.791231155395508,0.6640597581863403,0.0,0.07979889959096909,99
1666161040.87977290,201049700,0,24.308935165405273,24.872596740722656,7.069355487823486,26.987268447875977,0.6688252091407776,0.0,0.07973304390907288,99
1666161040.97985077,201149778,0,24.163360595703125,24.883464813232422,9.051687240600586,27.23891830444336,0.6749058961868286,0.0,0.07955459505319595,99
1666161041.07977581,201249703,0,23.86274528503418,24.88843536376953,12.91971492767334,27.597522735595703,0.6834632158279419,0.0,0.07938958704471588,99
1666161041.17991090,201349838,0,23.614168167114258,24.82736587524414,15.219539642333984,28.02093505859375,0.6934617161750793,0.0,0.07971316576004028,99
1666161041.27981091,201449738,0,23.096406936645508,24.55768394470215,17.90174674987793,28.517589569091797,0.7049326300621033,0.0,0.08162757009267807,99
1666161041.37977982,201549707,0,22.555740356445312,24.463869094848633,22.880714416503906,29.153228759765625,0.7192699313163757,0.0,0.0833946168422699,99
1666161041.47999692,201649924,0,22.17875099182129,24.397090911865234,26.088315963745117,29.879535675048828,0.7353785037994385,0.0,0.08503192663192749,99
1666161041.57991695,201749844,0,21.999649047851562,24.39458465576172,27.721885681152344,30.64903450012207,0.7523071765899658,0.0,0.08639147877693176,99
1666161041.67976594,201849693,0,22.1601619720459,24.53949737548828,27.34625244140625,31.40756607055664,0.7691163420677185,0.0,0.08700774610042572,99
1666161041.77991676,201949844,0,22.128517150878906,24.524816513061523,27.350618362426758,32.168514251708984,0.785955011844635,0.0,0.08761409670114517,99
1666161041.87982988,202049757,0,22.059349060058594,24.452451705932617,27.057470321655273,32.919517517089844,0.8025216460227966,0.0,0.08844515681266785,99
1666161041.97983980,202149767,0,21.980005264282227,24.38878631591797,26.9298038482666,33.667701721191406,0.8189667463302612,0.0,0.08944666385650635,99
1666161042.07986283,202249790,0,21.98412322998047,24.42885971069336,27.105958938598633,34.42087936401367,0.8355246782302856,0.0,0.09019187092781067,99
1666161042.17987680,202349804,0,22.039512634277344,24.449453353881836,26.545886993408203,35.15842056274414,0.8517796993255615,0.0,0.09078393131494522,99
1666161042.27977085,202449698,0,22.07017707824707,24.47242546081543,26.33167839050293,35.88914489746094,0.867906928062439,0.0,0.09123032540082932,99
1666161042.37994981,202549877,0,22.1018009185791,24.452449798583984,25.629823684692383,36.60240936279297,0.8836713433265686,0.0,0.09171541035175323,99
1666161042.47982788,202649755,0,22.108699798583984,24.426097869873047,25.117626190185547,37.29933166503906,0.899079442024231,0.0,0.09226179867982864,99
1666161042.57997489,202749902,0,22.177026748657227,24.496896743774414,25.08509635925293,37.99721145629883,0.9145563840866089,0.0,0.09248004108667374,99
1666161042.68003392,202849961,0,22.170785903930664,24.474878311157227,24.837539672851562,38.6876106262207,0.9298630952835083,0.0,0.09276655316352844,99
1666161042.77996993,202949897,0,22.183734893798828,24.455476760864258,24.488811492919922,39.36747360229492,0.9449450373649597,0.0,0.09276655316352844,99
1666161042.87981987,203049747,0,22.257810592651367,24.503175735473633,24.22488784790039,40.0390625,0.9598931074142456,0.0,0.09268838912248611,99
1666161042.97988391,203149811,0,22.299877166748047,24.401865005493164,22.7757568359375,40.67252731323242,0.9740192890167236,0.0,0.09229055047035217,99
1666161043.08006978,203249997,0,22.392927169799805,24.413986206054688,21.96188735961914,41.28376388549805,0.9877066612243652,0.0,0.09202577918767929,99
1666161043.18077683,203350704,0,22.446687698364258,24.4416561126709,21.704408645629883,41.890968322753906,1.0013364553451538,0.0,0.09191537648439407,99
1666161043.27983379,203449761,0,22.501310348510742,24.473722457885742,21.45368003845215,42.48133850097656,1.0146205425262451,0.0,0.09193814545869827,99
1666161043.37987590,203549803,0,22.495464324951172,24.41100311279297,20.878875732421875,43.06159591674805,1.0276737213134766,0.0,0.0917452871799469,99
1666161043.47986078,203649788,0,22.505144119262695,24.387786865234375,20.571067810058594,43.63296890258789,1.0405325889587402,0.0,0.09151893109083176,99
1666161043.57987881,203749806,0,22.540685653686523,24.432641983032227,20.678173065185547,44.20751953125,1.0534833669662476,0.0,0.09149535745382309,99
1666161043.67985082,203849778,0,22.55976676940918,24.4113826751709,20.25712013244629,44.770103454589844,1.066175103187561,0.0,0.09140569716691971,99
1666161043.77990294,203949830,0,22.59742546081543,24.448875427246094,20.24269676208496,45.33273696899414,1.07888925075531,0.0,0.09146256744861603,99
1666161043.87986279,204049790,0,22.545679092407227,24.371644973754883,20.011302947998047,45.888427734375,1.091417670249939,0.0,0.09124667942523956,99
1666161043.97988081,204149808,0,22.461639404296875,24.282676696777344,19.957290649414062,46.44293975830078,1.1038728952407837,0.0,0.09124667942523956,99
1666161044.07978487,204249712,0,22.410175323486328,24.18794822692871,19.4831485748291,46.98366165161133,1.1159905195236206,0.0,0.09124667942523956,99
1666161044.17994690,204349874,0,22.460678100585938,24.287567138671875,20.02142906188965,47.54075241088867,1.1285032033920288,0.0,0.09124667942523956,99
1666161044.27981782,204449745,0,22.436050415039062,24.26711082458496,20.067155838012695,48.09749984741211,1.1409944295883179,0.0,0.09124667942523956,99
1666161044.37993479,204549862,0,22.474382400512695,24.328704833984375,20.32801055908203,48.662872314453125,1.153700828552246,0.0,0.09122006595134735,99
1666161044.47976685,204649694,0,22.501501083374023,24.33542251586914,20.103946685791016,49.220428466796875,1.1662466526031494,0.0,0.09122199565172195,99
1666161044.57988191,204749809,0,22.452054977416992,24.304317474365234,20.304994583129883,49.78514862060547,1.1789257526397705,0.0,0.09122199565172195,99
1666161044.67976689,204849694,0,22.45866584777832,24.323707580566406,20.43971824645996,50.35231018066406,1.1916635036468506,0.0,0.09124598652124405,99
1666161044.78006196,204949989,0,22.50265121459961,24.37273406982422,20.494958877563477,50.92333221435547,1.2045130729675293,0.0,0.09124598652124405,99
1666161044.87984180,205049769,0,22.468538284301758,24.35416603088379,20.680932998657227,51.49658966064453,1.217393398284912,0.0,0.09117712080478668,99
1666161044.97988296,205149810,0,22.37539291381836,24.274757385253906,20.775148391723633,52.07395553588867,1.2303121089935303,0.0,0.09142479300498962,99
1666161045.07984996,205249777,0,22.375200271606445,24.29908561706543,21.01390838623047,52.657535552978516,1.2433698177337646,0.0,0.09155292809009552,99
1666161045.17987394,205349801,0,22.320098876953125,24.277650833129883,21.335220336914062,53.250370025634766,1.2566019296646118,0.0,0.09175217151641846,99
1666161045.27986383,205449791,0,22.365234375,24.298673629760742,21.050121307373047,53.8350830078125,1.2696791887283325,0.0,0.09184932708740234,99
1666161045.37990594,205549833,0,22.35232925415039,24.23798179626465,20.52984046936035,54.405635833740234,1.2824323177337646,0.0,0.09184932708740234,99
1666161045.47982788,205649755,0,22.373762130737305,24.237634658813477,20.2927188873291,54.96893310546875,1.2950353622436523,0.0,0.09184932708740234,99
1666161045.57986188,205749789,0,22.422060012817383,24.283981323242188,20.280136108398438,55.532501220703125,1.3076716661453247,0.0,0.09181013703346252,99
1666161045.67989492,205849822,0,22.448699951171875,24.305889129638672,20.219064712524414,56.09437942504883,1.3202850818634033,0.0,0.09185339510440826,99
1666161045.77991295,205949840,0,22.485979080200195,24.348888397216797,20.242082595825195,56.65679931640625,1.332931637763977,0.0,0.09203148633241653,99
1666161045.87977290,206049700,0,22.477256774902344,24.291461944580078,19.724668502807617,57.20398712158203,1.3452309370040894,0.0,0.09197649359703064,99
1666161045.97987580,206149803,0,22.42924690246582,24.212770462036133,19.391080856323242,57.74322509765625,1.3573256731033325,0.0,0.09197649359703064,99
1666161046.07972884,206249656,0,22.441991806030273,24.230363845825195,19.4856014251709,58.28373336791992,1.3694558143615723,0.0,0.0917791873216629,99
1666161046.17991400,206349841,0,22.469783782958984,24.24896240234375,19.404582977294922,58.823795318603516,1.3815908432006836,0.0,0.0916886180639267,99
1666161046.27976680,206449694,0,22.476055145263672,24.24859619140625,19.34729766845703,59.3604736328125,1.3936532735824585,0.0,0.09161700308322906,99
1666161046.37997484,206549902,0,22.4467830657959,24.209665298461914,19.281211853027344,59.897220611572266,1.4057015180587769,0.0,0.09143002331256866,99
1666161046.47982883,206649756,0,22.412382125854492,24.17857551574707,19.317426681518555,60.43307113647461,1.4177111387252808,0.0,0.09143002331256866,99
1666161046.57999587,206749923,0,22.460678100585938,24.2207088470459,19.264028549194336,60.96907043457031,1.4297500848770142,0.0,0.0913635864853859,99
1666161046.67981076,206849738,0,22.538970947265625,24.2918701171875,19.146488189697266,61.500030517578125,1.4417173862457275,0.0,0.09155198931694031,99
1666161046.77988696,206949814,0,22.53858757019043,24.295515060424805,19.157230377197266,62.032623291015625,1.453721284866333,0.0,0.0917108878493309,99
1666161046.87996292,207049890,0,22.53130531311035,24.261764526367188,18.866607666015625,62.55712890625,1.4655390977859497,0.0,0.09172070026397705,99
1666161046.97982979,207149757,0,22.5288143157959,24.21660041809082,18.430519104003906,63.06845474243164,1.4770586490631104,0.0,0.09157559275627136,99
1666161047.07981682,207249744,0,22.492494583129883,24.199190139770508,18.672039031982422,63.58708953857422,1.4887241125106812,0.0,0.09140384197235107,99
1666161047.17986798,207349795,0,22.56283187866211,24.277971267700195,18.73727035522461,64.10787963867188,1.5004746913909912,0.0,0.09153623133897781,99
1666161047.27985096,207449778,0,22.56656837463379,24.26540184020996,18.54682731628418,64.6230239868164,1.5120997428894043,0.0,0.09159699827432632,99
1666161047.37995696,207549884,0,22.582765579223633,24.24940299987793,18.19666862487793,65.12906646728516,1.5235275030136108,0.0,0.0915902704000473,99
1666161047.47984290,207649770,0,22.518653869628906,24.16584014892578,17.984302520751953,65.62809753417969,1.5347651243209839,0.0,0.0915902704000473,99
1666161047.57990599,207749833,0,22.56378936767578,24.187728881835938,17.762727737426758,66.12185668945312,1.5459061861038208,0.0,0.09142401814460754,99
1666161047.67978477,207849712,0,22.558902740478516,24.20612144470215,18.0306396484375,66.62213897705078,1.557192087173462,0.0,0.09135667234659195,99
1666161047.77991986,207949847,0,22.63844108581543,24.289823532104492,18.0306396484375,67.12370300292969,1.5685467720031738,0.0,0.09158756583929062,99
1666161047.87978077,208049708,0,22.57979393005371,24.235136032104492,18.074832916259766,67.6251220703125,1.5798686742782593,0.0,0.09158272296190262,99
1666161047.97989988,208149827,0,22.585927963256836,24.194961547851562,17.596088409423828,68.1145248413086,1.5909223556518555,0.0,0.09144265949726105,99
1666161048.07982898,208249756,0,22.6192626953125,24.260190963745117,17.922990798950195,68.61207580566406,1.602176547050476,0.0,0.09155432879924774,99
1666161048.17987299,208349800,0,22.601259231567383,24.237028121948242,17.86492156982422,69.10857391357422,1.6133980751037598,0.0,0.0915631651878357,99
1666161048.27981186,208449739,0,22.61438751220703,24.238510131835938,17.735414505004883,69.60096740722656,1.6245332956314087,0.0,0.09157510101795197,99
1666161048.37995887,208549886,0,22.591197967529297,24.2040958404541,17.633525848388672,70.09154510498047,1.6356160640716553,0.0,0.0914677232503891,99
1666161048.47985697,208649784,0,22.51146697998047,24.122709274291992,17.615421295166016,70.58040618896484,1.6466209888458252,0.0,0.0914677232503891,99
1666161048.57989192,208749819,0,22.51750373840332,24.123918533325195,17.56263542175293,71.06846618652344,1.6576108932495117,0.0,0.0914677232503891,99
1666161048.67982578,208849753,0,22.597808837890625,24.215545654296875,17.674036026000977,71.55912780761719,1.668698787689209,0.0,0.09153185784816742,99
1666161048.77988386,208949811,0,22.603654861450195,24.214427947998047,17.589027404785156,72.04803466796875,1.679749846458435,0.0,0.09157828241586685,99
1666161048.87988091,209049808,0,22.601930618286133,24.200035095214844,17.45307731628418,72.53286743164062,1.690708041191101,0.0,0.091565802693367,99
1666161048.98002076,209149948,0,22.61191749572754,24.219106674194336,17.541767120361328,73.02085876464844,1.7017425298690796,0.0,0.09162073582410812,99
1666161049.07981896,209249746,0,22.585447311401367,24.1451358795166,17.06209945678711,73.49388122558594,1.712425947189331,0.0,0.09141246229410172,99
1666161049.17987394,209349801,0,22.607872009277344,24.166433334350586,17.06670570373535,73.96826171875,1.723150610923767,0.0,0.09132170677185059,99
1666161049.27991891,209449846,0,22.6509952545166,24.229991912841797,17.263113021850586,74.44804382324219,1.7340182065963745,0.0,0.09146647900342941,99
1666161049.37985182,209549779,0,22.660865783691406,24.185121536254883,16.671737670898438,74.91087341308594,1.7445063591003418,0.0,0.0914275050163269,99
1666161049.47976184,209649689,0,22.839872360229492,24.22362518310547,15.118265151977539,75.33048248291016,1.7540901899337769,0.0,0.0915284976363182,99
1666161049.57987881,209749806,0,22.6942138671875,24.131683349609375,15.745548248291016,75.76840209960938,1.764028549194336,0.0,0.09129367023706436,99
1666161049.67984295,209849770,0,22.593402862548828,24.210214614868164,17.728355407714844,76.2607192993164,1.7751516103744507,0.0,0.09119918197393417,99
1666161049.77989793,209949825,0,22.529102325439453,24.193607330322266,18.25528335571289,76.76812744140625,1.7865830659866333,0.0,0.09117931872606277,99
1666161049.87985182,210049779,0,22.430482864379883,24.13397979736328,18.639406204223633,77.28569030761719,1.7981921434402466,0.0,0.09139224886894226,99
1666161049.97990894,210149836,0,22.374528884887695,24.110965728759766,18.942102432250977,77.81220245361328,1.8099726438522339,0.0,0.09167078882455826,99
1666161050.07981682,210249744,0,22.38813591003418,24.167293548583984,19.40182113647461,78.35069274902344,1.8220285177230835,0.0,0.09170050919055939,99
1666161050.17995691,210349884,0,22.413820266723633,24.219995498657227,19.73479652404785,78.89969635009766,1.8343336582183838,0.0,0.09152232855558395,99
1666161050.27979589,210449723,0,22.42397689819336,24.22591781616211,19.72773551940918,79.44685363769531,1.8466030359268188,0.0,0.09134049713611603,99
1666161050.37993979,210549867,0,22.395036697387695,24.205089569091797,19.834228515625,79.9986343383789,1.8589602708816528,0.0,0.09125909209251404,99
1666161050.47987199,210649799,0,22.345684051513672,24.151418685913086,19.757505416870117,80.54712677001953,1.8712166547775269,0.0,0.09139487147331238,98
1666161050.57983685,210749764,0,22.336196899414062,24.14191246032715,19.723133087158203,81.0948486328125,1.8834507465362549,0.0,0.09155315160751343,98
1666161050.67975283,210849680,0,22.38488006591797,24.213930130004883,20.00823402404785,81.65020751953125,1.8958823680877686,0.0,0.09141488373279572,98
1666161050.77990580,210949833,0,22.467430114746094,24.33281707763672,20.405723571777344,82.21794891357422,1.9086380004882812,0.0,0.09141488373279572,98
1666161050.87980294,211049730,0,22.552001953125,24.431381225585938,20.558792114257812,82.78849029541016,1.9215048551559448,0.0,0.09141488373279572,98
1666161050.97985578,211149783,0,22.684345245361328,24.5612850189209,20.532093048095703,83.35916900634766,1.9344502687454224,0.0,0.09141488373279572,98
1666161051.07999778,211249925,0,22.70015525817871,24.600435256958008,20.787425994873047,83.93746948242188,1.9475778341293335,0.0,0.09141488373279572,98
1666161051.17989278,211349820,0,22.678115844726562,24.644575119018555,21.511375427246094,84.53443145751953,1.9611157178878784,0.0,0.09141488373279572,98
1666161051.27981687,211449744,0,22.622535705566406,24.604705810546875,21.6832332611084,85.13633728027344,1.9747322797775269,0.0,0.09141488373279572,98
1666161051.37989092,211549818,0,22.581329345703125,24.563640594482422,21.68476676940918,85.73918914794922,1.9883453845977783,0.0,0.09141488373279572,98
1666161051.47987390,211649801,0,22.540311813354492,24.523712158203125,21.761796951293945,86.3436279296875,2.001969575881958,0.0,0.09114141017198563,98
1666161051.57990193,211749829,0,22.50993537902832,24.510812759399414,22.00086212158203,86.95498657226562,2.0157310962677,0.0,0.09094541519880295,98
1666161051.67983484,211849762,0,22.55601692199707,24.59568977355957,22.427438735961914,87.57759857177734,2.0297746658325195,0.0,0.09094541519880295,98
1666161051.77985787,211949785,0,22.533222198486328,24.599048614501953,22.825166702270508,88.21183013916016,2.0440659523010254,0.0,0.09050649404525757,98
1666161051.87978983,212049717,0,22.306682586669922,24.357431411743164,22.521038055419922,88.8370361328125,2.0580122470855713,0.0,0.09105927497148514,98
1666161051.97995186,212149879,0,22.05532455444336,24.08158302307129,21.87289047241211,89.44564056396484,2.0714352130889893,0.0,0.09263787418603897,98
1666161052.07986283,212249790,0,21.982975006103516,23.982423782348633,21.583494186401367,90.04469299316406,2.084604263305664,0.0,0.09263787418603897,98
1666161052.17988181,212349809,0,21.898740768432617,23.903762817382812,21.643644332885742,90.64607238769531,2.097773790359497,0.0,0.09263787418603897,98
1666161052.27983999,212449767,0,21.917234420776367,23.90386199951172,21.445087432861328,91.24156951904297,2.110825300216675,0.0,0.09263787418603897,98
1666161052.37993598,212549863,0,21.846704483032227,23.835464477539062,21.46810531616211,91.83851623535156,2.1238667964935303,0.0,0.09263787418603897,98
1666161052.47979188,212649719,0,21.844213485717773,23.84394645690918,21.586563110351562,92.43733215332031,2.1369473934173584,0.0,0.09263787418603897,98
1666161052.57986379,212749791,0,21.815370559692383,23.865758895874023,21.90845489501953,93.04638671875,2.1502342224121094,0.0,0.09358888864517212,98
1666161052.67981696,212849744,0,21.830413818359375,23.842662811279297,21.50094223022461,93.64340209960938,2.1632673740386963,0.0,0.09358888864517212,98
1666161052.77989697,212949824,0,21.8989315032959,23.873268127441406,21.095848083496094,94.22990417480469,2.1761112213134766,0.0,0.09358888864517212,98
1666161052.87987995,213049807,0,21.933429718017578,23.94435691833496,21.48682403564453,94.82671356201172,2.1892013549804688,0.0,0.09358888864517212,98
1666161052.97991490,213149842,0,22.00396156311035,23.940671920776367,20.7410831451416,95.40306854248047,2.201883316040039,0.0,0.093375563621521,98
1666161053.07986498,213249792,0,22.093656539916992,23.98711395263672,20.279830932617188,95.96619415283203,2.214324712753296,0.0,0.09336648881435394,98
1666161053.18000579,213349933,0,22.2292537689209,24.160680770874023,20.55971336364746,96.53814697265625,2.227038860321045,0.0,0.09394235163927078,98
1666161053.27981091,213449738,0,22.308982849121094,24.213665008544922,20.141117095947266,97.09657287597656,2.239496946334839,0.0,0.09456685185432434,98
1666161053.37993193,213549859,0,22.35219955444336,24.26714515686035,20.10858726501465,97.65586853027344,2.2519984245300293,0.0,0.09523025900125504,98
1666161053.47980499,213649732,0,22.231904983520508,24.121944427490234,19.84173011779785,98.20637512207031,2.26423716545105,0.0,0.09525582194328308,98
1666161053.57989287,213749820,0,22.23164939880371,24.140764236450195,20.024497985839844,98.76314544677734,2.2766151428222656,0.0,0.09533892571926117,98
1666161053.67977691,213849704,0,22.188045501708984,24.086368560791016,19.936115264892578,99.31632232666016,2.288889169692993,0.0,0.09522033482789993,98
1666161053.77998400,213949911,0,22.19638442993164,24.134937286376953,20.343355178833008,99.88263702392578,2.301459312438965,0.0,0.09529168158769608,98
1666161053.87978578,214049713,0,22.15747833251953,24.08363151550293,20.213233947753906,100.44304656982422,2.3138766288757324,0.0,0.09529168158769608,98
1666161053.97990489,214149832,0,22.082250595092773,24.003314971923828,20.159835815429688,101.00374603271484,2.3262581825256348,0.0,0.09529168158769608,98
1666161054.07980084,214249728,0,22.124799728393555,24.050777435302734,20.211393356323242,101.56464385986328,2.338667869567871,0.0,0.09529168158769608,98
1666161054.17986488,214349792,0,22.235193252563477,24.17836570739746,20.391843795776367,102.1314926147461,2.351271867752075,0.0,0.09529168158769608,98
1666161054.27978897,214449716,0,22.32479476928711,24.271799087524414,20.432044982910156,102.69866180419922,2.363933801651001,0.0,0.09529168158769608,98
1666161054.37992978,214549857,0,22.32421875,24.239633560180664,20.023473739624023,103.25569915771484,2.3763692378997803,0.0,0.09565849602222443,98
1666161054.47984290,214649770,0,22.373092651367188,24.304805755615234,20.08802604675293,103.8132553100586,2.388843536376953,0.0,0.09616237878799438,98
1666161054.57989883,214749826,0,22.326231002807617,24.229888916015625,19.76763153076172,104.36270904541016,2.4011106491088867,0.0,0.09630177915096283,98
1666161054.67990899,214849836,0,22.298152923583984,24.222570419311523,19.96588134765625,104.91741943359375,2.4134795665740967,0.0,0.09638531506061554,98
1666161054.77993298,214949860,0,22.33945655822754,24.25162696838379,19.805381774902344,105.46774291992188,2.4257733821868896,0.0,0.09654805809259415,98
1666161054.87982297,215049750,0,22.250141143798828,24.097986221313477,19.139123916625977,105.99884796142578,2.4375905990600586,0.0,0.09654805809259415,98
1666161054.97987986,215149807,0,22.251773834228516,24.092151641845703,19.06178855895996,106.52867889404297,2.449380397796631,0.0,0.09654805809259415,98
1666161055.07979584,215249723,0,22.254743576049805,24.094884872436523,19.05933380126953,107.05770111083984,2.461153745651245,0.0,0.09654805809259415,98
1666161055.17994881,215349876,0,22.3188533782959,24.15138053894043,18.98874855041504,107.58598327636719,2.472944498062134,0.0,0.09650598466396332,98
1666161055.27996898,215449896,0,22.359994888305664,24.163082122802734,18.682371139526367,108.10511779785156,2.4845523834228516,0.0,0.09651275724172592,98
1666161055.37997198,215549899,0,22.321056365966797,24.075796127319336,18.236257553100586,108.61143493652344,2.495853900909424,0.0,0.09622260928153992,98
1666161055.47977781,215649705,0,22.292499542236328,24.046560287475586,18.229198455810547,109.11715698242188,2.5071277618408203,0.0,0.09622260928153992,98
1666161055.58000898,215749936,0,22.308504104614258,24.01743507385254,17.82870864868164,109.61358642578125,2.518202304840088,0.0,0.0958527997136116,98
1666161055.67978883,215849716,0,22.351625442504883,24.09601593017578,18.20280647277832,110.11814880371094,2.52947998046875,0.0,0.09583088010549545,98
1666161055.77987099,215949798,0,22.389957427978516,24.148462295532227,18.31942367553711,110.62747955322266,2.540883779525757,0.0,0.09599123895168304,98
1666161055.87984300,216049770,0,22.37912940979004,24.12946319580078,18.222755432128906,111.1335678100586,2.5522096157073975,0.0,0.0960521325469017,98
1666161055.97990394,216149831,0,22.326326370239258,24.058061599731445,18.02910804748535,111.63471984863281,2.563398599624634,0.0,0.0960521325469017,98
1666161056.07985783,216249785,0,22.291732788085938,24.018779754638672,17.980310440063477,112.13396453857422,2.5745277404785156,0.0,0.0960521325469017,98
1666161056.17990184,216349829,0,22.307714462280273,24.056964874267578,18.211467742919922,112.6401138305664,2.5858187675476074,0.0,0.0960521325469017,98
1666161056.27949977,216449427,0,22.32565689086914,24.068483352661133,18.15554428100586,113.14244842529297,2.597033739089966,0.0,0.09599412232637405,98
1666161056.37991977,216549847,0,22.31597900390625,24.054533004760742,18.111045837402344,113.64765930175781,2.6083080768585205,0.0,0.09599412232637405,98
1666161056.47986579,216649793,0,22.20568084716797,23.942731857299805,18.095394134521484,114.15010070800781,2.6194651126861572,0.0,0.09599412232637405,98
1666161056.57979584,216749723,0,22.212770462036133,23.98223114013672,18.3792667388916,114.66031646728516,2.63079833984375,0.0,0.09627482295036316,98
1666161056.67985487,216849782,0,22.199451446533203,23.9879207611084,18.532711029052734,115.17546081542969,2.6422343254089355,0.0,0.09650340676307678,98
1666161056.77991581,216949843,0,22.116270065307617,23.926298141479492,18.670503616333008,115.69444274902344,2.653712272644043,0.0,0.09694581478834152,98
1666161056.87980795,217049735,0,22.02811050415039,23.85036277770996,18.6640625,116.2120361328125,2.665113925933838,0.0,0.09763430058956146,98
1666161056.97990680,217149834,0,21.920568466186523,23.80162811279297,19.10894775390625,116.7437515258789,2.676769495010376,0.0,0.09843870997428894,98
1666161057.07979298,217249720,0,21.8842716217041,23.827146530151367,19.613265991210938,117.28797912597656,2.6886794567108154,0.0,0.09905926883220673,98
1666161057.17990685,217349834,0,21.856863021850586,23.85260581970215,20.05457305908203,117.84573364257812,2.7008702754974365,0.0,0.09951557964086533,98
1666161057.27985382,217449781,0,21.810195922851562,23.83037567138672,20.199731826782227,118.40654754638672,2.713101863861084,0.0,0.10001024603843689,98
1666161057.38006282,217549990,0,21.780967712402344,23.84428596496582,20.551118850708008,118.9786605834961,2.7255630493164062,0.0,0.10039927065372467,98
1666161057.47982693,217649754,0,21.68762969970703,23.76860237121582,20.59500503540039,119.5494613647461,2.7379424571990967,0.0,0.10104262828826904,98
1666161057.57988691,217749814,0,21.708232879638672,23.832603454589844,20.95652198791504,120.1319808959961,2.7505879402160645,0.0,0.10137033462524414,98
1666161057.67985392,217849781,0,21.818532943725586,23.98577880859375,21.443859100341797,120.72748565673828,2.7635810375213623,0.0,0.101065993309021,98
1666161057.77991080,217949838,0,21.942916870117188,24.08534812927246,21.198348999023438,121.31671905517578,2.77651047706604,0.0,0.101065993309021,98
1666161057.87986684,218049794,0,22.06015968322754,24.152742385864258,20.705110549926758,121.89165496826172,2.789193630218506,0.0,0.101065993309021,98
1666161057.97993398,218149861,0,22.025136947631836,24.064861297607422,20.124544143676758,122.45108795166016,2.8015153408050537,0.0,0.10135509818792343,98
1666161058.07982278,218249750,0,22.051490783691406,24.04621696472168,19.649173736572266,122.99624633789062,2.8135368824005127,0.0,0.10151708871126175,98
1666161058.17993379,218349861,0,22.12978172302246,24.128652572631836,19.612041473388672,123.54176330566406,2.8256092071533203,0.0,0.10192058235406876,98
1666161058.27993488,218449862,0,22.105539321899414,24.109542846679688,19.61449432373047,124.08647918701172,2.8376505374908447,0.0,0.10216955840587616,98
1666161058.37992191,218549849,0,22.075834274291992,24.010448455810547,18.961437225341797,124.61333465576172,2.8492813110351562,0.0,0.10202883929014206,98
1666161058.47983098,218649758,0,21.99294090270996,23.87344741821289,18.43113136291504,125.12488555908203,2.860531806945801,0.0,0.10202883929014206,98
1666161058.57989097,218749818,0,22.03548812866211,23.9201602935791,18.529951095581055,125.63995361328125,2.8718817234039307,0.0,0.10170949995517731,98
1666161058.67980981,218849737,0,22.054367065429688,23.964599609375,18.799396514892578,126.16177368164062,2.883390188217163,0.0,0.10161137580871582,98
1666161058.77991295,218949840,0,22.090612411499023,23.942462921142578,18.252044677734375,126.66934204101562,2.8946027755737305,0.0,0.10145990550518036,98
1666161058.87979388,219049721,0,22.05254554748535,23.950977325439453,18.72758674621582,127.18897247314453,2.906061887741089,0.0,0.1013709008693695,98
1666161058.97991395,219149841,0,22.057336807250977,23.957294464111328,18.751523971557617,127.71051788330078,2.9175658226013184,0.0,0.10132287442684174,98
1666161059.07979894,219249726,0,22.157094955444336,24.056293487548828,18.689226150512695,128.22911071777344,2.929056167602539,0.0,0.10161998122930527,98
1666161059.17996192,219349889,0,22.355552673339844,24.272350311279297,18.685543060302734,128.74903869628906,2.9406795501708984,0.0,0.10258180648088455,98
1666161059.27984977,219449777,0,22.416311264038086,24.302045822143555,18.231348037719727,129.25494384765625,2.9520201683044434,0.0,0.10343360900878906,98
1666161059.37992382,219549851,0,22.455312728881836,24.394916534423828,18.576597213745117,129.77137756347656,2.9636170864105225,0.0,0.10441119223833084,98
1666161059.47996092,219649888,0,22.408933639526367,24.368186950683594,18.64472770690918,130.28952026367188,2.9752280712127686,0.0,0.10508353263139725,98
1666161059.57990694,219749834,0,22.47102928161621,24.450407028198242,18.836223602294922,130.8123321533203,2.986976146697998,0.0,0.10508353263139725,98
1666161059.67979884,219849726,0,22.359676361083984,24.364988327026367,19.083030700683594,131.34207153320312,2.9988210201263428,0.0,0.10508353263139725,98
1666161059.77991080,219949838,0,22.40873908996582,24.440616607666016,19.335840225219727,131.87982177734375,3.010871410369873,0.0,0.10508353263139725,98
1666161059.87986588,220049793,0,22.39771842956543,24.414567947387695,19.192829132080078,132.4127655029297,3.022808074951172,0.0,0.10508353263139725,98
1666161059.97985196,220149779,0,22.396089553833008,24.422452926635742,19.283361434936523,132.94837951660156,3.034803867340088,0.0,0.10508353263139725,98
1666161060.07951283,220249440,0,22.43068504333496,24.477140426635742,19.474552154541016,133.487548828125,3.0468978881835938,0.0,0.10508353263139725,98
1666161060.17991781,220349845,0,22.444194793701172,24.503129959106445,19.593318939208984,134.0340576171875,3.0591635704040527,0.0,0.10508353263139725,98
1666161060.27978182,220449709,0,22.34769630432129,24.3928279876709,19.468721389770508,134.5741729736328,3.0712337493896484,0.0,0.10504709184169769,98
1666161060.37980700,220549734,0,22.163131713867188,24.239748001098633,19.66329002380371,135.12054443359375,3.083343267440796,0.0,0.10560879856348038,98
1666161060.47981095,220649738,0,22.004919052124023,24.02903175354004,19.166128158569336,135.6529998779297,3.095060110092163,0.0,0.10560879856348038,98
1666161060.57987690,220749804,0,21.965181350708008,23.93939208984375,18.69362449645996,136.1726531982422,3.1064743995666504,0.0,0.10560879856348038,98
1666161060.67983389,220849761,0,22.04880714416504,24.053115844726562,18.978620529174805,136.69964599609375,3.118093967437744,0.0,0.10560879856348038,98
1666161060.77991080,220949838,0,22.05522918701172,24.025508880615234,18.656389236450195,137.21832275390625,3.129533529281616,0.0,0.10560879856348038,98
1666161060.87989092,221049818,0,22.136205673217773,24.10774803161621,18.668357849121094,137.73681640625,3.1410109996795654,0.0,0.10560879856348038,98
1666161060.97997189,221149899,0,22.1485652923584,24.091943740844727,18.401670455932617,138.24842834472656,3.1523425579071045,0.0,0.10560879856348038,98
1666161061.07983398,221249761,0,22.213825225830078,24.193161010742188,18.721755981445312,138.7677764892578,3.16387939453125,0.0,0.10572382807731628,98
1666161061.17989588,221349823,0,22.245637893676758,24.22416114807129,18.679710388183594,139.28704833984375,3.1754307746887207,0.0,0.10591834038496017,98
1666161061.27980185,221449729,0,22.268159866333008,24.259469985961914,18.752445220947266,139.8074951171875,3.1870203018188477,0.0,0.10618935525417328,98
1666161061.37996697,221549894,0,22.151248931884766,24.176368713378906,19.05657196044922,140.3377685546875,3.1987664699554443,0.0,0.10626882314682007,98
1666161061.47981882,221649746,0,22.12510871887207,24.115354537963867,18.728403091430664,140.8572235107422,3.210259437561035,0.0,0.10626882314682007,98
1666161061.58004594,221749973,0,22.06854820251465,24.099979400634766,19.05933380126953,141.38778686523438,3.221968173980713,0.0,0.10658454895019531,98
1666161061.67985582,221849783,0,22.1223087310791,24.180784225463867,19.318655014038086,141.92359924316406,3.233821392059326,0.0,0.106553815305233,98
1666161061.77990484,221949832,0,22.105730056762695,24.195627212524414,19.629226684570312,142.46917724609375,3.2458815574645996,0.0,0.10646868497133255,98
1666161061.87984991,222049777,0,22.096147537231445,24.177562713623047,19.550662994384766,143.01199340820312,3.257875680923462,0.0,0.10646265745162964,98
1666161061.97987795,222149805,0,22.084936141967773,24.165342330932617,19.533475875854492,143.55474853515625,3.269862413406372,0.0,0.10650468617677689,98
1666161062.07982397,222249751,0,22.07161521911621,24.12655258178711,19.260343551635742,144.08953857421875,3.2816662788391113,0.0,0.10669264942407608,98
1666161062.17988777,222349815,0,22.121061325073242,24.20916748046875,19.571224212646484,144.63357543945312,3.293700933456421,0.0,0.10669264942407608,98
1666161062.27983785,222449765,0,22.103046417236328,24.191730499267578,19.58749008178711,145.1774444580078,3.305722236633301,0.0,0.10663354396820068,98
1666161062.37992883,222549856,0,22.12660026550293,24.173328399658203,19.196922302246094,145.71121215820312,3.317532777786255,0.0,0.10661746561527252,98
1666161062.47985387,222649781,0,22.117708206176758,24.14639663696289,19.02772331237793,146.23941040039062,3.3292152881622314,0.0,0.10661746561527252,98
1666161062.57989883,222749826,0,22.11636734008789,24.159255981445312,19.160913467407227,146.77194213867188,3.3409929275512695,0.0,0.10661746561527252,98
1666161062.67982292,222849750,0,22.147991180419922,24.214208602905273,19.379724502563477,147.30990600585938,3.352907657623291,0.0,0.10661746561527252,98
1666161062.77996182,222949889,0,22.182296752929688,24.238174438476562,19.282747268676758,147.84632873535156,3.364806890487671,0.0,0.10661746561527252,98
1666161062.87989378,223049821,0,22.12959098815918,24.165639877319336,19.096773147583008,148.37648010253906,3.3765387535095215,0.0,0.10661746561527252,98
1666161062.97991776,223149845,0,22.090686798095703,24.135831832885742,19.18208885192871,148.90948486328125,3.3883132934570312,0.0,0.10661746561527252,98
1666161063.07984877,223249776,0,22.108509063720703,24.167097091674805,19.302082061767578,149.4453125,3.4001595973968506,0.0,0.10665109753608704,98
1666161063.17989397,223349821,0,22.163515090942383,24.217979431152344,19.26341438293457,149.980712890625,3.4120259284973145,0.0,0.10665109753608704,98
1666161063.27979684,223449724,0,22.141080856323242,24.173852920532227,19.064960479736328,150.50982666015625,3.423741102218628,0.0,0.10662341862916946,98
1666161063.37991881,223549846,0,22.195138931274414,24.19908905029297,18.7834415435791,151.0322723388672,3.4353368282318115,0.0,0.10668709129095078,98
1666161063.47977686,223649704,0,22.158245086669922,24.084461212158203,18.112274169921875,151.5347137451172,3.446470022201538,0.0,0.1063486784696579,98
1666161063.57986379,223749791,0,22.142913818359375,24.04524040222168,17.887632369995117,152.0320587158203,3.4574828147888184,0.0,0.1063486784696579,98
1666161063.68001485,223849942,0,22.212675094604492,24.158113479614258,18.28413200378418,152.54075622558594,3.468782424926758,0.0,0.10640038549900055,98
1666161063.77996278,223949890,0,22.24199676513672,24.158018112182617,18.000873565673828,153.04055786132812,3.4798989295959473,0.0,0.10644044727087021,98
1666161063.87983799,224049765,0,22.221393585205078,24.102319717407227,17.69736099243164,153.53158569335938,3.4908101558685303,0.0,0.10628288239240646,98
1666161063.97990799,224149835,0,22.17807960510254,24.041067123413086,17.52857208251953,154.01885986328125,3.501617193222046,0.0,0.10628288239240646,98
1666161064.07985187,224249779,0,22.17645263671875,24.04671287536621,17.597007751464844,154.50743103027344,3.5124521255493164,0.0,0.10628288239240646,98
1666161064.17991781,224349845,0,22.209863662719727,24.060771942138672,17.44219970703125,154.99227905273438,3.5232205390930176,0.0,0.10611668229103088,98
1666161064.27982092,224449748,0,22.258386611938477,24.093721389770508,17.29840660095215,155.47238159179688,3.5339066982269287,0.0,0.10609854012727737,98
1666161064.37988591,224549813,0,22.206350326538086,24.051546096801758,17.417171478271484,155.95654296875,3.5446581840515137,0.0,0.10594121366739273,98
1666161064.47984290,224649770,0,22.226089477539062,24.073320388793945,17.444482803344727,156.44094848632812,3.555424451828003,0.0,0.10589198023080826,98
1666161064.57998300,224749910,0,22.1909236907959,24.014074325561523,17.217079162597656,156.91990661621094,3.5660529136657715,0.0,0.10589198023080826,98
1666161064.67981577,224849743,0,22.244586944580078,24.113412857055664,17.625547409057617,157.40872192382812,3.5769264698028564,0.0,0.10602934658527374,98
1666161064.77988982,224949817,0,22.330257415771484,24.160755157470703,17.220455169677734,157.88746643066406,3.5876169204711914,0.0,0.10629789531230927,98
1666161064.87980080,225049728,0,22.31166648864746,24.181501388549805,17.544221878051758,158.37440490722656,3.5984814167022705,0.0,0.10657839477062225,98
1666161064.97994399,225149871,0,22.225324630737305,24.10636329650879,17.642732620239258,158.86521911621094,3.6093900203704834,0.0,0.10661827772855759,98
1666161065.07982183,225249749,0,22.14757537841797,24.051753997802734,17.818649291992188,159.359619140625,3.6203396320343018,0.0,0.1068643108010292,98
1666161065.17987680,225349804,0,22.183542251586914,24.10685157775879,17.996578216552734,159.8598175048828,3.6314358711242676,0.0,0.1068708524107933,98
1666161065.27983880,225449766,0,22.158052444458008,24.0924129486084,18.089563369750977,160.36215209960938,3.642566442489624,0.0,0.1069323942065239,97
1666161065.37989593,225549823,0,22.168113708496094,24.09559440612793,18.0180606842041,160.86300659179688,3.6536693572998047,0.0,0.10697489231824875,97
1666161065.47990084,225649828,0,22.088003158569336,24.055681228637695,18.360855102539062,161.3730926513672,3.6649363040924072,0.0,0.10716697573661804,97
1666161065.57989979,225749827,0,22.078418731689453,24.048587799072266,18.350112915039062,161.8828582763672,3.6761910915374756,0.0,0.1073654517531395,97
1666161065.67982578,225849753,0,22.101417541503906,24.072416305541992,18.343360900878906,162.39205932617188,3.6874451637268066,0.0,0.10745023190975189,97
1666161065.78003597,225949963,0,22.12968635559082,24.093242645263672,18.274925231933594,162.9008026123047,3.6987032890319824,0.0,0.10744533687829971,97
1666161065.87982678,226049754,0,22.133947372436523,24.121654510498047,18.519378662109375,163.41419982910156,3.710066795349121,0.0,0.10733115673065186,97
1666161065.97989893,226149826,0,22.096721649169922,24.048370361328125,18.15278434753418,163.91885375976562,3.7212178707122803,0.0,0.10751237720251083,97
1666161066.07985377,226249781,0,22.109373092651367,24.088590621948242,18.408113479614258,164.4300079345703,3.7325189113616943,0.0,0.10751873254776001,97
1666161066.17991400,226349841,0,22.133039474487305,24.124073028564453,18.540691375732422,164.94537353515625,3.7439255714416504,0.0,0.1073872372508049,97
1666161066.27982879,226449756,0,22.18488311767578,24.156307220458984,18.358091354370117,165.45492553710938,3.755229949951172,0.0,0.1073872372508049,97
1666161066.38001680,226549944,0,22.132081985473633,24.10576629638672,18.380189895629883,165.9664764404297,3.7665517330169678,0.0,0.10738104581832886,97
1666161066.47979879,226649726,0,22.086374282836914,24.032573699951172,18.12424087524414,166.4688720703125,3.7776479721069336,0.0,0.10738104581832886,97
1666161066.57990193,226749829,0,22.068164825439453,24.002105712890625,18.010080337524414,166.96971130371094,3.788700580596924,0.0,0.10738104581832886,97
1666161066.67982578,226849753,0,22.078609466552734,24.09187126159668,18.758583068847656,167.4904327392578,3.8001973628997803,0.0,0.10732479393482208,97
1666161066.77990580,226949833,0,22.107219696044922,24.094223022460938,18.524154663085938,168.0054473876953,3.8115828037261963,0.0,0.10726556181907654,97
1666161066.87956476,227049492,0,22.107168197631836,24.067733764648438,18.277687072753906,168.51145935058594,3.8227694034576416,0.0,0.10726556181907654,97
1666161066.97990680,227149834,0,22.012680053710938,23.996313095092773,18.438190460205078,169.02542114257812,3.834083080291748,0.0,0.10758282989263535,97
1666161067.07985187,227249779,0,22.029640197753906,24.038957595825195,18.656389236450195,169.5434112548828,3.845494270324707,0.0,0.10770126432180405,97
1666161067.17980695,227349734,0,22.03318977355957,24.02075958251953,18.424381256103516,170.0550079345703,3.85676646232605,0.0,0.10787717998027802,97
1666161067.27986097,227449788,0,22.145212173461914,24.148143768310547,18.566776275634766,170.57107543945312,3.868194818496704,0.0,0.10787717998027802,97
1666161067.37995291,227549880,0,22.049575805664062,24.004369735717773,18.120559692382812,171.07492065429688,3.8793046474456787,0.0,0.10787717998027802,97
1666161067.47978282,227649710,0,22.085512161254883,23.993675231933594,17.727434158325195,171.56655883789062,3.890162467956543,0.0,0.10763894021511078,97
1666161067.57993984,227749867,0,22.10601806640625,24.067399978637695,18.211091995239258,172.07325744628906,3.9013633728027344,0.0,0.10770263522863388,97
1666161067.67986584,227849793,0,22.23957061767578,24.195486068725586,18.079166412353516,172.57513427734375,3.912524700164795,0.0,0.10818620026111603,97
1666161067.77986193,227949789,0,22.187183380126953,24.14139747619629,18.030948638916016,173.0760040283203,3.923637628555298,0.0,0.10838111490011215,97
1666161067.87997699,228049904,0,22.19542694091797,24.12587547302246,17.795259475708008,173.5709228515625,3.9346227645874023,0.0,0.1084810122847557,97
1666161067.97989178,228149819,0,22.191974639892578,24.098705291748047,17.578901290893555,174.05885314941406,3.945450782775879,0.0,0.10846701264381409,97
1666161068.07979298,228249720,0,22.109373092651367,23.98624610900879,17.303621292114258,174.53907775878906,3.9560680389404297,0.0,0.10846701264381409,97
1666161068.17995286,228349880,0,22.196001052856445,24.08658790588379,17.42791175842285,175.0240020751953,3.9668314456939697,0.0,0.10848036408424377,97
1666161068.27981377,228449741,0,22.173479080200195,24.06485939025879,17.445404052734375,175.50796508789062,3.977562427520752,0.0,0.1084170714020729,97
1666161068.37990689,228549834,0,22.162269592285156,24.09760093688965,17.850805282592773,176.00425720214844,3.9885613918304443,0.0,0.1084170714020729,97
1666161068.47983599,228649763,0,22.133039474487305,24.060619354248047,17.779298782348633,176.4978790283203,3.9994866847991943,0.0,0.1084170714020729,97
1666161068.57989788,228749825,0,22.179092407226562,24.078102111816406,17.516193389892578,176.9847869873047,4.0102858543396,0.0,0.10841456800699234,97
1666161068.67986798,228849795,0,22.221778869628906,24.134870529174805,17.615114212036133,177.47398376464844,4.0211567878723145,0.0,0.10860515385866165,97
1666161068.77990794,228949835,0,22.22494125366211,24.148807525634766,17.682321548461914,177.96539306640625,4.032078266143799,0.0,0.10880163311958313,97
1666161068.87984776,229049775,0,22.15900993347168,24.10441017150879,17.880878448486328,178.46182250976562,4.043078899383545,0.0,0.1087978258728981,97
1666161068.97987795,229149805,0,22.163515090942383,24.060501098632812,17.435890197753906,178.9463348388672,4.053817272186279,0.0,0.1087978258728981,97
1666161069.07987094,229249798,0,22.197534561157227,24.098167419433594,17.468421936035156,179.43157958984375,4.06458854675293,0.0,0.10880395025014877,97
1666161069.17990494,229349832,0,22.229637145996094,24.133342742919922,17.476707458496094,179.91725158691406,4.075384616851807,0.0,0.10892810672521591,97
1666161069.27983093,229449758,0,22.2399845123291,24.136438369750977,17.392927169799805,180.39990234375,4.086118698120117,0.0,0.1090359091758728,97
1666161069.37992978,229549857,0,22.214111328125,24.09319305419922,17.243471145629883,180.8795623779297,4.096774101257324,0.0,0.10897354781627655,97
1666161069.47977495,229649702,0,22.167804718017578,24.013324737548828,16.935489654541016,181.34930419921875,4.107187271118164,0.0,0.10897354781627655,97
1666161069.57992792,229749855,0,22.203187942504883,24.030080795288086,16.796947479248047,181.81663513183594,4.117563247680664,0.0,0.10876337438821793,97
1666161069.67979479,229849722,0,22.317031860351562,24.147071838378906,16.789888381958008,182.28244018554688,4.12795877456665,0.0,0.10899651795625687,97
1666161069.77984786,229949775,0,22.316936492919922,24.141841888427734,16.717464447021484,182.74710083007812,4.138328552246094,0.0,0.1091616079211235,97
1666161069.87987280,230049800,0,22.29786491394043,24.118337631225586,16.66928482055664,183.2102813720703,4.148656368255615,0.0,0.10921116173267365,97
1666161069.98006487,230149992,0,22.28531265258789,24.08714485168457,16.508779525756836,183.66978454589844,4.158896446228027,0.0,0.10914386808872223,97
1666161070.07983088,230249758,0,22.316362380981445,24.130449295043945,16.60667610168457,184.13003540039062,4.169167518615723,0.0,0.10923844575881958,97
1666161070.17989397,230349821,0,22.312240600585938,24.09290313720703,16.30868911743164,184.5833740234375,4.1792826652526855,0.0,0.1091848611831665,97
1666161070.27954984,230449477,0,22.328147888183594,24.153003692626953,16.688617706298828,185.04537963867188,4.189598560333252,0.0,0.10934731364250183,97
1666161070.37992287,230549850,0,22.307289123535156,24.08271598815918,16.253177642822266,185.4985809326172,4.199708461761475,0.0,0.10923562943935394,97
1666161070.47981882,230649746,0,22.28464126586914,24.071014404296875,16.372520446777344,185.95294189453125,4.20983362197876,0.0,0.10910806804895401,97
1666161070.57983994,230749767,0,22.2996883392334,24.09542465209961,16.460905075073242,186.4103240966797,4.220033168792725,0.0,0.10909096151590347,97
1666161070.67983699,230849764,0,22.321056365966797,24.10707664489746,16.367916107177734,186.86500549316406,4.23018217086792,0.0,0.10911719501018524,97
1666161070.77992797,230949855,0,22.31061363220215,24.10435676574707,16.436965942382812,187.32205200195312,4.2403788566589355,0.0,0.10912854969501495,97
1666161070.87985992,231049787,0,22.37922477722168,24.210744857788086,16.783138275146484,187.7879638671875,4.250805854797363,0.0,0.10912854969501495,97
1666161070.97988296,231149810,0,22.274003982543945,23.98810577392578,15.707186698913574,188.2244110107422,4.26052713394165,0.0,0.10912854969501495,97
1666161071.07977295,231249700,0,22.209224700927734,23.993656158447266,16.351654052734375,188.67816162109375,4.270604610443115,0.0,0.10912854969501495,97
1666161071.17991090,231349838,0,22.243913650512695,24.068157196044922,16.709178924560547,189.1429901123047,4.280944347381592,0.0,0.1091761589050293,97
1666161071.27982497,231449752,0,22.2342472076416,24.055944442749023,16.67224884033203,189.60574340820312,4.291233539581299,0.0,0.10926520824432373,97
1666161071.37988782,231549815,0,22.249662399291992,24.06442642211914,16.60176658630371,190.06723022460938,4.301501274108887,0.0,0.1093115359544754,97
1666161071.47982883,231649756,0,22.161693572998047,23.992521286010742,16.70027732849121,190.5308837890625,4.311776638031006,0.0,0.10962861776351929,97
1666161071.57990479,231749832,0,22.181913375854492,24.084400177001953,17.365304946899414,191.01365661621094,4.322485446929932,0.0,0.10955674946308136,97
1666161071.67985487,231849782,0,22.162269592285156,24.0396785736084,17.119487762451172,191.48899841308594,4.333020210266113,0.0,0.10966504365205765,97
1666161071.77999091,231949918,0,22.163801193237305,24.12422752380371,17.914024353027344,191.98731994628906,4.344065189361572,0.0,0.1094353199005127,97
1666161071.87986183,232049789,0,22.17970848083496,24.212621688842773,18.669584274291992,192.5052947998047,4.35555362701416,0.0,0.10888902842998505,97
1666161071.97991586,232149843,0,22.112247467041016,24.142375946044922,18.680631637573242,193.02452087402344,4.367034912109375,0.0,0.10867562890052795,97
1666161072.07995677,232249884,0,22.058773040771484,24.134201049804688,19.125314712524414,193.55601501464844,4.378758907318115,0.0,0.10851728916168213,97
1666161072.17986584,232349793,0,22.066333770751953,24.16505241394043,19.386510848999023,194.09410095214844,4.390632629394531,0.0,0.10825660824775696,97
