timestamp,TimeUS,Instance,Volt,VoltR,Curr,CurrTot,EnrgTot,Temp,Res,RemPct
1666164156.36045313,130718550,0,24.8465633392334,24.943187713623047,0.514258086681366,19.2934627532959,0.47983452677726746,0.0,0.18788930773735046,99
1666164156.46026826,130818365,0,24.814037322998047,24.896146774291992,0.4370097517967224,19.305583953857422,0.48013532161712646,0.0,0.18788930773735046,99
1666164156.56024623,130918343,0,24.797073364257812,24.873186111450195,0.40509331226348877,19.316835403442383,0.4804143011569977,0.0,0.18788930773735046,99
1666164156.66037011,131018467,0,24.808189392089844,24.888338088989258,0.42657551169395447,19.32870101928711,0.48070865869522095,0.0,0.18788930773735046,99
1666164156.76031828,131118415,0,24.851600646972656,24.948183059692383,0.5140388607978821,19.342973709106445,0.4810633659362793,0.0,0.18788930773735046,99
1666164156.86026216,131218359,0,24.794389724731445,24.86733055114746,0.3882144093513489,19.35375213623047,0.48133060336112976,0.0,0.18788930773735046,99
1666164156.96030211,131318399,0,24.817583084106445,24.89934730529785,0.43516841530799866,19.365846633911133,0.48163074254989624,0.0,0.18788930773735046,99
1666164157.06022215,131418319,0,24.825632095336914,24.913362503051758,0.4670848548412323,19.378812789916992,0.48195260763168335,0.0,0.18782593309879303,99
1666164157.16023517,131518332,0,24.8584041595459,24.95927619934082,0.5370555520057678,19.393733978271484,0.4823235273361206,0.0,0.18782593309879303,99
1666164157.26021624,131618313,0,24.85228157043457,24.951297760009766,0.5271668434143066,19.408376693725586,0.48268741369247437,0.0,0.18782593309879303,99
1666164157.36026120,131718358,0,24.837322235107422,24.928279876708984,0.4842706322669983,19.42183494567871,0.48302170634269714,0.0,0.18782593309879303,99
1666164157.46017313,131818270,0,24.791515350341797,24.863624572753906,0.3839179575443268,19.432491302490234,0.4832858741283417,0.0,0.18782593309879303,99
1666164157.56026816,131918365,0,24.8405818939209,24.93361473083496,0.49531862139701843,19.446264266967773,0.4836280047893524,0.0,0.18782593309879303,99
1666164157.66021323,132018310,0,24.835405349731445,24.928266525268555,0.49439796805381775,19.459991455078125,0.48396891355514526,0.0,0.18782593309879303,99
1666164157.76022220,132118319,0,24.858020782470703,24.958663940429688,0.5358279347419739,19.474878311157227,0.4843389689922333,0.0,0.18782593309879303,99
1666164157.86026525,132218362,0,24.79908561706543,24.875980377197266,0.4093897342681885,19.486255645751953,0.4846211373806,0.0,0.18782593309879303,99
1666164157.96026015,132318357,0,24.801769256591797,24.87831687927246,0.4075483977794647,19.497577667236328,0.48490193486213684,0.0,0.18782593309879303,99
1666164158.06027222,132418369,0,24.83617401123047,24.928688049316406,0.4925566017627716,19.511262893676758,0.4852418005466461,0.0,0.18782593309879303,99
1666164158.16026711,132518364,0,24.861757278442383,24.964296340942383,0.5459212064743042,19.52642822265625,0.48561882972717285,0.0,0.18782593309879303,99
1666164158.26032424,132618421,0,24.843551635742188,24.93808364868164,0.503297746181488,19.540416717529297,0.48596638441085815,0.0,0.18782593309879303,99
1666164158.36025310,132718350,0,24.78787612915039,24.85860252380371,0.37655261158943176,19.550870895385742,0.4862254858016968,0.0,0.18782593309879303,99
1666164158.46032906,132818426,0,24.818252563476562,24.90085220336914,0.43977177143096924,19.563093185424805,0.48652881383895874,0.0,0.18782593309879303,99
1666164158.56028318,132918380,0,24.855146408081055,24.954866409301758,0.5309177041053772,19.577838897705078,0.486895352602005,0.0,0.18782593309879303,99
1666164158.66035819,133018455,0,24.798416137695312,24.95475196838379,0.8427168130874634,19.601266860961914,0.48747631907463074,0.0,0.185514435172081,99
1666164158.76025009,133118347,0,24.555395126342773,25.051565170288086,3.195326566696167,19.689937591552734,0.48965367674827576,0.0,0.15528009831905365,99
1666164158.86021805,133218315,0,24.62860679626465,24.991443634033203,2.3673408031463623,19.75567626953125,0.4912727177143097,0.0,0.15326733887195587,99
1666164158.96021318,133318310,0,24.702205657958984,24.940608978271484,1.5556195974349976,19.798892974853516,0.4923402667045593,0.0,0.15325316786766052,99
1666164159.06018806,133418285,0,24.65647315979004,24.884445190429688,1.4699976444244385,19.839719772338867,0.4933468997478485,0.0,0.15508340299129486,99
1666164159.16020727,133518304,0,24.683517456054688,24.931140899658203,1.5961288213729858,19.884069442749023,0.49444159865379333,0.0,0.15514041483402252,99
1666164159.26021910,133618316,0,24.725011825561523,24.97520637512207,1.6127010583877563,19.928874969482422,0.49554944038391113,0.0,0.15514041483402252,99
1666164159.36028409,133718381,0,24.716962814331055,24.95342445373535,1.5286134481430054,19.97136688232422,0.4965997040271759,0.0,0.15469059348106384,99
1666164159.46026015,133818357,0,24.694345474243164,24.91827964782715,1.4405362606048584,20.011375427246094,0.4975877106189728,0.0,0.15545155107975006,99
1666164159.56025410,133918351,0,24.676904678344727,24.891677856445312,1.3816137313842773,20.049753189086914,0.4985347390174866,0.0,0.15545155107975006,99
1666164159.66029215,134018389,0,24.73564910888672,24.968456268310547,1.4976177215576172,20.09137535095215,0.4995642602443695,0.0,0.15545155107975006,99
1666164159.76027608,134118373,0,24.7304744720459,24.95989418029785,1.4758285284042358,20.132368087768555,0.500577986240387,0.0,0.15545155107975006,99
1666164159.86028218,134218379,0,24.67259407043457,24.881071090698242,1.3411043882369995,20.16962432861328,0.501497209072113,0.0,0.15545155107975006,99
1666164159.96026421,134318361,0,24.729036331176758,24.95831298828125,1.4749078750610352,20.210590362548828,0.5025102496147156,0.0,0.15545155107975006,99
1666164160.06028605,134418383,0,24.683944702148438,24.900001525878906,1.3898656368255615,20.249208450317383,0.5034635066986084,0.0,0.15545155107975006,99
1666164160.16021705,134518314,0,24.733732223510742,24.964630126953125,1.4853421449661255,20.290443420410156,0.5044834017753601,0.0,0.15545155107975006,99
1666164160.26035619,134618453,0,24.72846221923828,24.95993423461914,1.4890248775482178,20.331865310668945,0.5055077075958252,0.0,0.15545155107975006,99
1666164160.36025620,134718353,0,24.713417053222656,24.938722610473633,1.4491292238235474,20.372081756591797,0.5065016150474548,0.0,0.15547628700733185,99
1666164160.46019506,134818292,0,24.672306060791016,24.881818771362305,1.3475490808486938,20.409494400024414,0.5074246525764465,0.0,0.15547628700733185,99
1666164160.56022120,134918318,0,24.70488929748535,24.929309844970703,1.44329833984375,20.449600219726562,0.5084154605865479,0.0,0.15549199283123016,99
1666164160.66017318,135018270,0,24.72098731994629,24.950227737426758,1.4742940664291382,20.490535736083984,0.5094274282455444,0.0,0.15549199283123016,99
1666164160.76040220,135118499,0,24.73727798461914,24.971004486083984,1.5031416416168213,20.53238868713379,0.510462760925293,0.0,0.15549199283123016,99
1666164160.86014128,135218238,0,24.67987632751465,24.895278930664062,1.38529634475708,20.570770263671875,0.5114099979400635,0.0,0.15549199283123016,99
1666164160.96018624,135318283,0,24.685861587524414,24.902345657348633,1.3922524452209473,20.609466552734375,0.5123652219772339,0.0,0.15549199283123016,99
1666164161.06029224,135418389,0,24.723766326904297,24.9521484375,1.468770146369934,20.650312423706055,0.5133751034736633,0.0,0.15549199283123016,99
1666164161.16037321,135518470,0,24.72031593322754,24.95084571838379,1.4825800657272339,20.691532135009766,0.5143940448760986,0.0,0.15549199283123016,99
1666164161.26034021,135618437,0,24.724245071411133,24.955537796020508,1.4874904155731201,20.732839584350586,0.515415370464325,0.0,0.15549199283123016,99
1666164161.36027217,135718369,0,24.659082412719727,24.86918830871582,1.3512316942214966,20.770353317260742,0.5163403749465942,0.0,0.15549199283123016,99
1666164161.46026921,135818366,0,24.681312561035156,24.89919662475586,1.401254653930664,20.80927848815918,0.517301082611084,0.0,0.15549199283123016,99
1666164161.56028605,135918383,0,24.728557586669922,24.962331771850586,1.503448486328125,20.851051330566406,0.5183340907096863,0.0,0.15549199283123016,99
1666164161.66031528,136018412,0,24.70565414428711,24.931507110595703,1.4525048732757568,20.89141273498535,0.5193312764167786,0.0,0.15549199283123016,99
1666164161.76031923,136118416,0,24.71380043029785,24.943326950073242,1.4761353731155396,20.932422637939453,0.5203447937965393,0.0,0.15549199283123016,99
1666164161.86033010,136218427,0,24.702152252197266,24.927675247192383,1.44919753074646,20.972684860229492,0.5213393568992615,0.0,0.15561918914318085,99
1666164161.96028209,136318379,0,24.658123016357422,24.86615562438965,1.3368079662322998,21.009803771972656,0.5222546458244324,0.0,0.15561918914318085,99
1666164162.06032109,136418418,0,24.697797775268555,24.923213958740234,1.4485154151916504,21.050058364868164,0.5232488512992859,0.0,0.15561918914318085,99
1666164162.16029406,136518391,0,24.71878433227539,24.95069694519043,1.4902523756027222,21.09144401550293,0.5242718458175659,0.0,0.15561918914318085,99
1666164162.26026511,136618362,0,24.719165802001953,24.952749252319336,1.5009934902191162,21.133132934570312,0.5253023505210876,0.0,0.15561918914318085,99
1666164162.36025405,136718351,0,24.674030303955078,24.889751434326172,1.3862169981002808,21.17163848876953,0.5262524485588074,0.0,0.15561918914318085,99
1666164162.46025324,136818350,0,24.676618576049805,24.892961502075195,1.3902065753936768,21.21025848388672,0.5272054672241211,0.0,0.15561918914318085,99
1666164162.56032920,136918426,0,24.70785903930664,24.936237335205078,1.4675426483154297,21.25105857849121,0.5282135605812073,0.0,0.15561918914318085,99
1666164162.66026115,137018358,0,24.71620750427246,24.949106216430664,1.4965946674346924,21.292606353759766,0.5292404294013977,0.0,0.15561918914318085,99
1666164162.76035023,137118447,0,24.719741821289062,24.951318740844727,1.4881041049957275,21.333982467651367,0.5302632451057434,0.0,0.15561918914318085,99
1666164162.86042428,137218521,0,24.650840759277344,24.86107063293457,1.3509248495101929,21.37153434753418,0.5311889052391052,0.0,0.15561918914318085,99
1666164162.96037126,137318468,0,24.678056716918945,24.894733428955078,1.3923547267913818,21.41019630432129,0.5321429967880249,0.0,0.15561918914318085,99
1666164163.06030512,137418402,0,24.721466064453125,24.955097198486328,1.50130033493042,21.451875686645508,0.5331733822822571,0.0,0.15561918914318085,99
1666164163.16029906,137518396,0,24.709871292114258,24.93877410888672,1.4709182977676392,21.492734909057617,0.5341830253601074,0.0,0.15561918914318085,99
1666164163.26032019,137618417,0,24.72194480895996,24.9551944732666,1.4988452196121216,21.534381866455078,0.5352125763893127,0.0,0.15561918914318085,99
1666164163.36025405,137718351,0,24.6894588470459,24.913204193115234,1.4377743005752563,21.574296951293945,0.5361980199813843,0.0,0.15561918914318085,99
1666164163.46032405,137818421,0,24.655536651611328,24.867151260375977,1.359824538230896,21.61210060119629,0.5371300578117371,0.0,0.15561918914318085,99
1666164163.56031013,137918407,0,24.491647720336914,25.04427146911621,3.861685037612915,21.7193603515625,0.5397570133209229,0.0,0.1431044340133667,99
1666164163.66031814,138018415,0,23.979368209838867,25.02987289428711,8.822748184204102,21.964481353759766,0.5456348657608032,0.0,0.1190677285194397,99
1666164163.76034117,138118438,0,23.854312896728516,25.028400421142578,10.06840991973877,22.24424934387207,0.5523084998130798,0.0,0.11661109328269958,99
1666164163.86041522,138218512,0,23.9281005859375,24.939332962036133,8.688637733459473,22.485797882080078,0.5580883026123047,0.0,0.1163855567574501,99
1666164163.96026015,138318357,0,23.9067325592041,24.943580627441406,8.927397727966309,22.733417510986328,0.5640080571174622,0.0,0.11614225804805756,99
1666164164.06026721,138418364,0,23.83323097229004,24.979333877563477,9.920183181762695,23.00901985168457,0.570576548576355,0.0,0.11553238332271576,99
1666164164.16038013,138518477,0,23.433338165283203,24.95680046081543,13.211873054504395,23.376461029052734,0.5791869163513184,0.0,0.11531002074480057,99
1666164164.26034307,138618440,0,23.044849395751953,24.849563598632812,15.570005416870117,23.808835983276367,0.5891509056091309,0.0,0.11590968817472458,99
1666164164.36035919,138718456,0,22.433273315429688,24.607168197631836,18.45199966430664,24.321510314941406,0.6006518602371216,0.0,0.11781346052885056,99
1666164164.46034813,138818445,0,21.94985008239746,24.616764068603516,22.384132385253906,24.943273544311523,0.614299476146698,0.0,0.1191430613398552,99
1666164164.56034517,138918442,0,21.734968185424805,24.84624671936035,26.108875274658203,25.668563842773438,0.6300636529922485,0.0,0.11916553974151611,99
1666164164.66030812,139018405,0,21.60291862487793,24.79609489440918,26.745058059692383,26.411266326904297,0.6461082100868225,0.0,0.11939314752817154,99
1666164164.76038718,139118484,0,21.47172737121582,24.681373596191406,26.73124885559082,27.15443992614746,0.6620654463768005,0.0,0.12007097154855728,99
1666164164.86036015,139218457,0,21.59362030029297,24.79007339477539,26.587623596191406,27.892852783203125,0.6780104637145996,0.0,0.12022338062524796,99
1666164164.96041107,139318508,0,21.50804901123047,24.67243766784668,26.184986114501953,28.620643615722656,0.6936638355255127,0.0,0.1208474263548851,99
1666164165.06030226,139418399,0,21.488019943237305,24.696922302246094,26.452285766601562,29.354686737060547,0.7094369530677795,0.0,0.1213090643286705,99
1666164165.16030717,139518404,0,21.48476219177246,24.749361038208008,26.867198944091797,30.100841522216797,0.7254679203033447,0.0,0.12150873243808746,99
1666164165.26034808,139618445,0,21.53190803527832,24.73607635498047,26.318788528442383,30.8325252532959,0.7412225008010864,0.0,0.12174450606107712,99
1666164165.36027408,139718371,0,21.595176696777344,24.72275733947754,25.63306427001953,31.544084548950195,0.7565887570381165,0.0,0.12201350927352905,99
1666164165.46027517,139818372,0,21.566024780273438,24.651277542114258,25.17501449584961,32.243446350097656,0.7716712355613708,0.0,0.12255218625068665,99
1666164165.56025720,139918354,0,21.626874923706055,24.707616806030273,25.084789276123047,32.940181732177734,0.7867394685745239,0.0,0.12281318008899689,99
1666164165.66035318,140018450,0,21.671436309814453,24.741411209106445,24.976764678955078,33.63469696044922,0.8017905950546265,0.0,0.12291321903467178,99
1666164165.76034713,140118444,0,21.65744400024414,24.721542358398438,24.893903732299805,34.32621383666992,0.8167670965194702,0.0,0.12308629602193832,99
1666164165.86031413,140218411,0,21.55768585205078,24.617244720458984,24.73923110961914,35.01324462890625,0.8315778374671936,0.0,0.12367233633995056,99
1666164165.96041512,140318512,0,21.56631088256836,24.63679313659668,24.736162185668945,35.70107650756836,0.8464118242263794,0.0,0.12412930279970169,99
1666164166.06036925,140418466,0,21.70497703552246,24.710723876953125,24.233478546142578,36.37400817871094,0.8610177636146545,0.0,0.12403282523155212,99
1666164166.16037822,140518475,0,21.77857208251953,24.630525588989258,23.05840301513672,37.01462936401367,0.8749695420265198,0.0,0.12368393689393997,99
1666164166.26043320,140618530,0,21.855724334716797,24.580219268798828,22.1065673828125,37.62901306152344,0.8883973360061646,0.0,0.12324365228414536,99
1666164166.36135125,140719448,0,21.925668716430664,24.57505989074707,21.559249877929688,38.233497619628906,0.9016510844230652,0.0,0.12288887798786163,99
1666164166.45990515,140818002,0,21.86922264099121,24.488426208496094,21.412864685058594,38.81974411010742,0.9144718647003174,0.0,0.12231919169425964,99
1666164166.56038308,140918480,0,21.896535873413086,24.49193572998047,21.29225730895996,39.41407012939453,0.9274855256080627,0.0,0.12189403921365738,99
1666164166.65993619,141018033,0,22.018909454345703,24.628761291503906,21.385242462158203,40.005489349365234,0.9405079483985901,0.0,0.12203981727361679,99
1666164166.76021314,141118310,0,22.050437927246094,24.65092658996582,21.275684356689453,40.59817123413086,0.9535768628120422,0.0,0.1222282350063324,99
1666164166.85996127,141218058,0,22.02025032043457,24.59743309020996,21.091856002807617,41.182621002197266,0.966446578502655,0.0,0.122188501060009,99
1666164166.96020222,141318299,0,22.01421356201172,24.56534194946289,20.902814865112305,41.76470184326172,0.9792606234550476,0.0,0.12204709649085999,99
1666164167.06006217,141418159,0,22.057048797607422,24.639692306518555,21.13543701171875,42.35102844238281,0.9921932816505432,0.0,0.12219491600990295,99
1666164167.16023612,141518333,0,22.062606811523438,24.632137298583984,21.01302146911621,42.9357795715332,1.0050944089889526,0.0,0.1222827360033989,99
1666164167.26004505,141618142,0,21.94742202758789,24.5185604095459,21.02618408203125,43.51877212524414,1.0178896188735962,0.0,0.1222827360033989,99
1666164167.36026120,141718358,0,21.90104103088379,24.491281509399414,21.182390213012695,44.108489990234375,1.0308051109313965,0.0,0.1222827360033989,99
1666164167.45990610,141818003,0,21.788442611694336,24.38007164001465,21.193744659423828,44.69516372680664,1.0435878038406372,0.0,0.1222827360033989,99
1666164167.56029820,141918395,0,21.8160400390625,24.47171974182129,21.66420555114746,45.29936218261719,1.0567690134048462,0.0,0.12258375436067581,99
1666164167.65995908,142018056,0,21.836069107055664,24.501070022583008,21.713001251220703,45.90049743652344,1.0698955059051514,0.0,0.12273760139942169,99
1666164167.76030016,142118397,0,21.879384994506836,24.54802703857422,21.751667022705078,46.5068244934082,1.0831615924835205,0.0,0.12268681824207306,99
1666164167.85990620,142218003,0,21.944164276123047,24.644020080566406,22.006080627441406,47.11573791503906,1.0965237617492676,0.0,0.12268681824207306,99
1666164167.96031523,142318412,0,21.89375877380371,24.589519500732422,21.99810218811035,47.72935104370117,1.1099580526351929,0.0,0.12254510819911957,99
1666164168.05991507,142418012,0,21.843374252319336,24.521730422973633,21.830028533935547,48.3333625793457,1.1231517791748047,0.0,0.12269137054681778,99
1666164168.16023922,142518336,0,21.869802474975586,24.599119186401367,22.278289794921875,48.95425796508789,1.136730670928955,0.0,0.12251012772321701,99
1666164168.25991917,142618016,0,21.803102493286133,24.517257690429688,22.124231338500977,49.56690216064453,1.1500881910324097,0.0,0.12267791479825974,99
1666164168.36032104,142718418,0,21.759307861328125,24.459497451782227,21.941326141357422,50.17888259887695,1.1634044647216797,0.0,0.12306410074234009,99
1666164168.45995212,142818049,0,21.78671646118164,24.44600486755371,21.608964920043945,50.7769660949707,1.1764347553253174,0.0,0.12306410074234009,99
1666164168.56020427,142918301,0,21.92768096923828,24.54417610168457,21.252361297607422,51.36884307861328,1.18941330909729,0.0,0.12311547249555588,99
1666164168.65997720,143018074,0,21.994089126586914,24.556079864501953,20.796016693115234,51.94524383544922,1.2020907402038574,0.0,0.12319623678922653,99
1666164168.76024508,143118342,0,22.09432601928711,24.60711669921875,20.35716438293457,52.51228332519531,1.2146190404891968,0.0,0.12343515455722809,99
1666164168.86006522,143218162,0,22.123937606811523,24.571413040161133,19.818267822265625,53.06184387207031,1.22677743434906,0.0,0.12349597364664078,99
1666164168.96026421,143318361,0,22.092952728271484,24.465923309326172,19.26477813720703,53.59808349609375,1.2386245727539062,0.0,0.12317661941051483,99
1666164169.05992913,143418026,0,22.165813446044922,24.52298355102539,19.14403533935547,54.12812423706055,1.250373363494873,0.0,0.12312816083431244,99
1666164169.16036415,143518461,0,22.212003707885742,24.54100799560547,18.911413192749023,54.65576934814453,1.262093424797058,0.0,0.12315334379673004,99
1666164169.25990105,143617998,0,22.21468734741211,24.540632247924805,18.883790969848633,55.17792510986328,1.2736929655075073,0.0,0.12317152321338654,99
1666164169.36029625,143718393,0,22.175493240356445,24.480022430419922,18.73986053466797,55.70056915283203,1.285282850265503,0.0,0.12297474592924118,99
1666164169.45991206,143818009,0,22.152591705322266,24.430442810058594,18.57199478149414,56.21452713012695,1.2966684103012085,0.0,0.12264975905418396,99
1666164169.56030512,143918402,0,22.181434631347656,24.506298065185547,18.953454971313477,56.74312210083008,1.3083934783935547,0.0,0.12266167998313904,99
1666164169.65989208,144017989,0,22.21238899230957,24.537647247314453,18.938419342041016,57.267059326171875,1.3200314044952393,0.0,0.12277993559837341,99
1666164169.76028013,144118377,0,22.228294372558594,24.569425582885742,19.036317825317383,57.797935485839844,1.3318318128585815,0.0,0.12298238277435303,99
1666164169.85993409,144218031,0,22.173236846923828,24.45248794555664,18.57086944580078,58.312042236328125,1.3432313203811646,0.0,0.12273258715867996,99
1666164169.96029210,144318389,0,22.200410842895508,24.49107551574707,18.67296028137207,58.832645416259766,1.354788899421692,0.0,0.12267280369997025,99
1666164170.05996227,144418059,0,22.22417449951172,24.50191307067871,18.568925857543945,59.34678649902344,1.3662153482437134,0.0,0.12266402691602707,99
1666164170.16027021,144518367,0,22.2640380859375,24.522048950195312,18.398601531982422,59.859474182128906,1.3776298761367798,0.0,0.12272734194993973,99
1666164170.26136518,144619462,0,22.221107482910156,24.477588653564453,18.401975631713867,60.376277923583984,1.3891139030456543,0.0,0.12262172251939774,99
1666164170.36134315,144719440,0,22.255414962768555,24.49968719482422,18.303157806396484,60.88462829589844,1.4004274606704712,0.0,0.12261661887168884,99
1666164170.46004820,144818145,0,22.17003059387207,24.384122848510742,18.05703353881836,61.379756927490234,1.4114044904708862,0.0,0.12261661887168884,99
1666164170.56035805,144918455,0,22.211524963378906,24.438064575195312,18.18101692199707,61.886390686035156,1.4226576089859009,0.0,0.12246505171060562,99
1666164170.66025019,145018347,0,22.25800323486328,24.497642517089844,18.27461814880371,62.39351272583008,1.4339450597763062,0.0,0.12255460768938065,99
1666164170.76027918,145118376,0,22.298343658447266,24.519336700439453,18.10098648071289,62.89649963378906,1.4451608657836914,0.0,0.12270010262727737,99
1666164170.86023927,145218336,0,22.269981384277344,24.485780715942383,18.05918312072754,63.397987365722656,1.4563289880752563,0.0,0.12269650399684906,99
1666164170.96026015,145318357,0,22.237205505371094,24.42009925842285,17.82472038269043,63.89326095581055,1.467342495918274,0.0,0.12246444076299667,99
1666164171.06025410,145418351,0,22.27850914001465,24.470441818237305,17.899293899536133,64.39046478271484,1.478419542312622,0.0,0.12245918065309525,99
1666164171.16022825,145518325,0,22.26978874206543,24.456695556640625,17.865842819213867,64.88665008544922,1.4894694089889526,0.0,0.12240709364414215,99
1666164171.25996828,145618065,0,22.28675079345703,24.497987747192383,18.049362182617188,65.38676452636719,1.5006152391433716,0.0,0.12251049280166626,99
1666164171.36029005,145718387,0,22.267681121826172,24.424697875976562,17.631994247436523,65.87815856933594,1.5115574598312378,0.0,0.12233532965183258,99
1666164171.45992208,145818019,0,22.30562973022461,24.45604705810547,17.58197021484375,66.36478424072266,1.5224119424819946,0.0,0.12230809777975082,99
1666164171.56026411,145918361,0,22.32709312438965,24.493846893310547,17.699508666992188,66.85816192626953,1.5334277153015137,0.0,0.1224188357591629,99
1666164171.65991807,146018015,0,22.317190170288086,24.49687385559082,17.79102897644043,67.3506851196289,1.544419527053833,0.0,0.12251586467027664,99
1666164171.76024818,146118345,0,22.340126037597656,24.49993133544922,17.61634063720703,67.84168243408203,1.5553884506225586,0.0,0.12260238826274872,99
1666164171.85992622,146218023,0,22.36964225769043,24.509220123291016,17.437118530273438,68.32452392578125,1.5661895275115967,0.0,0.12270247936248779,99
1666164171.96034122,146318438,0,22.285024642944336,24.39568328857422,17.201427459716797,68.80435943603516,1.5768827199935913,0.0,0.12270247936248779,99
1666164172.05997825,146418075,0,22.307449340820312,24.433931350708008,17.349042892456055,69.2845687866211,1.5875948667526245,0.0,0.12257059663534164,99
1666164172.16027427,146518371,0,22.366193771362305,24.49388313293457,17.34382438659668,69.7677993774414,1.598402976989746,0.0,0.12267710268497467,99
1666164172.26140714,146619504,0,22.392162322998047,24.504573822021484,17.202348709106445,70.2510986328125,1.6092250347137451,0.0,0.12279780954122543,99
1666164172.36137128,146719468,0,22.38449478149414,24.44037628173828,16.759815216064453,70.71652221679688,1.619643211364746,0.0,0.12266729027032852,99
1666164172.45993924,146818036,0,22.3675537109375,24.409299850463867,16.67327308654785,71.17306518554688,1.6298550367355347,0.0,0.12245626002550125,99
1666164172.56033921,146918436,0,22.418611526489258,24.472576141357422,16.765338897705078,71.64067840576172,1.6403383016586304,0.0,0.1225125789642334,99
1666164172.65995026,147018047,0,22.49527359008789,24.469385147094727,16.109210968017578,72.0864486694336,1.6503660678863525,0.0,0.12254557013511658,99
1666164172.76025605,147118353,0,22.579891204833984,24.468137741088867,15.405821800231934,72.51573181152344,1.6600592136383057,0.0,0.1225670725107193,99
1666164172.85993505,147218032,0,22.332653045654297,24.403182983398438,16.860166549682617,72.98260498046875,1.6704857349395752,0.0,0.12280602008104324,99
1666164172.96025205,147318349,0,22.21554946899414,24.40541648864746,17.80231475830078,73.47871398925781,1.6815071105957031,0.0,0.12301028519868851,99
1666164173.05994821,147418045,0,22.184978485107422,24.442546844482422,18.347658157348633,73.98685455322266,1.6927802562713623,0.0,0.12304394692182541,99
1666164173.16026616,147518363,0,22.15057945251465,24.473125457763672,18.889928817749023,74.51329803466797,1.7044411897659302,0.0,0.12295154482126236,99
1666164173.25996113,147618058,0,22.101417541503906,24.45351219177246,19.13083839416504,75.04312133789062,1.7161509990692139,0.0,0.12294776737689972,99
1666164173.36045027,147718547,0,22.103525161743164,24.441665649414062,19.01053810119629,75.5738296508789,1.7278814315795898,0.0,0.12299184501171112,99
1666164173.46002722,147818124,0,22.10338592529297,24.44981575012207,19.076894760131836,76.10154724121094,1.7395457029342651,0.0,0.12299854308366776,99
1666164173.56033111,147918428,0,22.011051177978516,24.358612060546875,19.028644561767578,76.63168334960938,1.7512145042419434,0.0,0.12336986511945724,99
1666164173.65995216,148018049,0,22.027727127075195,24.394670486450195,19.1566162109375,77.16192626953125,1.762894630432129,0.0,0.1235574409365654,99
1666164173.76037621,148118473,0,22.087331771850586,24.466903686523438,19.2778377532959,77.69973754882812,1.774773359298706,0.0,0.12343566119670868,99
1666164173.85995221,148218049,0,22.053503036499023,24.412328720092773,19.092782974243164,78.2278823852539,1.7864208221435547,0.0,0.12354543060064316,99
1666164173.96026206,148318359,0,22.035009384155273,24.375469207763672,18.906503677368164,78.7547378540039,1.798030138015747,0.0,0.12379121780395508,99
1666164174.06023312,148418330,0,22.13945960998535,24.50062370300293,19.07375717163086,79.28445434570312,1.8097577095031738,0.0,0.12379121780395508,99
1666164174.16030216,148518399,0,22.199451446533203,24.57015037536621,19.150785446166992,79.81683349609375,1.8215761184692383,0.0,0.12379121780395508,99
1666164174.25995016,148618047,0,22.307395935058594,24.693683624267578,19.27671241760254,80.35045623779297,1.833479881286621,0.0,0.12379121780395508,99
1666164174.36024928,148718346,0,22.157766342163086,24.497541427612305,18.900978088378906,80.8770980834961,1.845149040222168,0.0,0.12379121780395508,99
1666164174.45995522,148818052,0,21.924518585205078,24.316747665405273,19.21001625061035,81.4091796875,1.8568146228790283,0.0,0.12453033775091171,99
1666164174.56021118,148918308,0,21.817670822143555,24.2139949798584,19.078359603881836,81.94053649902344,1.8684076070785522,0.0,0.1256042867898941,99
1666164174.65995121,149018048,0,21.855329513549805,24.25486946105957,18.983224868774414,82.46651458740234,1.8799030780792236,0.0,0.12640313804149628,99
1666164174.76027822,149118375,0,21.84095573425293,24.28827667236328,19.272314071655273,83.00365447998047,1.8916347026824951,0.0,0.1269863098859787,99
1666164174.86000013,149218097,0,21.862228393554688,24.369630813598633,19.714847564697266,83.54981231689453,1.9035749435424805,0.0,0.12718342244625092,99
1666164174.96026325,149318360,0,21.878807067871094,24.376598358154297,19.616336822509766,84.09618377685547,1.9155288934707642,0.0,0.1273321807384491,98
1666164175.06003428,149418131,0,21.94607925415039,24.431503295898438,19.532556533813477,84.63755798339844,1.9274100065231323,0.0,0.1272452473640442,98
1666164175.16029811,149518395,0,22.01203155517578,24.501739501953125,19.566211700439453,85.18254089355469,1.9394062757492065,0.0,0.1272452473640442,98
1666164175.25998211,149618079,0,22.029067993164062,24.48636817932129,19.280292510986328,85.71644592285156,1.9511678218841553,0.0,0.12745137512683868,98
1666164175.36033511,149718432,0,21.990352630615234,24.452503204345703,19.318347930908203,86.25501251220703,1.9630110263824463,0.0,0.12745137512683868,98
1666164175.46010518,149818202,0,21.930076599121094,24.403167724609375,19.380338668823242,86.79216003417969,1.9747906923294067,0.0,0.12760823965072632,98
1666164175.56033111,149918428,0,21.924999237060547,24.39957046508789,19.368371963500977,87.3314208984375,1.9866141080856323,0.0,0.1277635097503662,98
1666164175.65995216,150018049,0,21.94099998474121,24.414592742919922,19.348730087280273,87.86688995361328,1.9983628988265991,0.0,0.12784266471862793,98
1666164175.76034021,150118437,0,21.95930290222168,24.42418670654297,19.28059959411621,88.40458679199219,2.0101702213287354,0.0,0.12784266471862793,98
1666164175.85996008,150218057,0,21.905832290649414,24.33167839050293,18.97524642944336,88.92971801757812,2.0216736793518066,0.0,0.12784266471862793,98
1666164175.96024227,150318339,0,21.93572998046875,24.378877639770508,19.110584259033203,89.46210479736328,2.0333518981933594,0.0,0.12784266471862793,98
1666164176.05995607,150418053,0,21.98924446105957,24.440082550048828,19.154296875,89.99269104003906,2.0450191497802734,0.0,0.1279524266719818,98
1666164176.16022205,150518319,0,22.010189056396484,24.467708587646484,19.1793270111084,90.52690887451172,2.0567774772644043,0.0,0.12813374400138855,98
1666164176.25997019,150618067,0,22.018814086914062,24.460281372070312,19.036930084228516,91.05440521240234,2.068392276763916,0.0,0.12824900448322296,98
1666164176.36022520,150718322,0,22.025714874267578,24.46156883239746,18.97923469543457,91.58301544189453,2.0800352096557617,0.0,0.1283431202173233,98
1666164176.45997405,150818071,0,21.964670181274414,24.35865592956543,18.653013229370117,92.09986877441406,2.0913877487182617,0.0,0.1283431202173233,98
1666164176.56026626,150918363,0,21.967161178588867,24.36161994934082,18.656694412231445,92.61968994140625,2.102806806564331,0.0,0.1283431202173233,98
1666164176.65997410,151018071,0,22.003480911254883,24.395000457763672,18.644418716430664,93.13611602783203,2.1141700744628906,0.0,0.12827004492282867,98
1666164176.76032615,151118423,0,22.02456283569336,24.422771453857422,18.690759658813477,93.65717315673828,2.1256461143493652,0.0,0.12830981612205505,98
1666164176.86002326,151218120,0,21.999935150146484,24.367265701293945,18.473482131958008,94.1688003540039,2.13690185546875,0.0,0.12814749777317047,98
1666164176.96031618,151318413,0,21.97114372253418,24.315778732299805,18.29637336730957,94.6785659790039,2.148102045059204,0.0,0.12814749777317047,98
1666164177.05993509,151418032,0,21.994953155517578,24.331745147705078,18.26357078552246,95.18399810791016,2.1592190265655518,0.0,0.12794822454452515,98
1666164177.16031528,151518412,0,22.041236877441406,24.402191162109375,18.439416885375977,95.69818878173828,2.1705524921417236,0.0,0.1280384659767151,98
1666164177.25993514,151618032,0,22.066152572631836,24.40285301208496,18.23963165283203,96.20295715332031,2.1816909313201904,0.0,0.1281111240386963,98
1666164177.36035013,151718447,0,22.00980567932129,24.297746658325195,17.902360916137695,96.70234680175781,2.1926825046539307,0.0,0.1278010457754135,98
1666164177.45995021,151818047,0,22.014022827148438,24.318687438964844,18.05703353881836,97.20197296142578,2.203681230545044,0.0,0.12763254344463348,98
1666164177.56037927,151918476,0,21.99667739868164,24.33381462097168,18.311445236206055,97.71284484863281,2.214918851852417,0.0,0.12763254344463348,98
1666164177.65996528,152018062,0,22.003864288330078,24.33849334716797,18.291805267333984,98.21887969970703,2.226053476333618,0.0,0.12763254344463348,98
1666164177.76024127,152118338,0,22.05120277404785,24.387165069580078,18.283823013305664,98.72821807861328,2.2372848987579346,0.0,0.12776117026805878,98
1666164177.85999727,152218094,0,22.06463050842285,24.412694931030273,18.378551483154297,99.2375259399414,2.2485227584838867,0.0,0.12776117026805878,98
1666164177.96022511,152318322,0,21.969940185546875,24.32231330871582,18.386327743530273,99.74946594238281,2.259769916534424,0.0,0.12794141471385956,98
1666164178.05998015,152418077,0,21.988245010375977,24.339418411254883,18.363615036010742,100.25835418701172,2.2709596157073975,0.0,0.1280342936515808,98
1666164178.16026211,152518359,0,22.054079055786133,24.409101486206055,18.393692016601562,100.7707748413086,2.2822604179382324,0.0,0.1280342936515808,98
1666164178.26009226,152618189,0,22.044015884399414,24.419668197631836,18.5548095703125,101.28534698486328,2.2936036586761475,0.0,0.1280342936515808,98
1666164178.36030912,152718406,0,21.998689651489258,24.325265884399414,18.171504974365234,101.79125213623047,2.3047327995300293,0.0,0.1280342936515808,98
1666164178.45992327,152818020,0,21.98268699645996,24.31374168395996,18.20648956298828,102.29507446289062,2.3158082962036133,0.0,0.1280342936515808,98
1666164178.56033015,152918427,0,22.005876541137695,24.368066787719727,18.454761505126953,102.8098373413086,2.3271360397338867,0.0,0.12799891829490662,98
1666164178.65993118,153018028,0,22.041046142578125,24.440866470336914,18.748762130737305,103.32859802246094,2.3385698795318604,0.0,0.12799891829490662,98
1666164178.76030207,153118399,0,22.026405334472656,24.41017723083496,18.62337875366211,103.8478775024414,2.3500077724456787,0.0,0.12799891829490662,98
1666164178.85995221,153218049,0,21.975021362304688,24.33677864074707,18.451385498046875,104.35865020751953,2.361232042312622,0.0,0.12799891829490662,98
1666164178.96024227,153318339,0,21.959495544433594,24.339426040649414,18.574142456054688,104.87614440917969,2.372596025466919,0.0,0.12813135981559753,98
1666164179.05993414,153418031,0,21.9930362701416,24.387439727783203,18.697818756103516,105.39396667480469,2.3839845657348633,0.0,0.12805785238742828,98
1666164179.16028523,153518382,0,21.969268798828125,24.39545440673828,18.960514068603516,105.92254638671875,2.395596981048584,0.0,0.12795990705490112,98
1666164179.25996208,153618059,0,21.962369918823242,24.402118682861328,19.083576202392578,106.45097351074219,2.4072024822235107,0.0,0.12784549593925476,98
1666164179.36025810,153718355,0,21.93572998046875,24.36520004272461,18.996421813964844,106.98025512695312,2.4188127517700195,0.0,0.1278909593820572,98
1666164179.46001124,153818108,0,21.8708553314209,24.293123245239258,18.891464233398438,107.5037612915039,2.430262327194214,0.0,0.12822023034095764,98
1666164179.56021714,153918314,0,21.900753021240234,24.374229431152344,19.295330047607422,108.0408935546875,2.442025899887085,0.0,0.12819042801856995,98
1666164179.66008019,154018177,0,21.84922981262207,24.30097770690918,19.086101531982422,108.57037353515625,2.45359468460083,0.0,0.12845724821090698,98
1666164179.76025820,154118355,0,21.8668270111084,24.358108520507812,19.39230728149414,109.11005401611328,2.46539568901062,0.0,0.12846750020980835,98
1666164179.86010218,154218199,0,21.835205078125,24.35015869140625,19.570302963256836,109.65283966064453,2.477247476577759,0.0,0.12850862741470337,98
1666164179.96030807,154318405,0,21.775312423706055,24.265878677368164,19.32417869567871,110.19071960449219,2.488960027694702,0.0,0.1288834661245346,98
1666164180.05994105,154418038,0,21.81278419494629,24.356487274169922,19.74062728881836,110.73712158203125,2.5008785724639893,0.0,0.12885628640651703,98
1666164180.16033721,154518434,0,21.809139251708984,24.37495994567871,19.927520751953125,111.29296112060547,2.513000965118408,0.0,0.12875762581825256,98
1666164180.25991511,154618012,0,21.81747817993164,24.388500213623047,19.99012565612793,111.84586334228516,2.525063991546631,0.0,0.12861458957195282,98
1666164180.36034417,154718441,0,21.755094528198242,24.291584014892578,19.681703567504883,112.3950424194336,2.5370113849639893,0.0,0.1288755238056183,98
1666164180.45992208,154818019,0,21.77948570251465,24.341615676879883,19.875486373901367,112.94485473632812,2.5489859580993652,0.0,0.12890903651714325,98
1666164180.56032920,154918426,0,21.850345611572266,24.426145553588867,19.98153305053711,113.502197265625,2.561164140701294,0.0,0.12890903651714325,98
1666164180.66011620,155018213,0,21.85149574279785,24.393749237060547,19.721294403076172,114.04888153076172,2.5731101036071777,0.0,0.12890903651714325,98
1666164180.76029825,155118395,0,21.845651626586914,24.41306495666504,19.916473388671875,114.6030044555664,2.5852153301239014,0.0,0.12890903651714325,98
1666164180.85995507,155218052,0,21.869321823120117,24.41735076904297,19.766098022460938,115.150390625,2.597186326980591,0.0,0.12890903651714325,98
1666164180.96028113,155318378,0,21.864051818847656,24.37442398071289,19.477930068969727,115.69325256347656,2.609055519104004,0.0,0.12888285517692566,98
1666164181.05999112,155418088,0,21.852933883666992,24.38747215270996,19.66543960571289,116.23797607421875,2.6209592819213867,0.0,0.12888285517692566,98
1666164181.16024613,155518343,0,21.926719665527344,24.455402374267578,19.581045150756836,116.7833251953125,2.6329169273376465,0.0,0.12913931906223297,98
1666164181.26005220,155618149,0,21.92700958251953,24.45691680908203,19.559560775756836,117.32563781738281,2.644808292388916,0.0,0.12934371829032898,98
1666164181.36028504,155718382,0,21.86261558532715,24.38652801513672,19.513221740722656,117.86897277832031,2.656687021255493,0.0,0.12934371829032898,98
1666164181.45998025,155818077,0,21.874250411987305,24.3902530670166,19.460845947265625,118.40795135498047,2.6684768199920654,0.0,0.12928538024425507,98
1666164181.56034112,155918438,0,21.91071891784668,24.43547248840332,19.511688232421875,118.95194244384766,2.68039608001709,0.0,0.12939698994159698,98
1666164181.65993524,156018032,0,21.9261474609375,24.486957550048828,19.79034423828125,119.4994888305664,2.692401647567749,0.0,0.12939698994159698,98
1666164181.76041508,156118512,0,21.950199127197266,24.489765167236328,19.626157760620117,120.04731750488281,2.7044265270233154,0.0,0.12939698994159698,98
1666164181.85995817,156218055,0,21.88570785522461,24.388898849487305,19.345046997070312,120.582275390625,2.7161343097686768,0.0,0.12939698994159698,98
1666164181.96031308,156318410,0,21.90621566772461,24.428462982177734,19.491432189941406,121.12566375732422,2.7280378341674805,0.0,0.12940292060375214,98
1666164182.05992627,156418023,0,21.922698974609375,24.45797348022461,19.592092514038086,121.66783142089844,2.7399237155914307,0.0,0.12940292060375214,98
1666164182.16026521,156518362,0,21.94215202331543,24.456289291381836,19.416244506835938,122.20903778076172,2.7517988681793213,0.0,0.12948627769947052,98
1666164182.25994921,156618046,0,21.94207763671875,24.470483779907227,19.509265899658203,122.7492904663086,2.76365327835083,0.0,0.12960025668144226,98
1666164182.36026812,156718365,0,21.967639923095703,24.454177856445312,19.181472778320312,123.28385925292969,2.7753963470458984,0.0,0.12963224947452545,98
1666164182.45994520,156818042,0,21.921070098876953,24.4044246673584,19.156923294067383,123.81432342529297,2.78702449798584,0.0,0.12963224947452545,98
1666164182.56033707,156918434,0,21.925477981567383,24.38827133178711,19.024654388427734,124.34490203857422,2.7986576557159424,0.0,0.12945270538330078,98
1666164182.65996408,157018061,0,21.9591121673584,24.433612823486328,19.112422943115234,124.87386322021484,2.8102731704711914,0.0,0.12947078049182892,98
1666164182.76029015,157118387,0,21.96438217163086,24.467967987060547,19.337066650390625,125.41279602050781,2.822110652923584,0.0,0.12947078049182892,98
1666164182.86004925,157218146,0,21.93256950378418,24.389509201049805,18.976781845092773,125.9386978149414,2.8336451053619385,0.0,0.12947078049182892,98
1666164182.96027517,157318372,0,21.89318084716797,24.35635757446289,19.024961471557617,126.4684066772461,2.8452420234680176,0.0,0.12947078049182892,98
1666164183.05996609,157418063,0,21.907747268676758,24.404014587402344,19.273235321044922,127.00215911865234,2.856935501098633,0.0,0.12951985001564026,98
1666164183.16029525,157518392,0,21.946943283081055,24.432064056396484,19.17840576171875,127.53668975830078,2.868666887283325,0.0,0.12957914173603058,98
1666164183.25996423,157618061,0,21.938243865966797,24.42304229736328,19.173734664916992,128.06756591796875,2.8803136348724365,0.0,0.12959390878677368,98
1666164183.36027908,157718376,0,21.89529037475586,24.321596145629883,18.722370147705078,128.5893096923828,2.891737222671509,0.0,0.12959390878677368,98
1666164183.45994806,157818045,0,21.89759063720703,24.344257354736328,18.87949562072754,129.11204528808594,2.903183937072754,0.0,0.12959390878677368,98
1666164183.56028819,157918385,0,21.96601104736328,24.446245193481445,19.13850975036621,129.6455078125,2.9149019718170166,0.0,0.12959390878677368,98
1666164183.65994215,158018039,0,21.970996856689453,24.421127319335938,18.896682739257812,130.1685333251953,2.9263932704925537,0.0,0.12965932488441467,98
1666164183.76027918,158118376,0,21.98038673400879,24.435914993286133,18.923381805419922,130.6961212158203,2.9379899501800537,0.0,0.12976162135601044,98
1666164183.86003208,158218129,0,21.87612533569336,24.314210891723633,18.788963317871094,131.216796875,2.9493801593780518,0.0,0.12976162135601044,98
1666164183.96027327,158318370,0,21.91771697998047,24.361099243164062,18.82978057861328,131.74114990234375,2.9608726501464844,0.0,0.12976162135601044,98
1666164184.05994916,158418046,0,21.954320907592773,24.41741943359375,18.96811866760254,132.26638793945312,2.9724037647247314,0.0,0.1298546940088272,98
1666164184.16027617,158518373,0,21.947612762451172,24.41311264038086,18.986600875854492,132.79556274414062,2.984017848968506,0.0,0.1298546940088272,98
1666164184.25997019,158618067,0,21.98623275756836,24.42853546142578,18.79326057434082,133.3160400390625,2.9954612255096436,0.0,0.12995626032352448,98
1666164184.36026120,158718358,0,21.94512176513672,24.377864837646484,18.73372459411621,133.83798217773438,3.0069150924682617,0.0,0.12985901534557343,98
1666164184.45999026,158818087,0,21.91512680053711,24.339500427246094,18.66927719116211,134.35520935058594,3.0182502269744873,0.0,0.12985901534557343,98
1666164184.56032825,158918425,0,21.971858978271484,24.41853141784668,18.826404571533203,134.87997436523438,3.029780387878418,0.0,0.12995964288711548,98
1666164184.66001511,159018112,0,21.96361541748047,24.424924850463867,18.93903160095215,135.40423583984375,3.041295051574707,0.0,0.12995964288711548,98
1666164184.76026821,159118365,0,21.946943283081055,24.415658950805664,19.00470733642578,135.93374633789062,3.0529160499572754,0.0,0.1299002319574356,98
1666164184.86005425,159218151,0,21.92308235168457,24.354286193847656,18.715925216674805,136.45254516601562,3.0642898082733154,0.0,0.1299002319574356,98
1666164184.96026015,159318357,0,21.91982078552246,24.373035430908203,18.872982025146484,136.97792053222656,3.075806140899658,0.0,0.12998555600643158,98
1666164185.05993509,159418032,0,21.94675064086914,24.402606964111328,18.8933048248291,137.50106811523438,3.087287425994873,0.0,0.12998555600643158,98
1666164185.16031528,159518412,0,21.933622360229492,24.399578094482422,18.974323272705078,138.03018188476562,3.0988929271698,0.0,0.129962757229805,98
1666164185.25993419,159618031,0,21.947803497314453,24.407217025756836,18.923994064331055,138.5538787841797,3.110387086868286,0.0,0.129962757229805,98
1666164185.36024618,159718343,0,21.944164276123047,24.39181900024414,18.835918426513672,139.0787811279297,3.121905565261841,0.0,0.12994612753391266,98
1666164185.45996118,159818058,0,21.899314880371094,24.31079864501953,18.55756950378418,139.59271240234375,3.13316011428833,0.0,0.12994612753391266,98
1666164185.56023216,159918329,0,21.938220977783203,24.37483787536621,18.75428581237793,140.11524963378906,3.1446237564086914,0.0,0.12992322444915771,98
1666164185.65998006,160018077,0,21.952787399291992,24.397659301757812,18.808910369873047,140.63644409179688,3.1560654640197754,0.0,0.1299847811460495,98
1666164185.76023817,160118335,0,21.928638458251953,24.3906307220459,18.944557189941406,141.16407775878906,3.167635917663574,0.0,0.12995775043964386,98
1666164185.85992908,160218026,0,21.914499282836914,24.348222732543945,18.727039337158203,141.6826934814453,3.1790010929107666,0.0,0.12995775043964386,98
1666164185.96044827,160318545,0,21.863473892211914,24.307119369506836,18.803388595581055,142.20777893066406,3.190481185913086,0.0,0.12995775043964386,98
1666164186.05996323,160418060,0,21.91340446472168,24.385780334472656,19.035701751708984,142.73402404785156,3.2020130157470703,0.0,0.12988100945949554,98
1666164186.16030812,160518405,0,21.949434280395508,24.419139862060547,19.0151424407959,143.2640838623047,3.2136476039886475,0.0,0.12988100945949554,98
1666164186.25993609,160618033,0,21.920970916748047,24.411205291748047,19.193443298339844,143.7952880859375,3.225292205810547,0.0,0.1297440379858017,98
1666164186.36036515,160718462,0,21.88417625427246,24.316755294799805,18.749069213867188,144.318359375,3.23673939704895,0.0,0.1297440379858017,98
1666164186.45993805,160818035,0,21.92422866821289,24.3710994720459,18.858627319335938,144.84002685546875,3.248176336288452,0.0,0.12974807620048523,98
1666164186.56029320,160918390,0,21.935346603393555,24.400693893432617,19.00102424621582,145.3697509765625,3.259795904159546,0.0,0.12974807620048523,98
1666164186.65994906,161018046,0,21.933664321899414,24.386117935180664,18.89617156982422,145.8928680419922,3.2712700366973877,0.0,0.12978576123714447,98
1666164186.76023817,161118335,0,21.94886016845703,24.40643882751465,18.935657501220703,146.42042541503906,3.2828493118286133,0.0,0.12978576123714447,98
1666164186.85994315,161218040,0,21.89759063720703,24.361242294311523,18.970027923583984,146.9458465576172,3.2943549156188965,0.0,0.12987078726291656,98
1666164186.96023417,161318331,0,21.886571884155273,24.31997299194336,18.73710060119629,147.46788024902344,3.3057804107666016,0.0,0.12987078726291656,98
1666164187.05994010,161418037,0,21.907554626464844,24.36469078063965,18.916629791259766,147.99185180664062,3.3172590732574463,0.0,0.12989294528961182,98
1666164187.16023326,161518330,0,21.904010772705078,24.359560012817383,18.898523330688477,148.51832580566406,3.3287911415100098,0.0,0.12993335723876953,98
1666164187.26003408,161618131,0,21.928831100463867,24.3990535736084,19.011459350585938,149.04525756835938,3.340346097946167,0.0,0.12993335723876953,98
1666164187.36025715,161718354,0,21.89596176147461,24.341062545776367,18.818119049072266,149.56939697265625,3.3518226146698,0.0,0.12993335723876953,98
1666164187.45997405,161818071,0,21.88273811340332,24.331308364868164,18.844818115234375,150.0914306640625,3.363245964050293,0.0,0.12993335723876953,98
1666164187.56031919,161918416,0,21.92729949951172,24.36898422241211,18.78835105895996,150.61517333984375,3.374730110168457,0.0,0.12995733320713043,98
1666164187.65996718,162018064,0,21.93632698059082,24.393972396850586,18.91117286682129,151.13868713378906,3.386214017868042,0.0,0.12995733320713043,98
1666164187.76030421,162118401,0,21.930747985839844,24.38255500793457,18.85923957824707,151.66436767578125,3.397742509841919,0.0,0.1300055831670761,98
1666164187.85991812,162218015,0,21.865968704223633,24.294157028198242,18.67756462097168,152.1812286376953,3.4090442657470703,0.0,0.1300055831670761,98
1666164187.96026111,162318358,0,21.889541625976562,24.344133377075195,18.87213134765625,152.70729064941406,3.4205596446990967,0.0,0.13006436824798584,98
1666164188.06001425,162418111,0,21.914262771606445,24.385618209838867,19.00102424621582,153.23382568359375,3.432098388671875,0.0,0.13006436824798584,98
1666164188.16031313,162518410,0,21.929597854614258,24.377883911132812,18.815664291381836,153.75808715820312,3.4435951709747314,0.0,0.13011956214904785,98
1666164188.25997806,162618075,0,21.929214477539062,24.398984909057617,18.980770111083984,154.2836151123047,3.4551196098327637,0.0,0.13011956214904785,98
1666164188.36028910,162718386,0,21.89691925048828,24.34181022644043,18.78957748413086,154.80722045898438,3.4665846824645996,0.0,0.13011956214904785,98
1666164188.45993423,162818031,0,21.86562728881836,24.29616928100586,18.679302215576172,155.3242950439453,3.477890729904175,0.0,0.13011956214904785,98
1666164188.56019711,162918294,0,21.885419845581055,24.36167335510254,19.03478240966797,155.85447692871094,3.4894938468933105,0.0,0.13009101152420044,98
1666164188.65995526,163018052,0,21.888582229614258,24.381837844848633,19.181167602539062,156.3860321044922,3.501128673553467,0.0,0.12998458743095398,98
1666164188.76019716,163118294,0,21.908418655395508,24.384761810302734,19.05104637145996,156.91656494140625,3.512751817703247,0.0,0.12998458743095398,98
1666164188.86001420,163218111,0,21.879671096801758,24.33885955810547,18.919084548950195,157.441162109375,3.5242300033569336,0.0,0.12998458743095398,98
1666164188.96022105,163318318,0,21.862133026123047,24.29583168029785,18.72298240661621,157.96237182617188,3.5356247425079346,0.0,0.12998458743095398,98
1666164189.05995226,163418049,0,21.87765884399414,24.342647552490234,18.960514068603516,158.4876708984375,3.547116994857788,0.0,0.13000643253326416,98
1666164189.16029119,163518388,0,21.904298782348633,24.376110076904297,19.01299285888672,159.0176544189453,3.5587258338928223,0.0,0.13000643253326416,98
1666164189.25993919,163618036,0,21.878232955932617,24.356653213500977,19.066390991210938,159.54531860351562,3.57027006149292,0.0,0.12998899817466736,98
1666164189.36032319,163718420,0,21.837600708007812,24.2845458984375,18.824254989624023,160.07040405273438,3.5817365646362305,0.0,0.12998899817466736,98
1666164189.45990324,163818000,0,21.851783752441406,24.323904037475586,19.007673263549805,160.59622192382812,3.593226671218872,0.0,0.13005901873111725,98
1666164189.56029725,163918394,0,21.893085479736328,24.39331817626953,19.223825454711914,161.1323699951172,3.6049644947052,0.0,0.13005901873111725,98
1666164189.65992022,164018017,0,21.894428253173828,24.37478256225586,19.070995330810547,161.66015625,3.6165201663970947,0.0,0.13005901873111725,98
1666164189.76030707,164118404,0,21.90094566345215,24.384174346923828,19.093090057373047,162.192626953125,3.6281816959381104,0.0,0.13005901873111725,98
1666164189.85993028,164218027,0,21.85207176208496,24.34160041809082,19.131757736206055,162.72210693359375,3.63975191116333,0.0,0.130125492811203,98
1666164189.96027207,164318369,0,21.842201232910156,24.307130813598633,18.94271469116211,163.25013732910156,3.651285171508789,0.0,0.130125492811203,98
1666164190.05991721,164418014,0,21.857149124145508,24.350017547607422,19.158456802368164,163.7803955078125,3.662875175476074,0.0,0.13011841475963593,98
1666164190.16036820,164518465,0,21.8610782623291,24.355703353881836,19.176258087158203,164.31546020507812,3.674572467803955,0.0,0.13008928298950195,98
1666164190.25998116,164618078,0,21.86764907836914,24.344646453857422,19.040748596191406,164.8424530029297,3.686096668243408,0.0,0.13008928298950195,98
1666164190.36023307,164718330,0,21.81891441345215,24.291980743408203,19.01053810119629,165.37185668945312,3.6976475715637207,0.0,0.13008928298950195,98
1666164190.46000123,164818098,0,21.801952362060547,24.289730072021484,19.09462547302246,165.90113830566406,3.7091870307922363,0.0,0.1302867829799652,98
1666164190.56022525,164918322,0,21.85149574279785,24.352148056030273,19.193443298339844,166.43553161621094,3.7208642959594727,0.0,0.1302867829799652,98
1666164190.66006517,165018162,0,21.85724449157715,24.370052337646484,19.2867374420166,166.970458984375,3.7325563430786133,0.0,0.1302867829799652,98
1666164190.76028109,165118378,0,21.86376190185547,24.378047943115234,19.298091888427734,167.50770568847656,3.744302749633789,0.0,0.1302867829799652,98
1666164190.86029005,165218387,0,21.823610305786133,24.280759811401367,18.859548568725586,168.03167724609375,3.755737781524658,0.0,0.1302867829799652,97
1666164190.96035314,165318450,0,21.843351364135742,24.339096069335938,19.156923294067383,168.56419372558594,3.767369508743286,0.0,0.13027895987033844,97
1666164191.05994606,165418043,0,21.841434478759766,24.350662231445312,19.268325805664062,169.0972900390625,3.779013156890869,0.0,0.13022556900978088,97
1666164191.16028905,165518386,0,21.857341766357422,24.35977554321289,19.21615219116211,169.63294982910156,3.7907211780548096,0.0,0.13022556900978088,97
1666164191.25991726,165618014,0,21.843265533447266,24.379777908325195,19.50040054321289,170.1726531982422,3.8025100231170654,0.0,0.1300748586654663,97
1666164191.36031318,165718410,0,21.830223083496094,24.35108757019043,19.383100509643555,170.71324157714844,3.8143112659454346,0.0,0.130054771900177,97
1666164191.46017313,165818270,0,21.798503875732422,24.28312873840332,19.104446411132812,171.24322509765625,3.82586407661438,0.0,0.130054771900177,97
1666164191.56024313,165918340,0,21.81584930419922,24.344030380249023,19.444169998168945,171.7837677001953,3.837656259536743,0.0,0.13002261519432068,97
1666164191.65993404,166018031,0,21.831470489501953,24.336088180541992,19.262493133544922,172.31723022460938,3.8493025302886963,0.0,0.13002561032772064,97
1666164191.76032519,166118422,0,21.85580825805664,24.35044288635254,19.178712844848633,172.8520965576172,3.860992431640625,0.0,0.13007314503192902,97
1666164191.85995913,166218056,0,21.8004207611084,24.293899536132812,19.16981315612793,173.3826904296875,3.8725595474243164,0.0,0.13007314503192902,97
1666164191.96022415,166318321,0,21.80070686340332,24.27713966369629,19.03877067565918,173.91299438476562,3.884120464324951,0.0,0.13007314503192902,97
1666164192.05996227,166418059,0,21.85029411315918,24.34333038330078,19.156003952026367,174.44375610351562,3.8957176208496094,0.0,0.13014382123947144,97
1666164192.16025615,166518353,0,21.87775421142578,24.38129425048828,19.236713409423828,174.97972106933594,3.9074432849884033,0.0,0.13014382123947144,97
1666164192.26012921,166618226,0,21.88043785095215,24.37392807006836,19.140352249145508,175.51077270507812,3.919062852859497,0.0,0.1302739530801773,97
1666164192.36026907,166718366,0,21.82025718688965,24.280803680419922,18.887475967407227,176.03619384765625,3.930527925491333,0.0,0.1302739530801773,97
1666164192.46000910,166818106,0,21.83951759338379,24.334497451782227,19.152013778686523,176.56683349609375,3.9421167373657227,0.0,0.1302724927663803,97
1666164192.56026220,166918359,0,21.798311233520508,24.299365997314453,19.178098678588867,177.10098266601562,3.9537601470947266,0.0,0.1304119974374771,97
1666164192.65994024,167018037,0,21.863378524780273,24.38300323486328,19.32049560546875,177.63597106933594,3.965456962585449,0.0,0.1304119974374771,97
1666164192.76031423,167118411,0,21.839614868164062,24.367843627929688,19.386476516723633,178.17654418945312,3.9772627353668213,0.0,0.1304119974374771,97
1666164192.85992908,167218026,0,21.797351837158203,24.325057983398438,19.371131896972656,178.7125244140625,3.988945722579956,0.0,0.130488321185112,97
1666164192.96030426,167318401,0,21.795459747314453,24.29451560974121,19.15157127380371,179.2466278076172,4.00058650970459,0.0,0.130488321185112,97
1666164193.05992126,167418018,0,21.803295135498047,24.32208824157715,19.295637130737305,179.7805633544922,4.012228012084961,0.0,0.13053689897060394,97
1666164193.16029620,167518393,0,21.819778442382812,24.341663360595703,19.324485778808594,180.31932067871094,4.023983478546143,0.0,0.13050200045108795,97
1666164193.25992823,167618025,0,21.86644744873047,24.37891960144043,19.252365112304688,180.85231018066406,4.035638332366943,0.0,0.13050200045108795,97
1666164193.36024213,167718339,0,21.827539443969727,24.310976028442383,19.029870986938477,181.3826141357422,4.047213554382324,0.0,0.13050200045108795,97
1666164193.45998526,167818082,0,21.82638931274414,24.2956485748291,18.921234130859375,181.90689086914062,4.058656692504883,0.0,0.13050200045108795,97
1666164193.56028819,167918385,0,21.86002540588379,24.338829040527344,18.989667892456055,182.43601989746094,4.070223331451416,0.0,0.1305343359708786,97
1666164193.65997314,168018070,0,21.869609832763672,24.370086669921875,19.155696868896484,182.96649169921875,4.081824779510498,0.0,0.1305343359708786,97
1666164193.76025224,168118349,0,21.847949981689453,24.341100692749023,19.09800148010254,183.49851989746094,4.093448162078857,0.0,0.13054507970809937,97
1666164193.86008525,168218182,0,21.809511184692383,24.27212905883789,18.864116668701172,184.0216827392578,4.1048583984375,0.0,0.13054507970809937,97
1666164193.96026516,168318362,0,21.843734741210938,24.352989196777344,19.22136878967285,184.55661010742188,4.116543292999268,0.0,0.13054507970809937,97
1666164194.06001711,168418114,0,21.83597183227539,24.31574058532715,18.995500564575195,185.0830078125,4.128037452697754,0.0,0.13054507970809937,97
1666164194.16033220,168518429,0,21.864818572998047,24.33615493774414,18.927371978759766,185.6104736328125,4.139570236206055,0.0,0.13056941330432892,97
1666164194.25996017,168618057,0,21.87257957458496,24.377614974975586,19.18546485900879,186.14146423339844,4.151184558868408,0.0,0.13056941330432892,97
1666164194.36036706,168718464,0,21.837984085083008,24.312084197998047,18.948545455932617,186.6699981689453,4.162726879119873,0.0,0.13056941330432892,97
1666164194.45994115,168818038,0,21.797449111938477,24.269386291503906,18.931974411010742,187.19369506835938,4.174141883850098,0.0,0.13056941330432892,97
1666164194.56030726,168918404,0,21.797832489013672,24.295055389404297,19.10904884338379,187.72621154785156,4.185749530792236,0.0,0.13068270683288574,97
1666164194.65992808,169018025,0,21.864818572998047,24.340890884399414,18.936885833740234,188.25051879882812,4.197213649749756,0.0,0.13075388967990875,97
1666164194.76029015,169118387,0,21.867788314819336,24.363401412963867,19.086339950561523,188.78269958496094,4.208851337432861,0.0,0.13075388967990875,97
1666164194.85993814,169218035,0,21.829317092895508,24.312013626098633,18.98755645751953,189.30831909179688,4.220324993133545,0.0,0.13075388967990875,97
1666164194.96023417,169318331,0,21.834535598754883,24.285728454589844,18.746614456176758,189.8306427001953,4.231729507446289,0.0,0.13075388967990875,97
1666164195.05993128,169418028,0,21.870759963989258,24.35204315185547,18.96112823486328,190.3557891845703,4.243215084075928,0.0,0.1308615505695343,97
1666164195.16026211,169518359,0,21.869033813476562,24.353971481323242,18.989055633544922,190.8850555419922,4.254789352416992,0.0,0.1308615505695343,97
1666164195.25998116,169618078,0,21.898550033569336,24.36541748046875,18.834383010864258,191.40679931640625,4.266214847564697,0.0,0.1309768259525299,97
1666164195.36032820,169718425,0,21.82917022705078,24.2836971282959,18.74016761779785,191.92921447753906,4.277618408203125,0.0,0.1309768259525299,97
1666164195.46000814,169818105,0,21.843063354492188,24.310373306274414,18.837759017944336,192.45083618164062,4.289012432098389,0.0,0.1309768259525299,97
1666164195.56029224,169918389,0,21.886762619018555,24.365615844726562,18.906503677368164,192.97755432128906,4.300540924072266,0.0,0.13111117482185364,97
1666164195.65995121,170018048,0,21.889585494995117,24.36149787902832,18.84058952331543,193.49916076660156,4.3119587898254395,0.0,0.13120146095752716,97
1666164195.76028109,170118378,0,21.886186599731445,24.33858871459961,18.69321632385254,194.02017211914062,4.323361873626709,0.0,0.13119205832481384,97
