timestamp,TimeUS,Instance,Volt,VoltR,Curr,CurrTot,EnrgTot,Temp,Res,RemPct
1673333231.27953911,137709768,0,24.863685607910156,24.92748260498047,0.5537425875663757,21.875289916992188,0.5435082912445068,0.0,0.11520913243293762,99
1673333231.37950897,137809738,0,24.843523025512695,24.902109146118164,0.5085148811340332,21.88941192626953,0.5438591241836548,0.0,0.11520913243293762,99
1673333231.47959113,137909820,0,24.80398178100586,24.852136611938477,0.41798263788223267,21.901033401489258,0.5441473722457886,0.0,0.11520913243293762,99
1673333231.57957697,138009806,0,24.84572410583496,24.90530014038086,0.5171077251434326,21.91539764404297,0.5445042252540588,0.0,0.11520913243293762,99
1673333231.67952394,138109753,0,24.860065460205078,24.92413902282715,0.5561508536338806,21.930835723876953,0.5448880195617676,0.0,0.11520913243293762,99
1673333231.77947998,138209709,0,24.864681243896484,24.92885398864746,0.5570033192634583,21.946304321289062,0.5452726483345032,0.0,0.11520913243293762,99
1673333231.87954712,138309776,0,24.868701934814453,24.934110641479492,0.5677444338798523,21.962087631225586,0.5456652045249939,0.0,0.11520913243293762,99
1673333231.97954512,138409774,0,24.82351303100586,24.876157760620117,0.45695748925209045,21.974781036376953,0.5459803342819214,0.0,0.11520913243293762,99
1673333232.07951903,138509748,0,24.81279182434082,24.863245010375977,0.4379304051399231,21.9869441986084,0.5462821125984192,0.0,0.11520913243293762,99
1673333232.17953801,138609767,0,24.858171463012695,24.92152976989746,0.5499448180198669,22.00222396850586,0.5466619729995728,0.0,0.11520913243293762,99
1673333232.27953911,138709768,0,24.86343765258789,24.926620483398438,0.5484103560447693,22.017459869384766,0.5470407605171204,0.0,0.11520913243293762,99
1673333232.37955213,138809781,0,24.85788345336914,24.92032241821289,0.5419657826423645,22.03251838684082,0.5474150776863098,0.0,0.11520913243293762,99
1673333232.47953010,138909759,0,24.80708885192871,24.857215881347656,0.4351001977920532,22.04460334777832,0.5477148294448853,0.0,0.11520913243293762,99
1673333232.57957196,139009801,0,24.84505271911621,24.904874801635742,0.5192559361457825,22.05903434753418,0.5480733513832092,0.0,0.11520913243293762,99
1673333232.67953515,139109764,0,24.855968475341797,24.918514251708984,0.5428863763809204,22.07411003112793,0.5484480857849121,0.0,0.11520913243293762,99
1673333232.77954102,139209770,0,24.86850929260254,24.934661865234375,0.5741890668869019,22.09006118774414,0.5488448143005371,0.0,0.11520913243293762,99
1673333232.87949800,139309727,0,24.840171813964844,24.89822769165039,0.5039114952087402,22.104053497314453,0.5491923689842224,0.0,0.11520913243293762,99
1673333232.97952795,139409757,0,24.814992904663086,24.8660831451416,0.44345441460609436,22.116376876831055,0.5494981408119202,0.0,0.11520913243293762,99
1673333233.07953501,139509764,0,24.850608825683594,24.912199020385742,0.5346003770828247,22.131229400634766,0.5498672127723694,0.0,0.11520913243293762,99
1673333233.17953897,139609768,0,24.870616912841797,24.936803817749023,0.5744959712028503,22.14719009399414,0.5502641201019287,0.0,0.11520913243293762,99
1673333233.27951002,139709739,0,24.8684139251709,24.93385887145996,0.5680513381958008,22.1629638671875,0.5506563782691956,0.0,0.11520913243293762,99
1673333233.37947202,139809701,0,24.8126220703125,24.863967895507812,0.44567084312438965,22.17534065246582,0.5509635210037231,0.0,0.11520913243293762,99
1673333233.47954106,139909770,0,24.770570755004883,24.92143440246582,1.3180876970291138,22.21198272705078,0.5518711805343628,0.0,0.11445703357458115,99
1673333233.57952714,140009756,0,24.544437408447266,25.02526092529297,4.467381000518799,22.3360538482666,0.5549164414405823,0.0,0.10762974619865417,99
1673333233.67955709,140109786,0,24.66755485534668,24.9632625579834,2.772127151489258,22.413097381591797,0.5568168759346008,0.0,0.10667195171117783,99
1673333233.77956605,140209795,0,24.750179290771484,24.965347290039062,2.0334455966949463,22.46959114074707,0.5582151412963867,0.0,0.10581464320421219,99
1673333233.87957096,140309800,0,24.7392635345459,24.961008071899414,2.1083264350891113,22.52816390991211,0.5596641898155212,0.0,0.10517521947622299,99
1673333233.97953916,140409768,0,24.688810348510742,24.89049530029297,1.8978009223937988,22.580867767333984,0.560965359210968,0.0,0.10627323389053345,99
1673333234.07951593,140509745,0,24.72298812866211,24.92376136779785,1.886138916015625,22.63325309753418,0.5622605085372925,0.0,0.10644686967134476,99
1673333234.17953300,140609762,0,24.751455307006836,24.954391479492188,1.9064619541168213,22.68622398376465,0.5635716319084167,0.0,0.10644686967134476,99
1673333234.27954006,140709769,0,24.756210327148438,24.9559383392334,1.8763185739517212,22.738351821899414,0.5648621320724487,0.0,0.10644686967134476,99
1673333234.37953615,140809765,0,24.731700897216797,24.92491912841797,1.8100305795669556,22.788631439208984,0.5661056637763977,0.0,0.10674864053726196,99
1673333234.47956610,140909795,0,24.71169090270996,24.898094177246094,1.7461975812911987,22.837156295776367,0.567304790019989,0.0,0.10674864053726196,99
1673333234.57959008,141009819,0,24.73773193359375,24.93153190612793,1.8161683082580566,22.887622833251953,0.5685532093048096,0.0,0.10670840740203857,99
1673333234.67952514,141109754,0,24.75477409362793,24.952505111694336,1.8529949188232422,22.93906593322754,0.5698266625404358,0.0,0.10670840740203857,99
1673333234.77957106,141209800,0,24.757549285888672,24.956884384155273,1.8680325746536255,22.990983963012695,0.5711120367050171,0.0,0.10670840740203857,99
1673333234.87949109,141309720,0,24.756689071655273,24.95612144470215,1.8689532279968262,23.042861938476562,0.5723963975906372,0.0,0.10670840740203857,99
1673333234.97950602,141409735,0,24.71063804626465,24.896677017211914,1.7434355020523071,23.09130096435547,0.5735933780670166,0.0,0.10670840740203857,99
1673333235.07954907,141509778,0,24.711030960083008,24.897293090820312,1.7455157041549683,23.139812469482422,0.5747921466827393,0.0,0.10670840740203857,99
1673333235.17952299,141609752,0,24.74692153930664,24.942686080932617,1.8345816135406494,23.190763473510742,0.5760530233383179,0.0,0.10670840740203857,99
1673333235.27948904,141709718,0,24.7490291595459,24.946367263793945,1.84931218624115,23.24212074279785,0.5773240327835083,0.0,0.10670840740203857,99
1673333235.37954998,141809779,0,24.74807357788086,24.944854736328125,1.8440953493118286,23.293380737304688,0.5785925984382629,0.0,0.10670840740203857,99
1673333235.47958398,141909813,0,24.703170776367188,24.888259887695312,1.7345359325408936,23.341583251953125,0.5797833204269409,0.0,0.10670840740203857,99
1673333235.57953501,142009764,0,24.7392635345459,24.934438705444336,1.8290575742721558,23.39236831665039,0.5810397267341614,0.0,0.10670840740203857,99
1673333235.67955112,142109780,0,24.750083923339844,24.947158813476562,1.8468571901321411,23.443681716918945,0.5823097229003906,0.0,0.10670840740203857,99
1673333235.77953601,142209765,0,24.753719329833984,24.95295524597168,1.8671120405197144,23.495542526245117,0.583593487739563,0.0,0.10670840740203857,99
1673333235.87954116,142309770,0,24.735605239868164,24.929180145263672,1.814054012298584,23.54593849182129,0.5848400592803955,0.0,0.10670840740203857,99
1673333235.97950602,142409735,0,24.69704246520996,24.882198333740234,1.7351497411727905,23.59412384033203,0.586030125617981,0.0,0.10670840740203857,99
1673333236.07951999,142509749,0,24.734954833984375,24.928951263427734,1.8180097341537476,23.644636154174805,0.5872794985771179,0.0,0.10670840740203857,99
1673333236.17952394,142609753,0,24.751134872436523,24.9492244720459,1.8563708066940308,23.696208953857422,0.5885559916496277,0.0,0.10670840740203857,99
1673333236.27953696,142709766,0,24.760900497436523,24.962331771850586,1.887673258781433,23.748655319213867,0.5898545980453491,0.0,0.10670840740203857,99
1673333236.37957501,142809804,0,24.739551544189453,24.935596466064453,1.837343692779541,23.79971694946289,0.591117799282074,0.0,0.10670047253370285,99
1673333236.47947407,142909703,0,24.71475601196289,24.903335571289062,1.7673730850219727,23.84876251220703,0.5923299789428711,0.0,0.10670047253370285,99
1673333236.57951307,143009742,0,24.719255447387695,24.9086856842041,1.7753520011901855,23.898103713989258,0.5935496687889099,0.0,0.10670047253370285,99
1673333236.67964816,143109877,0,24.741657257080078,24.938127517700195,1.841333270072937,23.949325561523438,0.5948169827461243,0.0,0.10670047253370285,99
1673333236.77954197,143209771,0,24.742517471313477,24.93935203552246,1.844743013381958,24.000518798828125,0.5960836410522461,0.0,0.10670047253370285,99
1673333236.87956595,143309795,0,24.747114181518555,24.945091247558594,1.8554500341415405,24.05207633972168,0.5973595380783081,0.0,0.10670047253370285,99
1673333236.97956610,143409795,0,24.68478775024414,24.86652374267578,1.703233242034912,24.09939193725586,0.5985274910926819,0.0,0.10670047253370285,99
1673333237.07956910,143509798,0,24.732370376586914,24.926679611206055,1.8210786581039429,24.149982452392578,0.5997787117958069,0.0,0.10670047253370285,99
1673333237.17954803,143609777,0,24.733903884887695,24.92890167236328,1.8275232315063477,24.20073890686035,0.6010341048240662,0.0,0.10670047253370285,99
1673333237.27960300,143709832,0,24.747785568237305,24.94622230529785,1.8597464561462402,24.252426147460938,0.6023132801055908,0.0,0.10670047253370285,99
1673333237.37957311,143809802,0,24.72538185119629,24.917236328125,1.7980619668960571,24.3023681640625,0.6035481095314026,0.0,0.10670047253370285,99
1673333237.47956800,143909797,0,24.70345687866211,24.89033317565918,1.7514148950576782,24.35101890563965,0.6047499775886536,0.0,0.10670047253370285,99
1673333237.57957006,144009799,0,24.739858627319336,24.935457229614258,1.8331494331359863,24.401945114135742,0.6060099005699158,0.0,0.10670047253370285,99
1673333237.67960000,144109829,0,24.74587059020996,24.943161010742188,1.8490054607391357,24.453325271606445,0.6072813868522644,0.0,0.10670047253370285,99
1673333237.77956605,144209795,0,24.751708984375,24.95063591003418,1.8643498420715332,24.50510025024414,0.6085628867149353,0.0,0.10670047253370285,99
1673333237.87957215,144309801,0,24.69838523864746,24.96796989440918,2.54809832572937,24.575891494750977,0.6103112697601318,0.0,0.10579869151115417,99
1673333237.97950315,144409732,0,24.20629119873047,25.022640228271484,7.852058410644531,24.79387092590332,0.6155877709388733,0.0,0.10396627336740494,99
1673333238.07955194,144509781,0,23.356233596801758,25.01479148864746,17.83546257019043,25.28957748413086,0.6271656155586243,0.0,0.09299216419458389,99
1673333238.17965412,144609883,0,22.909807205200195,25.008865356445312,24.780662536621094,25.97869300842285,0.6429531574249268,0.0,0.08470548689365387,99
1673333238.27957797,144709807,0,22.26051139831543,25.00691032409668,33.5036735534668,26.908679962158203,0.663655161857605,0.0,0.08197308331727982,99
1673333238.37963104,144809860,0,22.279756546020508,25.004568099975586,34.624122619628906,27.8709716796875,0.6850947737693787,0.0,0.07869689911603928,99
1673333238.47958803,144909817,0,22.880521774291992,24.89438247680664,25.59896469116211,28.58188247680664,0.701360821723938,0.0,0.07866965234279633,99
1673333238.57957196,145009801,0,23.243167877197266,25.003376007080078,22.850637435913086,29.216577529907227,0.7161131501197815,0.0,0.07703105360269547,99
1673333238.67959309,145109822,0,23.05322265625,24.78878402709961,22.447078704833984,29.840288162231445,0.7304916977882385,0.0,0.07731788605451584,99
1673333238.77958798,145209817,0,23.038673400878906,24.966968536376953,25.03691291809082,30.5357723236084,0.7465147376060486,0.0,0.07701806724071503,99
1673333238.87960410,145309833,0,22.980173110961914,24.81084632873535,23.701641082763672,31.194231033325195,0.7616462111473083,0.0,0.07723827660083771,99
1673333238.97958016,145409809,0,23.003822326660156,24.866561889648438,24.109804153442383,31.863927841186523,0.7770518064498901,0.0,0.07726064324378967,99
1673333239.07959509,145509824,0,22.822494506835938,24.745328903198242,24.760408401489258,32.551876068115234,0.7927525043487549,0.0,0.07765763252973557,99
1673333239.17959309,145609822,0,22.926944732666016,24.831790924072266,24.5023136138916,33.23253631591797,0.8083579540252686,0.0,0.07774149626493454,99
1673333239.27964616,145709875,0,23.01274871826172,24.898054122924805,24.291959762573242,33.9077262878418,0.8238958716392517,0.0,0.07761029154062271,99
1673333239.37969017,145809919,0,22.836185455322266,24.71152114868164,24.020498275756836,34.57530975341797,0.8391409516334534,0.0,0.07807233929634094,99
1673333239.47957802,145909807,0,22.864809036254883,24.840858459472656,25.306976318359375,35.277549743652344,0.855197548866272,0.0,0.07808317989110947,99
1673333239.57957411,146009803,0,22.741594314575195,24.745946884155273,25.569366455078125,35.98777389526367,0.8713492155075073,0.0,0.07838884741067886,99
1673333239.67960906,146109838,0,22.77855110168457,24.81610107421875,25.974767684936523,36.70967102050781,0.8877930045127869,0.0,0.07844340056180954,99
1673333239.77966809,146209897,0,22.749544143676758,24.843746185302734,26.709766387939453,37.45210647583008,0.9046830534934998,0.0,0.07840582728385925,99
1673333239.87959909,146309828,0,22.654857635498047,24.779993057250977,27.047035217285156,38.20295333862305,0.9216933846473694,0.0,0.0785718485713005,99
1673333239.97961807,146409847,0,22.62087059020996,24.784934997558594,27.495708465576172,38.9669303894043,0.9389752149581909,0.0,0.07870553433895111,99
1673333240.07959414,146509823,0,22.56511878967285,24.74417495727539,27.599199295043945,39.73344421386719,0.9562717080116272,0.0,0.07895361632108688,99
1673333240.17958498,146609814,0,22.575490951538086,24.781984329223633,27.90970230102539,40.50871276855469,0.9737737774848938,0.0,0.07905825972557068,99
1673333240.27957606,146709805,0,22.556821823120117,24.804189682006836,28.417909622192383,41.29806137084961,0.9915789365768433,0.0,0.07908279448747635,99
1673333240.37960410,146809833,0,22.51929473876953,24.775897979736328,28.494630813598633,42.08988952636719,1.0094102621078491,0.0,0.07919396460056305,99
1673333240.47958016,146909809,0,22.458499908447266,24.732643127441406,28.630582809448242,42.88506317138672,1.027268648147583,0.0,0.07943055778741837,99
1673333240.57959509,147009824,0,22.499666213989258,24.797847747802734,28.93010902404785,43.68886184692383,1.045353889465332,0.0,0.07943908125162125,99
1673333240.67957306,147109802,0,22.480134963989258,24.787506103515625,29.03107261657715,44.49516677856445,1.0634797811508179,0.0,0.0794793888926506,99
1673333240.77971196,147209941,0,22.532312393188477,24.760040283203125,27.985809326171875,45.2736930847168,1.081021785736084,0.0,0.07960207760334015,99
1673333240.87964702,147309876,0,22.607177734375,24.70954132080078,26.487577438354492,46.00904083251953,1.097645878791809,0.0,0.07937169820070267,99
1673333240.97959399,147409823,0,22.637348175048828,24.698762893676758,26.039520263671875,46.73202896118164,1.114012360572815,0.0,0.07916483283042908,99
1673333241.07959199,147509821,0,22.705120086669922,24.767213821411133,26.04013442993164,47.45541000366211,1.1304367780685425,0.0,0.07918906211853027,99
1673333241.17957211,147609801,0,22.7607421875,24.770092010498047,25.36559295654297,48.15993118286133,1.1464722156524658,0.0,0.07921554893255234,99
1673333241.27962112,147709850,0,22.746191024780273,24.738971710205078,25.17654800415039,48.85968017578125,1.162388801574707,0.0,0.07915222644805908,99
1673333241.37959909,147809828,0,22.72053337097168,24.718791961669922,25.27874183654785,49.561767578125,1.1783406734466553,0.0,0.07904896140098572,99
1673333241.47956896,147909798,0,22.70655632019043,24.684688568115234,25.078651428222656,50.258243560791016,1.194155216217041,0.0,0.07887715846300125,99
1673333241.57959104,148009820,0,22.626901626586914,24.601306915283203,25.031389236450195,50.95376205444336,1.2098926305770874,0.0,0.07887715846300125,99
1673333241.67957306,148109802,0,22.667879104614258,24.647220611572266,25.14954376220703,51.65229797363281,1.2257269620895386,0.0,0.07870285212993622,99
1673333241.77960610,148209835,0,22.673728942871094,24.632471084594727,24.94324493408203,52.34545135498047,1.2414432764053345,0.0,0.07852792739868164,99
1673333241.87962413,148309853,0,22.68300437927246,24.68242835998535,25.46164894104004,53.05278396606445,1.2574876546859741,0.0,0.07852687686681747,99
1673333241.97960305,148409832,0,22.657344818115234,24.645465850830078,25.317718505859375,53.75606155395508,1.2734220027923584,0.0,0.07852687686681747,99
1673333242.07957816,148509807,0,22.613117218017578,24.63149642944336,25.657136917114258,54.468658447265625,1.2895361185073853,0.0,0.07866732776165009,99
1673333242.17956996,148609799,0,22.60622215270996,24.6469783782959,25.915843963623047,55.188541412353516,1.3058099746704102,0.0,0.07874547690153122,99
1673333242.27959895,148709828,0,22.604690551757812,24.70508575439453,26.71099281311035,55.930782318115234,1.3225880861282349,0.0,0.07863412797451019,99
1673333242.37960100,148809830,0,22.583532333374023,24.67540740966797,26.60511589050293,56.66988754272461,1.3392796516418457,0.0,0.07862678170204163,99
1673333242.47959995,148909829,0,22.593969345092773,24.65190315246582,26.151229858398438,57.3963623046875,1.3556935787200928,0.0,0.07869360595941544,99
1673333242.57958198,149009811,0,22.58064842224121,24.640731811523438,26.14693260192871,58.12260055541992,1.3720924854278564,0.0,0.07878870517015457,99
1673333242.67961001,149109839,0,22.576351165771484,24.642051696777344,26.191125869750977,58.85039520263672,1.3885234594345093,0.0,0.0788702741265297,99
1673333242.77959514,149209824,0,22.58496856689453,24.66801643371582,26.413619995117188,59.584049224853516,1.4050929546356201,0.0,0.07886264473199844,99
1673333242.87966609,149309895,0,22.55529022216797,24.628902435302734,26.255571365356445,60.3139533996582,1.4215561151504517,0.0,0.07897800952196121,99
1673333242.97960114,149409830,0,22.487028121948242,24.538827896118164,25.9793701171875,61.03519058227539,1.437774658203125,0.0,0.07897800952196121,99
1673333243.07958508,149509814,0,22.496124267578125,24.572986602783203,26.225494384765625,61.76361083984375,1.454161286354065,0.0,0.07919247448444366,99
1673333243.17960095,149609830,0,22.515844345092773,24.614423751831055,26.47837257385254,62.499298095703125,1.4707258939743042,0.0,0.0792563334107399,99
1673333243.27958012,149709809,0,22.555768966674805,24.581134796142578,25.554636001586914,63.20905685424805,1.4867351055145264,0.0,0.0792563334107399,99
1673333243.37958097,149809810,0,22.583436965942383,24.56793212890625,25.086936950683594,63.90598678588867,1.5024741888046265,0.0,0.07910475879907608,99
1673333243.47960711,149909836,0,22.622774124145508,24.644798278808594,25.532470703125,64.61546325683594,1.5185245275497437,0.0,0.07919421046972275,99
1673333243.57963300,150009862,0,22.64432716369629,24.580032348632812,24.47500228881836,65.2955551147461,1.5339248180389404,0.0,0.07908905297517776,99
1673333243.67958808,150109817,0,22.745807647705078,24.65950584411621,24.156143188476562,65.96630096435547,1.549181580543518,0.0,0.07922201603651047,99
1673333243.77958202,150209811,0,22.7252254486084,24.620777130126953,23.92751121520996,66.63097381591797,1.564286470413208,0.0,0.07922059297561646,99
1673333243.87958694,150309816,0,22.737287521362305,24.650711059570312,24.128829956054688,67.30130767822266,1.5795279741287231,0.0,0.07930031418800354,99
1673333243.97961903,150409848,0,22.73297882080078,24.602882385253906,23.600061416625977,67.9571304321289,1.5944366455078125,0.0,0.07923299819231033,99
1673333244.07959008,150509819,0,22.7501163482666,24.570240020751953,23.012676239013672,68.59623718261719,1.6089763641357422,0.0,0.07909220457077026,99
1673333244.17958713,150609816,0,22.78984832763672,24.63603973388672,23.322019577026367,69.24409484863281,1.6237410306930542,0.0,0.07916086912155151,99
1673333244.27956200,150709791,0,22.80839729309082,24.645734786987305,23.186819076538086,69.8879623413086,1.6384265422821045,0.0,0.07924056798219681,99
1673333244.37961411,150809843,0,22.754329681396484,24.576278686523438,23.029247283935547,70.52815246582031,1.6529936790466309,0.0,0.07911455631256104,99
1673333244.47968507,150909914,0,22.68472671508789,24.526681900024414,23.282123565673828,71.17535400390625,1.6676751375198364,0.0,0.07911455631256104,99
1673333244.57956100,151009790,0,22.718713760375977,24.583059310913086,23.577350616455078,71.82955932617188,1.6825379133224487,0.0,0.07907356321811676,99
1673333244.67960000,151109829,0,22.713926315307617,24.562522888183594,23.3781795501709,72.47925567626953,1.6972951889038086,0.0,0.07907356321811676,99
1673333244.77959108,151209820,0,22.75251007080078,24.599143981933594,23.34564971923828,73.12773895263672,1.7120498418807983,0.0,0.07909968495368958,99
1673333244.87960505,151309834,0,22.71613121032715,24.544801712036133,23.118553161621094,73.76997375488281,1.726638913154602,0.0,0.07909968495368958,99
1673333244.97961903,151409848,0,22.74245834350586,24.54100799560547,22.771154403686523,74.40267181396484,1.7410279512405396,0.0,0.07898368686437607,99
1673333245.07958412,151509813,0,22.810813903808594,24.642576217651367,23.1375789642334,75.0452651977539,1.7556860446929932,0.0,0.07916824519634247,99
1673333245.17960405,151609833,0,22.805845260620117,24.610553741455078,22.77933692932129,75.67820739746094,1.7701208591461182,0.0,0.07922564446926117,99
1673333245.27957010,151709799,0,22.85054588317871,24.61909294128418,22.303762435913086,76.29759216308594,1.7842741012573242,0.0,0.07929368317127228,99
1673333245.37960601,151809835,0,22.832162857055664,24.595632553100586,22.24268913269043,76.91571807861328,1.7983871698379517,0.0,0.07928314059972763,99
1673333245.47961497,151909844,0,22.820484161376953,24.543460845947266,21.773151397705078,77.5206298828125,1.8121916055679321,0.0,0.07913312315940857,99
1673333245.57963610,152009865,0,22.851024627685547,24.558767318725586,21.601293563842773,78.12077331542969,1.8259055614471436,0.0,0.0790574699640274,99
1673333245.67959595,152109825,0,22.910762786865234,24.619482040405273,21.584720611572266,78.72023010253906,1.8396395444869995,0.0,0.07916338741779327,99
1673333245.77959108,152209820,0,22.905498504638672,24.629356384277344,21.745838165283203,79.32430267333984,1.8534760475158691,0.0,0.07927302271127701,99
1673333245.87959814,152309827,0,22.91239356994629,24.644519805908203,21.815195083618164,79.93037414550781,1.8673624992370605,0.0,0.07940000295639038,99
1673333245.97961497,152409844,0,22.930198669433594,24.662248611450195,21.773765563964844,80.53535461425781,1.8812347650527954,0.0,0.07954759150743484,99
1673333246.07960796,152509837,0,22.856769561767578,24.56911849975586,21.526105880737305,81.13330841064453,1.894901990890503,0.0,0.07954759150743484,99
1673333246.17958117,152609810,0,22.899660110473633,24.618408203125,21.601293563842773,81.73323059082031,1.9086400270462036,0.0,0.07956694811582565,99
1673333246.27961898,152709848,0,22.92723274230957,24.624303817749023,21.32048988342285,82.32573699951172,1.9222246408462524,0.0,0.07959816604852676,99
1673333246.37960815,152809837,0,22.90789222717285,24.59442710876465,21.203258514404297,82.9146957397461,1.9357165098190308,0.0,0.07954131811857224,99
1673333246.47958708,152909816,0,22.904447555541992,24.582056045532227,21.111804962158203,83.50106048583984,1.9491468667984009,0.0,0.07946307212114334,99
1673333246.57958913,153009818,0,22.906169891357422,24.592519760131836,21.230571746826172,84.09085845947266,1.962656855583191,0.0,0.0794302225112915,99
1673333246.67957616,153109805,0,22.928955078125,24.604711532592773,21.095233917236328,84.67681121826172,1.9760921001434326,0.0,0.07943763583898544,99
1673333246.77957416,153209803,0,22.958070755004883,24.633541107177734,21.069284439086914,85.2621078491211,1.9895292520523071,0.0,0.07952194660902023,99
1673333246.87956500,153309794,0,22.999034881591797,24.63576316833496,20.563396453857422,85.83330535888672,2.0026662349700928,0.0,0.07959423959255219,99
1673333246.97958994,153409819,0,22.962560653686523,24.57452964782715,20.28044319152832,86.39683532714844,2.01560640335083,0.0,0.07948394119739532,99
1673333247.07968998,153509919,0,22.98946189880371,24.56764793395996,19.881793975830078,86.94970703125,2.0283164978027344,0.0,0.07937846332788467,99
1673333247.17967105,153609900,0,23.07619857788086,24.64129638671875,19.68753433227539,87.49642944335938,2.0409328937530518,0.0,0.0794968456029892,99
1673333247.27958012,153709809,0,23.069976806640625,24.62525177001953,19.551889419555664,88.03917694091797,2.0534541606903076,0.0,0.07954604178667068,99
1673333247.37963510,153809864,0,23.248910903930664,24.61334228515625,17.151405334472656,88.51589965820312,2.064537525177002,0.0,0.07955219596624374,99
1673333247.47961617,153909845,0,23.25676155090332,24.598976135253906,16.879501342773438,88.98472595214844,2.0754408836364746,0.0,0.07951747626066208,99
1673333247.57967305,154009902,0,22.984865188598633,24.62291145324707,20.610963821411133,89.55762481689453,2.088608980178833,0.0,0.07947447150945663,99
1673333247.67959905,154109828,0,22.907543182373047,24.651613235473633,21.98006248474121,90.16777038574219,2.102586030960083,0.0,0.07934781908988953,99
1673333247.77960896,154209838,0,22.917274475097656,24.63408088684082,21.652236938476562,90.76933288574219,2.1163721084594727,0.0,0.07929001748561859,99
1673333247.87961197,154309841,0,22.898988723754883,24.597841262817383,21.409486770629883,91.3641128540039,2.1299920082092285,0.0,0.07935047894716263,99
1673333247.97960806,154409837,0,22.858013153076172,24.590435028076172,21.811511993408203,91.96990966796875,2.1438393592834473,0.0,0.07942691445350647,99
1673333248.07966614,154509895,0,22.869117736816406,24.64029884338379,22.32370948791504,92.59053039550781,2.1580324172973633,0.0,0.07934080064296722,99
1673333248.17960715,154609836,0,22.879745483398438,24.644575119018555,22.268775939941406,93.20878601074219,2.172178030014038,0.0,0.07925126701593399,99
1673333248.27964711,154709876,0,22.902341842651367,24.644397735595703,22.003318786621094,93.8202896118164,2.186182975769043,0.0,0.07917243242263794,99
1673333248.37959003,154809819,0,22.872182846069336,24.62663459777832,22.164127349853516,94.43566131591797,2.2002577781677246,0.0,0.07915722578763962,99
1673333248.47960496,154909834,0,22.808185577392578,24.570837020874023,22.223186492919922,95.05311584472656,2.2143406867980957,0.0,0.0793159157037735,99
1673333248.57963514,155009864,0,22.73537254333496,24.526222229003906,22.499557495117188,95.67823791503906,2.228553056716919,0.0,0.07959485799074173,99
1673333248.67957497,155109804,0,22.839248657226562,24.6961669921875,23.411325454711914,96.32831573486328,2.2434003353118896,0.0,0.07931709289550781,99
1673333248.77964711,155209876,0,22.97720718383789,24.88117790222168,24.004539489746094,96.99565124511719,2.2587337493896484,0.0,0.07931709289550781,99
1673333248.87961102,155309840,0,23.030628204345703,25.004762649536133,24.99916648864746,97.68988037109375,2.2747223377227783,0.0,0.07896797358989716,99
1673333248.97963405,155409863,0,23.021438598632812,24.973495483398438,24.71959114074707,98.37674713134766,2.2905349731445312,0.0,0.07896797358989716,99
1673333249.07963109,155509860,0,23.0851993560791,25.00343132019043,24.87702751159668,99.0677719116211,2.3064873218536377,0.0,0.07710859179496765,99
1673333249.17967701,155609906,0,23.10798454284668,25.003339767456055,24.621078491210938,99.7520980834961,2.322300910949707,0.0,0.07698103785514832,99
1673333249.27962995,155709859,0,23.024118423461914,24.96665382385254,25.233938217163086,100.45276641845703,2.338433265686035,0.0,0.07698103785514832,99
1673333249.37963605,155809865,0,23.038169860839844,24.99441909790039,25.4121036529541,101.15876007080078,2.3546979427337646,0.0,0.07698103785514832,99
1673333249.47959900,155909828,0,22.900331497192383,24.828174591064453,25.0163516998291,101.85345458984375,2.3706066608428955,0.0,0.07706329226493835,99
1673333249.57975507,156009984,0,22.82526969909668,24.779064178466797,25.27874183654785,102.55671691894531,2.3866589069366455,0.0,0.07729005068540573,99
1673333249.67959309,156109822,0,22.547725677490234,24.56289291381836,25.77989387512207,103.27179718017578,2.402782440185547,0.0,0.07816819846630096,99
1673333249.77967095,156209900,0,22.672088623046875,24.723560333251953,26.148466110229492,103.99877166748047,2.419264316558838,0.0,0.07845477759838104,99
1673333249.87965012,156309879,0,22.665485382080078,24.598739624023438,24.64164161682129,104.68305969238281,2.434774160385132,0.0,0.07845477759838104,99
1673333249.97960305,156409832,0,22.760358810424805,24.645893096923828,24.033388137817383,105.35050201416016,2.449965238571167,0.0,0.07845477759838104,99
1673333250.07964516,156509874,0,22.69267463684082,24.580087661743164,24.05732536315918,106.01908874511719,2.465137243270874,0.0,0.07845477759838104,99
1673333250.17965412,156609883,0,22.692291259765625,24.59104347229004,24.201871871948242,106.69147491455078,2.4803953170776367,0.0,0.07845477759838104,99
1673333250.27966809,156709897,0,22.572246551513672,24.448772430419922,23.918577194213867,107.35603332519531,2.4953958988189697,0.0,0.07845477759838104,99
1673333250.37973809,156809967,0,22.54313087463379,24.394548416137695,23.598526000976562,108.0120620727539,2.5101847648620605,0.0,0.07845477759838104,99
1673333250.47961211,156909841,0,22.418865203857422,24.211149215698242,22.844806671142578,108.64588165283203,2.5243942737579346,0.0,0.07845477759838104,99
1673333250.57960916,157009838,0,22.47295570373535,24.26986312866211,22.903730392456055,109.28213500976562,2.5386927127838135,0.0,0.07845477759838104,99
1673333250.67966604,157109895,0,22.42460823059082,24.26882553100586,23.50676727294922,109.9355239868164,2.5533447265625,0.0,0.07845477759838104,99
1673333250.77968407,157209913,0,22.505889892578125,24.33236312866211,23.280588150024414,110.58236694335938,2.5679025650024414,0.0,0.07845477759838104,99
1673333250.87960005,157309829,0,22.527334213256836,24.33786964416504,23.077428817749023,111.2229232788086,2.5823326110839844,0.0,0.07845477759838104,99
1673333250.97968102,157409910,0,22.59894561767578,24.419715881347656,23.21092414855957,111.86824798583984,2.5969161987304688,0.0,0.07844457775354385,99
1673333251.07960296,157509832,0,22.583843231201172,24.445119857788086,23.727283477783203,112.52679443359375,2.611788749694824,0.0,0.07844457775354385,99
1673333251.17960000,157609829,0,22.64556884765625,24.48677635192871,23.422679901123047,113.17753601074219,2.6265251636505127,0.0,0.07860790193080902,99
1673333251.27961898,157709848,0,22.731733322143555,24.531015396118164,22.817495346069336,113.81144714355469,2.640935182571411,0.0,0.07885540276765823,99
1673333251.37962103,157809850,0,22.765626907348633,24.53481101989746,22.378028869628906,114.43314361572266,2.655088424682617,0.0,0.07905901968479156,99
1673333251.47961116,157909840,0,22.74848747253418,24.451772689819336,21.562625885009766,115.03207397460938,2.668713331222534,0.0,0.07899250090122223,99
1673333251.57959008,158009819,0,22.73441505432129,24.46988296508789,21.970787048339844,115.64237213134766,2.6825881004333496,0.0,0.07898981124162674,99
1673333251.67965794,158109887,0,22.734512329101562,24.48118019104004,22.104589462280273,116.2568588256836,2.6965579986572266,0.0,0.07901837676763535,99
1673333251.77963209,158209861,0,22.783336639404297,24.499616622924805,21.700111389160156,116.85952758789062,2.7102887630462646,0.0,0.07909083366394043,99
1673333251.87962794,158309857,0,22.834247589111328,24.512561798095703,21.195449829101562,117.44824981689453,2.723731756210327,0.0,0.07918279618024826,99
1673333251.97960210,158409831,0,22.764188766479492,24.381376266479492,20.497413635253906,118.01758575439453,2.736692190170288,0.0,0.0788971558213234,99
1673333252.07957697,158509806,0,22.90779685974121,24.502286911010742,20.182546615600586,118.57811737060547,2.749532699584961,0.0,0.07900337874889374,99
1673333252.17965317,158609882,0,22.949922561645508,24.499849319458008,19.599456787109375,119.12300109863281,2.762037754058838,0.0,0.07908004522323608,99
1673333252.27967310,158709902,0,22.92953109741211,24.526573181152344,20.1613712310791,119.68318939208984,2.7748825550079346,0.0,0.07921299338340759,99
1673333252.37960601,158809835,0,22.929243087768555,24.468338012695312,19.443252563476562,120.22296905517578,2.787259340286255,0.0,0.07915827631950378,99
1673333252.47961402,158909843,0,22.90779685974121,24.474712371826172,19.801082611083984,120.77308654785156,2.799861431121826,0.0,0.07913277298212051,99
1673333252.57966208,159009891,0,22.89381980895996,24.51788902282715,20.498027801513672,121.3427963256836,2.812904119491577,0.0,0.07923049479722977,99
1673333252.67963409,159109863,0,22.904348373413086,24.569169998168945,21.012372970581055,121.92635345458984,2.82627010345459,0.0,0.07923049479722977,99
1673333252.77960706,159209836,0,22.921157836914062,24.51890754699707,20.154756546020508,122.48609924316406,2.8391001224517822,0.0,0.07927403599023819,99
1673333252.87961602,159309845,0,22.967632293701172,24.524215698242188,19.623394012451172,123.03121948242188,2.8516201972961426,0.0,0.07932282239198685,99
1673333252.97961712,159409846,0,22.985727310180664,24.54686164855957,19.655925750732422,123.57726287841797,2.864171266555786,0.0,0.07942307740449905,99
1673333253.07961202,159509841,0,22.928476333618164,24.508520126342773,19.900514602661133,124.13007354736328,2.8768465518951416,0.0,0.07939717918634415,99
1673333253.17960596,159609835,0,22.952699661254883,24.518632888793945,19.72098731994629,124.67794799804688,2.8894217014312744,0.0,0.07940441370010376,99
1673333253.27962708,159709856,0,23.049009323120117,24.59787368774414,19.451536178588867,125.21842956542969,2.90187931060791,0.0,0.07962680608034134,99
1673333253.37974906,159809978,0,23.070646286010742,24.577463150024414,18.8951473236084,125.74398040771484,2.91400408744812,0.0,0.07974628359079361,99
1673333253.47969103,159909920,0,23.117176055908203,24.57291603088379,18.235950469970703,126.25027465820312,2.925708293914795,0.0,0.07982807606458664,99
1673333253.57960415,160009833,0,23.143587112426758,24.552356719970703,17.645769119262695,126.74005126953125,2.9370434284210205,0.0,0.07983612269163132,99
1673333253.67961597,160109845,0,23.12847137451172,24.6268367767334,18.718687057495117,127.26012420654297,2.9490718841552734,0.0,0.08004651963710785,99
1673333253.77963305,160209862,0,23.116600036621094,24.59590721130371,18.46181869506836,127.77307891845703,2.9609296321868896,0.0,0.08012790232896805,99
1673333253.87969494,160309924,0,23.11124038696289,24.58917808532715,18.434200286865234,128.28549194335938,2.9727721214294434,0.0,0.08017371594905853,99
1673333253.97959805,160409827,0,23.1397705078125,24.56658935546875,17.80231475830078,128.77957153320312,2.9842047691345215,0.0,0.08014789968729019,99
1673333254.07962203,160509851,0,23.14101219177246,24.53569221496582,17.42422866821289,129.26373291015625,2.995408773422241,0.0,0.0800425261259079,99
1673333254.17961001,160609839,0,23.137662887573242,24.57860565185547,17.994428634643555,129.76356506347656,3.0069735050201416,0.0,0.08007719367742538,99
1673333254.27959204,160709821,0,23.214445114135742,24.654531478881836,17.93090057373047,130.2615966796875,3.0185348987579346,0.0,0.08031310141086578,99
1673333254.37966704,160809896,0,23.143693923950195,24.578556060791016,17.870752334594727,130.7584228515625,3.0300331115722656,0.0,0.08029110729694366,99
1673333254.47960997,160909839,0,23.045936584472656,24.58034324645996,19.107242584228516,131.28884887695312,3.042257308959961,0.0,0.08030501753091812,99
1673333254.57962799,161009857,0,23.001619338989258,24.535261154174805,19.06209373474121,131.8185577392578,3.054441452026367,0.0,0.08045504987239838,99
1673333254.67958903,161109818,0,23.21990203857422,24.733617782592773,18.814435958862305,132.3410186767578,3.066572904586792,0.0,0.08045504987239838,99
1673333254.77963305,161209862,0,23.003726959228516,24.455148696899414,18.04015350341797,132.8424072265625,3.078106641769409,0.0,0.08045504987239838,99
1673333254.87966204,161309891,0,22.877351760864258,24.3930721282959,18.7070255279541,133.36224365234375,3.089998960494995,0.0,0.08102413266897202,99
1673333254.97966003,161409889,0,22.795686721801758,24.38380241394043,19.473018646240234,133.9031982421875,3.102330207824707,0.0,0.08155467361211777,99
1673333255.07960916,161509838,0,22.699377059936523,24.3360652923584,19.918622970581055,134.4562530517578,3.114884376525879,0.0,0.08216878026723862,99
1673333255.17958498,161609814,0,22.70827865600586,24.404354095458984,20.558177947998047,135.0272216796875,3.12785005569458,0.0,0.08250121772289276,99
1673333255.27964497,161709874,0,22.711490631103516,24.489334106445312,21.540870666503906,135.62599182128906,3.141448974609375,0.0,0.08253347873687744,99
1673333255.37968612,161809915,0,22.668546676635742,24.40614891052246,20.98107147216797,136.20909118652344,3.1546669006347656,0.0,0.08281765133142471,99
1673333255.47963500,161909864,0,22.651124954223633,24.438701629638672,21.545133590698242,136.80731201171875,3.168217182159424,0.0,0.08296889066696167,99
1673333255.57960510,162009834,0,22.536428451538086,24.497995376586914,23.656221389770508,137.4642791748047,3.183022975921631,0.0,0.08291967958211899,99
1673333255.67958713,162109816,0,22.55538558959961,24.630393981933594,25.162738800048828,138.16317749023438,3.198786735534668,0.0,0.08246355503797531,99
1673333255.77962899,162209858,0,22.586118698120117,24.584762573242188,24.313884735107422,138.83889770507812,3.2140486240386963,0.0,0.08220177888870239,99
1673333255.87964010,162309869,0,22.6337947845459,24.497390747070312,22.66036605834961,139.46847534179688,3.2282981872558594,0.0,0.08224031329154968,99
1673333255.97962594,162409855,0,22.649398803710938,24.412139892578125,21.434038162231445,140.0637664794922,3.241781234741211,0.0,0.08224031329154968,99
1673333256.07962108,162509850,0,22.67138671875,24.478595733642578,21.963354110717773,140.67385864257812,3.255613088607788,0.0,0.08228296786546707,99
1673333256.17965007,162609879,0,22.584012985229492,24.44087028503418,22.524415969848633,141.2998504638672,3.2697503566741943,0.0,0.08243753015995026,99
1673333256.27962613,162709855,0,22.674962997436523,24.459697723388672,21.667888641357422,141.90151977539062,3.283393383026123,0.0,0.08236768841743469,99
1673333256.37965107,162809880,0,22.604211807250977,24.348400115966797,21.17563819885254,142.4900360107422,3.296696186065674,0.0,0.08236768841743469,99
1673333256.47966194,162909891,0,22.56199073791504,24.32268524169922,21.37603759765625,143.08383178710938,3.310093641281128,0.0,0.08236768841743469,99
1673333256.57959414,163009823,0,22.657920837402344,24.42729377746582,21.487131118774414,143.68043518066406,3.3236114978790283,0.0,0.08234568685293198,99
1673333256.67960310,163109832,0,22.593393325805664,24.29342269897461,20.64502716064453,144.25401306152344,3.3365705013275146,0.0,0.08234568685293198,99
1673333256.77962899,163209858,0,22.779027938842773,24.439603805541992,20.146333694458008,144.81382751464844,3.349322557449341,0.0,0.08242575079202652,99
1673333256.87968206,163309911,0,22.70741844177246,24.303712844848633,19.439260482788086,145.3539276123047,3.361586809158325,0.0,0.08211705833673477,99
1673333256.97964096,163409870,0,22.705533981323242,24.346813201904297,20.017337799072266,145.9099884033203,3.3742125034332275,0.0,0.08199284970760345,99
1673333257.07962298,163509852,0,22.809858322143555,24.38273811340332,19.183008193969727,146.4427947998047,3.3863658905029297,0.0,0.08199336379766464,99
1673333257.17959905,163609828,0,22.90300941467285,24.58167266845703,20.33844566345215,147.00765991210938,3.3993029594421387,0.0,0.08253644406795502,99
1673333257.27962017,163709849,0,22.904541015625,24.673274993896484,21.42974281311035,147.60308837890625,3.4129409790039062,0.0,0.08253644406795502,99
1673333257.37963295,163809862,0,23.069307327270508,24.806684494018555,21.049814224243164,148.1879425048828,3.4264333248138428,0.0,0.08253644406795502,99
1673333257.47961617,163909845,0,22.935850143432617,24.67441749572754,21.064237594604492,148.77294921875,3.4398510456085205,0.0,0.08253644406795502,99
1673333257.57968998,164009919,0,23.105878829956055,24.779939651489258,20.1285343170166,149.3325958251953,3.452781915664673,0.0,0.08316852897405624,99
1673333257.67959404,164109823,0,23.069307327270508,24.722543716430664,19.79709243774414,149.8820343017578,3.465456962585449,0.0,0.08350902050733566,99
1673333257.77964997,164209879,0,23.221670150756836,24.853504180908203,19.395376205444336,150.421142578125,3.477975845336914,0.0,0.08413518965244293,99
1673333257.87961316,164309842,0,23.020383834838867,24.637983322143555,19.248376846313477,150.95559692382812,3.490279197692871,0.0,0.08403822034597397,99
1673333257.97968411,164409913,0,23.141204833984375,24.576751708984375,17.132070541381836,151.43191528320312,3.5013017654418945,0.0,0.08379295468330383,99
1673333258.07966113,164509890,0,22.963228225708008,24.4672794342041,17.949623107910156,151.93035888671875,3.5127477645874023,0.0,0.08379295468330383,99
1673333258.17961097,164609840,0,22.756914138793945,24.433061599731445,19.869827270507812,152.48214721679688,3.5253047943115234,0.0,0.08435643464326859,99
1673333258.27960706,164709836,0,22.747817993164062,24.442100524902344,19.973554611206055,153.03700256347656,3.537926435470581,0.0,0.08482632786035538,99
1673333258.37961602,164809845,0,22.686643600463867,24.3656063079834,19.642728805541992,153.5827178955078,3.550307035446167,0.0,0.08547505736351013,99
1673333258.47965002,164909879,0,22.75825309753418,24.41082763671875,19.333999633789062,154.12001037597656,3.562534809112549,0.0,0.08547505736351013,99
1673333258.57972407,165009953,0,22.804208755493164,24.44933319091797,19.246841430664062,154.65509033203125,3.5747368335723877,0.0,0.08547505736351013,99
1673333258.67960215,165109831,0,22.791166305541992,24.485811233520508,19.804901123046875,155.20460510253906,3.5872607231140137,0.0,0.08556690067052841,99
1673333258.77960300,165209832,0,22.82766342163086,24.556596755981445,20.23778533935547,155.76673889160156,3.600093126296997,0.0,0.08543097227811813,99
1673333258.87967205,165309901,0,22.783815383911133,24.53948974609375,20.56707763671875,156.3385467529297,3.613121271133423,0.0,0.08536332100629807,99
1673333258.97961712,165409846,0,22.74494743347168,24.46038246154785,20.052732467651367,156.8953094482422,3.6257848739624023,0.0,0.08554615825414658,99
1673333259.07964516,165509874,0,22.763999938964844,24.469913482666016,19.910642623901367,157.44857788085938,3.6383795738220215,0.0,0.08567849546670914,99
1673333259.17964602,165609875,0,22.848438262939453,24.557849884033203,19.951459884643555,158.00274658203125,3.6510415077209473,0.0,0.08567849546670914,99
1673333259.27958798,165709817,0,22.874671936035156,24.566482543945312,19.714540481567383,158.55018615722656,3.6635642051696777,0.0,0.08581539243459702,99
1673333259.37959003,165809819,0,22.874671936035156,24.541385650634766,19.413175582885742,159.08949279785156,3.67590069770813,0.0,0.08585473150014877,99
1673333259.47960496,165909834,0,22.899669647216797,24.58420753479004,19.587011337280273,159.63369750976562,3.6883628368377686,0.0,0.08600277453660965,99
1673333259.57965016,166009879,0,22.897937774658203,24.5870418548584,19.61173439025879,160.1787567138672,3.700843334197998,0.0,0.08612721413373947,99
1673333259.67973709,166109966,0,22.770606994628906,24.48281478881836,19.831771850585938,160.73016357421875,3.7133991718292236,0.0,0.08633657544851303,99
1673333259.77966809,166209897,0,22.886064529418945,24.612632751464844,19.998106002807617,161.28533935546875,3.726104736328125,0.0,0.08633657544851303,99
1673333259.87960315,166309832,0,22.81062126159668,24.541702270507812,20.04107093811035,161.84170532226562,3.7387959957122803,0.0,0.08637665212154388,99
1673333259.97964406,166409873,0,22.766677856445312,24.45574378967285,19.554651260375977,162.38514709472656,3.7511682510375977,0.0,0.08637665212154388,99
1673333260.07966113,166509890,0,22.835132598876953,24.54747200012207,19.824100494384766,162.93597412109375,3.763746500015259,0.0,0.08637665212154388,99
1673333260.17962098,166609850,0,22.85456657409668,24.56534194946289,19.805994033813477,163.4859619140625,3.7763164043426514,0.0,0.08637665212154388,99
1673333260.27960205,166709831,0,22.90052032470703,24.59921646118164,19.63134002685547,164.03121948242188,3.7888031005859375,0.0,0.08652979880571365,99
1673333260.37965798,166809887,0,22.90042495727539,24.6047420501709,19.66543960571289,164.57778930664062,3.8013195991516113,0.0,0.08666560798883438,99
1673333260.47962213,166909851,0,22.799230575561523,24.550569534301758,20.197277069091797,165.1386260986328,3.8141062259674072,0.0,0.08671161532402039,99
1673333260.57958794,167009817,0,22.815696716308594,24.498271942138672,19.40427589416504,165.67758178710938,3.8264029026031494,0.0,0.08671161532402039,99
1673333260.67967701,167109906,0,22.867395401000977,24.546520233154297,19.368371963500977,166.2161102294922,3.8387176990509033,0.0,0.0866941586136818,99
1673333260.77974105,167209970,0,22.90530776977539,24.653820037841797,20.16873550415039,166.77671813964844,3.8515586853027344,0.0,0.0866941586136818,99
1673333260.87961698,167309846,0,22.76648712158203,24.516664505004883,20.150938034057617,167.33584594726562,3.864288091659546,0.0,0.08685341477394104,99
1673333260.97961211,167409841,0,22.774242401123047,24.518518447875977,20.05181121826172,167.89285278320312,3.8769733905792236,0.0,0.08698844909667969,99
1673333261.07962799,167509857,0,22.790102005004883,24.60441780090332,20.891630172729492,168.4732666015625,3.8902010917663574,0.0,0.08684411644935608,98
1673333261.17963195,167609861,0,22.805166244506836,24.615602493286133,20.885936737060547,169.05355834960938,3.9034345149993896,0.0,0.08668211102485657,98
1673333261.27960801,167709837,0,22.827470779418945,24.603166580200195,20.485139846801758,169.62249755859375,3.916421890258789,0.0,0.08668211102485657,98
1673333261.37960815,167809837,0,22.84288787841797,24.509681701660156,19.268325805664062,170.15777587890625,3.9286491870880127,0.0,0.08650429546833038,98
1673333261.47959614,167909825,0,22.834461212158203,24.568069458007812,20.03615951538086,170.7143096923828,3.941357374191284,0.0,0.08652402460575104,98
1673333261.57969904,168009928,0,22.79549789428711,24.437206268310547,18.974018096923828,171.241943359375,3.9533851146698,0.0,0.08652402460575104,98
1673333261.67959809,168109827,0,22.8415470123291,24.507314682006836,19.27292823791504,171.7768096923828,3.965602159500122,0.0,0.08643045276403427,98
1673333261.77961111,168209840,0,22.770414352416992,24.539186477661133,20.468259811401367,172.3454132080078,3.9785497188568115,0.0,0.0864153504371643,98
1673333261.87963295,168309862,0,22.8841495513916,24.543197631835938,19.193443298339844,172.8787841796875,3.990755558013916,0.0,0.08643822371959686,98
1673333261.97963405,168409863,0,22.791059494018555,24.523456573486328,20.032682418823242,173.435302734375,4.003439426422119,0.0,0.08647854626178741,98
1673333262.07959914,168509828,0,22.79252815246582,24.42745590209961,18.905582427978516,173.96031188964844,4.015405654907227,0.0,0.08647854626178741,98
1673333262.17962813,168609857,0,22.826133728027344,24.491979598999023,19.278451919555664,174.4960174560547,4.0276336669921875,0.0,0.08640969544649124,98
1673333262.27963710,168709866,0,22.72311782836914,24.48269271850586,20.342126846313477,175.06117248535156,4.040475845336914,0.0,0.08649908006191254,98
1673333262.37959695,168809826,0,22.820005416870117,24.596038818359375,20.532400131225586,175.63133239746094,4.0534868240356445,0.0,0.08649908006191254,98
1673333262.47965598,168909885,0,22.839536666870117,24.536298751831055,19.607742309570312,176.17636108398438,4.065935134887695,0.0,0.08653534203767776,98
1673333262.57965016,169009879,0,22.72139549255371,24.471527099609375,20.18561553955078,176.73709106445312,4.078675746917725,0.0,0.08670192956924438,98
1673333262.67963004,169109859,0,22.84547233581543,24.663454055786133,20.968181610107422,177.31947326660156,4.091980457305908,0.0,0.08670192956924438,98
1673333262.77967000,169209899,0,22.885841369628906,24.599790573120117,19.733295440673828,177.86788940429688,4.104531288146973,0.0,0.08685565739870071,98
1673333262.87962103,169309850,0,22.877065658569336,24.570064544677734,19.4831485748291,178.4088592529297,4.116907119750977,0.0,0.08689554780721664,98
1673333262.97962213,169409851,0,22.805644989013672,24.49435043334961,19.433738708496094,178.94874572753906,4.1292195320129395,0.0,0.08689554780721664,98
1673333263.07961917,169509848,0,22.880512237548828,24.5709228515625,19.439260482788086,179.48870849609375,4.141574382781982,0.0,0.08695858716964722,98
1673333263.17966294,169609892,0,22.848630905151367,24.56155776977539,19.692750930786133,180.03604125976562,4.154080390930176,0.0,0.08698264509439468,98
1673333263.27960014,169709829,0,22.793006896972656,24.49629783630371,19.58196449279785,180.57969665527344,4.1664719581604,0.0,0.08698264509439468,98
1673333263.37971401,169809943,0,22.813974380493164,24.53789710998535,19.814279556274414,181.13076782226562,4.179044246673584,0.0,0.08700409531593323,98
1673333263.47960997,169909839,0,22.845184326171875,24.573246002197266,19.861846923828125,181.68194580078125,4.191636085510254,0.0,0.08700409531593323,98
1673333263.57966208,170009891,0,22.775487899780273,24.467931747436523,19.45245933532715,182.22262573242188,4.20395040512085,0.0,0.08700409531593323,98
1673333263.67961311,170109842,0,22.784147262573242,24.477083206176758,19.458118438720703,182.76287841796875,4.216259956359863,0.0,0.08700409531593323,98
1673333263.77964401,170209873,0,22.83943748474121,24.60658836364746,20.311132431030273,183.3273162841797,4.229151248931885,0.0,0.08700409531593323,98
1673333263.87968302,170309912,0,22.784582138061523,24.530155181884766,20.05672264099121,183.88470458984375,4.241850852966309,0.0,0.08703181147575378,98
1673333263.97959614,170409825,0,22.78113555908203,24.51019287109375,19.847423553466797,184.4355926513672,4.254400730133057,0.0,0.08711746335029602,98
1673333264.07960105,170509830,0,22.82124900817871,24.579822540283203,20.186229705810547,184.99639892578125,4.2671990394592285,0.0,0.08711746335029602,98
1673333264.17963099,170609860,0,22.861459732055664,24.600141525268555,19.957902908325195,185.55099487304688,4.27987813949585,0.0,0.08711746335029602,98
1673333264.27969503,170709924,0,22.874767303466797,24.617300033569336,20.00209617614746,186.1070098876953,4.292596817016602,0.0,0.08711746335029602,98
1673333264.37963796,170809867,0,22.830345153808594,24.549707412719727,19.74431037902832,186.6551055908203,4.305109977722168,0.0,0.0870814174413681,98
1673333264.47962499,170909854,0,22.83148193359375,24.545757293701172,19.69476318359375,187.20223999023438,4.317602157592773,0.0,0.08704221993684769,98
1673333264.57960510,171009834,0,22.79166603088379,24.519710540771484,19.852947235107422,187.75364685058594,4.330169677734375,0.0,0.08704221993684769,98
1673333264.67963195,171109861,0,22.806888580322266,24.559280395507812,20.138660430908203,188.31324768066406,4.34293270111084,0.0,0.08701633661985397,98
1673333264.77967405,171209903,0,22.814929962158203,24.561317443847656,20.07636260986328,188.87120056152344,4.3556623458862305,0.0,0.0869872123003006,98
1673333264.87973499,171309964,0,22.75404167175293,24.52315902709961,20.31635093688965,189.43592834472656,4.368512153625488,0.0,0.0870785191655159,98
1673333264.97959304,171409822,0,22.79090118408203,24.537479400634766,20.04905128479004,189.99209594726562,4.381187915802002,0.0,0.08711529523134232,98
1673333265.07961607,171509845,0,22.74178695678711,24.48925018310547,20.017745971679688,190.54824829101562,4.39383602142334,0.0,0.08729566633701324,98
1673333265.17965198,171609881,0,22.79654884338379,24.60474395751953,20.713464736938477,191.12393188476562,4.4069600105285645,0.0,0.08729566633701324,98
1673333265.27961898,171709848,0,22.618955612182617,24.456098556518555,20.974319458007812,191.70631408691406,4.420132637023926,0.0,0.08759009838104248,98
1673333265.37964702,171809876,0,22.771060943603516,24.616880416870117,21.07337760925293,192.2919921875,4.433469295501709,0.0,0.08759009838104248,98
1673333265.47964096,171909870,0,22.694589614868164,24.46950340270996,20.263872146606445,192.8548583984375,4.4462432861328125,0.0,0.08759009838104248,98
1673333265.57959294,172009822,0,22.72532081604004,24.517730712890625,20.44800567626953,193.42266845703125,4.459146976470947,0.0,0.08765696734189987,98
1673333265.67958808,172109817,0,22.73029899597168,24.586515426635742,21.212772369384766,194.01193237304688,4.472540855407715,0.0,0.08750469237565994,98
1673333265.77963614,172209865,0,22.740447998046875,24.600425720214844,21.299007415771484,194.6038360595703,4.486001014709473,0.0,0.08732699602842331,98
1673333265.87966299,172309892,0,22.75002098083496,24.543025970458984,20.536081314086914,195.17454528808594,4.4989848136901855,0.0,0.08730997890233994,98
1673333265.97961712,172409846,0,22.788890838623047,24.553874969482422,20.211393356323242,195.7357635498047,4.511774063110352,0.0,0.08732619136571884,98
1673333266.07963109,172509860,0,22.85542869567871,24.58745574951172,19.810291290283203,196.2861785888672,4.524353981018066,0.0,0.0874306857585907,98
1673333266.17959905,172609828,0,22.891584396362305,24.58542251586914,19.356504440307617,196.82373046875,4.536659240722656,0.0,0.08750741183757782,98
1673333266.27967405,172709903,0,22.869693756103516,24.593616485595703,19.681703567504883,197.3708953857422,4.549172878265381,0.0,0.08759011328220367,98
1673333266.37960410,172809833,0,22.82929039001465,24.561187744140625,19.778066635131836,197.91995239257812,4.561707496643066,0.0,0.08756659924983978,98
1673333266.47964597,172909875,0,22.798559188842773,24.506996154785156,19.51015281677246,198.46212768554688,4.574068546295166,0.0,0.08756659924983978,98
1673333266.57963109,173009860,0,22.79587745666504,24.50960922241211,19.57061004638672,199.00567626953125,4.586459159851074,0.0,0.08756659924983978,98
1673333266.67964315,173109872,0,22.884340286254883,24.608083724975586,19.649173736572266,199.5516815185547,4.598954200744629,0.0,0.08772596716880798,98
1673333266.77959704,173209826,0,22.883384704589844,24.577518463134766,19.30238914489746,200.087646484375,4.6112189292907715,0.0,0.08776804059743881,98
1673333266.87960005,173309829,0,22.860883712768555,24.575429916381836,19.528871536254883,200.6301727294922,4.623621940612793,0.0,0.08779546618461609,98
1673333266.97966909,173409898,0,22.85198402404785,24.52948570251465,19.129610061645508,201.16195678710938,4.6357741355896,0.0,0.08769135922193527,98
1673333267.07959509,173509824,0,22.911584854125977,24.56760025024414,18.879802703857422,201.68605041503906,4.647781848907471,0.0,0.08771362155675888,98
1673333267.17960095,173609830,0,22.993003845214844,24.62110710144043,18.526880264282227,202.2007598876953,4.659616470336914,0.0,0.08787787705659866,98
1673333267.27963400,173709863,0,23.005544662475586,24.67035484313965,18.88778305053711,202.7256317138672,4.671691417694092,0.0,0.08814217895269394,98
1673333267.37965894,173809888,0,22.86663055419922,24.582988739013672,19.46504020690918,203.26649475097656,4.684059143066406,0.0,0.08817647397518158,98
1673333267.47967601,173909905,0,22.783336639404297,24.543771743774414,19.930896759033203,203.82028198242188,4.696676254272461,0.0,0.08832696825265884,98
1673333267.57961702,174009846,0,22.722543716430664,24.523645401000977,20.346426010131836,204.38516235351562,4.709511756896973,0.0,0.08852173388004303,98
1673333267.67959809,174109827,0,22.68779182434082,24.542953491210938,20.930435180664062,204.9665069580078,4.722701072692871,0.0,0.0886346623301506,98
1673333267.77962804,174209857,0,22.755189895629883,24.589210510253906,20.70180320739746,205.54177856445312,4.7357916831970215,0.0,0.08859226852655411,98
1673333267.87969899,174309928,0,22.819143295288086,24.590288162231445,19.992103576660156,206.09754943847656,4.74847412109375,0.0,0.08859226852655411,98
1673333267.97961712,174409846,0,22.771465301513672,24.509511947631836,19.618484497070312,206.64210510253906,4.760874271392822,0.0,0.08859226852655411,98
1673333268.07962012,174509849,0,22.805644989013672,24.585506439208984,20.090478897094727,207.2002410888672,4.7736029624938965,0.0,0.08859226852655411,98
1673333268.17977810,174610007,0,22.703969955444336,24.477506637573242,19.954835891723633,207.75546264648438,4.786208629608154,0.0,0.08887755125761032,98
1673333268.27962494,174709854,0,22.754615783691406,24.574438095092773,20.486059188842773,208.32351684570312,4.799134254455566,0.0,0.08883223682641983,98
1673333268.37966108,174809890,0,22.701004028320312,24.479307174682617,20.01866912841797,208.8800048828125,4.811767101287842,0.0,0.08883223682641983,98
1673333268.47959805,174909827,0,22.651124954223633,24.475488662719727,20.486059188842773,209.44876098632812,4.824649810791016,0.0,0.08905387669801712,98
1673333268.57959199,175009821,0,22.704448699951172,24.503509521484375,20.17702293395996,210.00924682617188,4.837375164031982,0.0,0.08916381001472473,98
1673333268.67963004,175109859,0,22.743297576904297,24.501201629638672,19.73602294921875,210.55772399902344,4.849849224090576,0.0,0.08907085657119751,98
1673333268.77964997,175209879,0,22.713926315307617,24.54674530029297,20.59040069580078,211.1298370361328,4.862843990325928,0.0,0.08901327848434448,98
1673333268.87963200,175309861,0,22.694875717163086,24.60391616821289,21.501554489135742,211.72703552246094,4.876397132873535,0.0,0.08878614753484726,98
1673333268.97968316,175409912,0,22.62230682373047,24.517375946044922,21.32847023010254,212.31983947753906,4.88980770111084,0.0,0.08885158598423004,98
1673333269.07959700,175509826,0,22.630443572998047,24.501909255981445,21.037845611572266,212.9037628173828,4.903022289276123,0.0,0.0889570564031601,98
1673333269.17961001,175609839,0,22.617040634155273,24.5239200592041,21.42974281311035,213.49916076660156,4.916488170623779,0.0,0.08898283541202545,98
1673333269.27960110,175709830,0,22.60842514038086,24.571088790893555,22.087099075317383,214.11268615722656,4.930359363555908,0.0,0.08886021375656128,98
1673333269.37968516,175809914,0,22.627477645874023,24.601144790649414,22.261411666870117,214.73162841796875,4.944364547729492,0.0,0.0886586606502533,98
1673333269.47961712,175909846,0,22.541929244995117,24.535873413085938,22.48438262939453,215.35574340820312,4.958433151245117,0.0,0.08868131786584854,98
1673333269.57959914,176009828,0,22.51728057861328,24.516775131225586,22.52686882019043,215.98150634765625,4.9725236892700195,0.0,0.08876042813062668,98
1673333269.67964911,176109878,0,22.536333084106445,24.620820999145508,23.551265716552734,216.63609313964844,4.98727560043335,0.0,0.08850850909948349,98
1673333269.77961707,176209846,0,22.45725440979004,24.576343536376953,23.965564727783203,217.30165100097656,5.002222061157227,0.0,0.0884222537279129,98
1673333269.87965798,176309887,0,22.4918155670166,24.615116119384766,24.06683921813965,217.9705047607422,5.017265796661377,0.0,0.0882251188158989,98
1673333269.97965002,176409879,0,22.417234420776367,24.540752410888672,24.054256439208984,218.638671875,5.0322442054748535,0.0,0.08828031271696091,98
1673333270.07963610,176509865,0,22.479942321777344,24.617006301879883,24.259258270263672,219.3125,5.047391891479492,0.0,0.08809272944927216,98
1673333270.17968416,176609913,0,22.452085494995117,24.606550216674805,24.494335174560547,219.99327087402344,5.062676429748535,0.0,0.0879577100276947,98
1673333270.27961016,176709839,0,22.48855972290039,24.653701782226562,24.690744400024414,220.67868041992188,5.078090190887451,0.0,0.08769042789936066,98
1673333270.37965298,176809882,0,22.49948501586914,24.628536224365234,24.32366943359375,221.35467529296875,5.093299865722656,0.0,0.08753001689910889,98
