timestamp,TimeUS,ThI,ABst,ThO,ThH,DAlt,Alt,BAlt,DSAlt,SAlt,TAlt,DCRt,CRt
1656403447.76431584,79888943,0.0,0.0,0.0,0.12618795037269592,0.0,-2.1624743938446045,-2.15,nan,0.0,0.007525557652115822,0,0
1656403447.86242199,79987049,0.0,0.0,0.0,0.12618795037269592,0.0,-2.160991668701172,-2.0300000000000002,nan,0.0,0.009008282795548439,0,3
1656403447.96242189,80087049,0.0,0.0,0.0,0.12618795037269592,0.0,-2.159531593322754,-1.94,nan,0.0,0.010545605793595314,0,3
1656403448.06243896,80187066,0.0,0.0,0.0,0.12618795037269592,0.0,-2.159071922302246,-2.27,nan,0.0,0.011005276814103127,0,3
1656403448.16246200,80287089,0.0,0.0,0.0,0.12618795037269592,0.0,-2.159000873565674,-1.84,nan,0.0,0.011076325550675392,0,3
1656403448.26240993,80387037,0.0,0.0,0.0,0.12618795037269592,0.0,-2.158933401107788,-1.99,nan,0.0,0.011143798008561134,0,3
1656403448.36245298,80487080,0.0,0.0,0.0,0.12618795037269592,0.0,-2.1581661701202393,-2.07,nan,0.0,0.011911028996109962,0,2
1656403448.46245885,80587086,0.0,0.0,0.0,0.12618795037269592,0.0,-2.1590189933776855,-2.18,nan,0.0,0.011058205738663673,0,2
1656403448.56244183,80687069,0.0,0.0,0.0,0.12618795037269592,0.0,-2.1602792739868164,-2.21,nan,0.0,0.009797925129532814,0,2
1656403448.66243100,80787058,0.0,0.0,0.0,0.12618795037269592,0.0,-2.160743474960327,-1.79,nan,0.0,0.009333724156022072,0,2
1656403448.76242399,80887051,0.0,0.0,0.0,0.12618795037269592,0.0,-2.1597893238067627,-1.97,nan,0.0,0.010287875309586525,0,2
1656403448.86246991,80987097,0.0,0.0,0.0,0.12618795037269592,0.0,-2.1594159603118896,-1.9100000000000001,nan,0.0,0.010894889011979103,0,2
1656403448.96241379,81087041,0.0,0.0,0.0,0.12618795037269592,0.0,-2.158796787261963,-1.96,nan,0.0,0.012205475941300392,0,1
1656403449.06243587,81187063,0.0,0.0,0.0,0.12618795037269592,0.0,-2.1565370559692383,-2.2600000000000002,nan,0.0,0.014465207234025002,0,1
1656403449.16245794,81287085,0.0,0.0,0.0,0.12618795037269592,0.0,-2.154136896133423,-1.68,nan,0.0,0.01686536706984043,0,1
1656403449.26244378,81387071,0.0,0.0,0.0,0.12618795037269592,0.0,-2.153182029724121,-1.87,nan,0.0,0.01782023347914219,0,1
1656403449.36240196,81487029,0.0,0.0,0.0,0.12618795037269592,0.0,-2.1520612239837646,-1.8800000000000001,nan,0.0,0.019286269322037697,0,1
1656403449.46242881,81587056,0.0,0.0,0.0,0.12618795037269592,0.0,-2.1493992805480957,-2.0100000000000002,nan,0.0,0.02210366167128086,0,1
1656403449.56244993,81687077,0.0,0.0,0.0,0.12618795037269592,0.0,-2.146225929260254,-2.31,nan,0.0,0.025277012959122658,0,1
1656403449.66237879,81787006,0.0,0.0,0.0,0.12618795037269592,0.0,-2.1436572074890137,-2.06,nan,0.0,0.028079384937882423,0,1
1656403449.76240683,81887034,0.0,0.0,0.0,0.12618795037269592,0.0,-2.1414570808410645,-2.3000000000000003,nan,0.0,0.03043496049940586,0,1
1656403449.86240888,81987036,0.0,0.0,0.0,0.12618795037269592,0.0,-2.14066481590271,-1.96,nan,0.0,0.031572453677654266,0,1
1656403449.96243477,82087062,0.0,0.0,0.0,0.12618795037269592,0.0,-2.139968156814575,-2.08,nan,0.0,0.03226911276578903,0,0
1656403450.06244779,82187075,0.0,0.0,0.0,0.12618795037269592,0.0,-2.1392693519592285,-2.2,nan,0.0,0.03320156782865524,0,0
1656403450.16244888,82287076,0.0,0.0,0.0,0.12618795037269592,0.0,-2.138852834701538,-2.17,nan,0.0,0.03361808508634567,0,0
1656403450.26243401,82387061,0.0,0.0,0.0,0.12618795037269592,0.0,-2.1414871215820312,-1.76,nan,0.0,0.030983800068497658,0,0
1656403450.36243987,82487067,0.0,0.0,0.0,0.12618795037269592,0.0,-2.1438324451446533,-2.2600000000000002,nan,0.0,0.028638476505875587,0,0
1656403450.46246099,82587088,0.0,0.0,0.0,0.12618795037269592,0.0,-2.143385887145996,-2.0300000000000002,nan,0.0,0.029240483418107033,0,0
1656403450.56246591,82687093,3.2736893444962334e-06,1.2300006346777081e-08,3.2859877592272824e-06,0.12618795037269592,0.0,-2.141852617263794,-1.83,nan,0.0,0.03146516531705856,0,0
1656403450.66244388,82787071,3.2736893444962334e-06,1.23027348308824e-08,3.2859929888218176e-06,0.12618795037269592,0.0,-2.1404716968536377,-2.1,nan,0.0,0.03284608572721481,0,0
1656403450.76244593,82887073,9.847444744082168e-06,3.662808012450114e-08,9.884128303383477e-06,0.12618795037269592,0.0,-2.1392784118652344,-1.95,nan,0.0,0.0343855544924736,0,0
1656403450.86245179,82987079,3.2736893444962334e-06,1.2165401130914688e-08,3.2858672511792975e-06,0.12618795037269592,0.0,-2.139914035797119,-1.9100000000000001,nan,0.0,0.03374993056058884,0,0
1656403450.96241093,83087038,3.2736893444962334e-06,1.2164946383563802e-08,9.884076462185476e-06,0.12618795037269592,0.0,-2.140545606613159,-2.11,nan,0.0,0.033273808658123016,0,0
1656403451.06250000,83187127,3.2736893444962334e-06,1.2140390026615933e-08,3.2857888072612695e-06,0.12618795037269592,0.0,-2.1432816982269287,-1.97,nan,0.0,0.030537718906998634,0,0
1656403451.16244793,83287075,9.847444744082168e-06,3.640889190137386e-08,3.2858340546226827e-06,0.12618795037269592,0.0,-2.1462061405181885,-2.22,nan,0.0,0.02761327661573887,0,0
1656403451.26242685,83387054,3.2736893444962334e-06,1.2121745385229588e-08,3.2858199574548053e-06,0.12618795037269592,0.0,-2.1500813961029053,-2.07,nan,0.0,0.023391837254166603,0,0
1656403451.36243987,83487067,9.847444744082168e-06,3.6462552088778466e-08,9.88388910627691e-06,0.12618795037269592,0.0,-2.1538143157958984,-2.35,nan,0.0,0.01965891756117344,0,0
1656403451.46243882,83587066,9.847444744082168e-06,3.659170033643022e-08,9.883967322821263e-06,0.12618795037269592,0.0,-2.158729076385498,-2.19,nan,0.0,0.01474415697157383,0,0
1656403451.56243992,83687067,3.2736893444962334e-06,1.2142663763370365e-08,9.883971870294772e-06,0.12618795037269592,0.0,-2.16373610496521,-2.05,nan,0.0,0.010083073750138283,0,-1
1656403451.66243196,83787059,9.847444744082168e-06,3.652621671790257e-08,9.8840373539133e-06,0.12618795037269592,0.0,-2.1677279472351074,-1.87,nan,0.0,0.006091469898819923,0,0
1656403451.76247597,83887103,9.847444744082168e-06,3.6418896343093365e-08,9.883946404443122e-06,0.12618795037269592,0.0,-2.170104742050171,-2.27,nan,0.0,0.003714675083756447,0,0
1656403451.86246490,83987092,3.2736893444962334e-06,1.211697053804528e-08,3.285822458565235e-06,0.12618795037269592,0.0,-2.1733896732330322,-2.39,nan,0.0,0.0005851928144693375,0,-1
1656403451.96249294,84087120,3.2736893444962334e-06,1.2133796190028079e-08,3.285811089881463e-06,0.12618795037269592,0.0,-2.177757501602173,-2.2600000000000002,nan,0.0,-0.0037826355546712875,0,-1
1656403452.06245780,84187085,3.2736893444962334e-06,1.2133796190028079e-08,3.2858301892702e-06,0.12618795037269592,0.0,-2.1839802265167236,-1.92,nan,0.0,-0.010005360469222069,0,-1
1656403452.16243696,84287064,3.2736893444962334e-06,1.2150621842010878e-08,3.285856337242876e-06,0.12618795037269592,0.0,-2.189324378967285,-2.23,nan,0.0,-0.014658099040389061,0,-2
1656403452.26244187,84387069,3.2736893444962334e-06,1.2157670425949618e-08,3.2858308713912265e-06,0.12618795037269592,0.0,-2.194763660430908,-1.98,nan,0.0,-0.020097380504012108,0,-2
1656403452.36244392,84487071,3.2736893444962334e-06,1.215357769979164e-08,3.2858165468496736e-06,0.12618795037269592,0.0,-2.199395179748535,-2.0,nan,0.0,-0.024496203288435936,0,-2
1656403452.46245384,84587081,3.2736893444962334e-06,1.2150167094659992e-08,3.285822458565235e-06,0.12618795037269592,0.0,-2.1995179653167725,-1.98,nan,0.0,-0.024272805079817772,0,-2
1656403452.56247592,84687103,3.2736893444962334e-06,1.2156760931247845e-08,3.2858263239177177e-06,0.12618795037269592,0.0,-2.1977057456970215,-2.17,nan,0.0,-0.022460585460066795,0,-2
1656403452.66246796,84787095,3.2736893444962334e-06,1.2157215678598732e-08,3.285818365839077e-06,0.12618795037269592,0.0,-2.1963329315185547,-2.11,nan,0.0,-0.02093232236802578,0,-2
1656403452.76237679,84887004,3.2736893444962334e-06,1.2127429727115668e-08,9.883983693725895e-06,0.12618795037269592,0.0,-2.195497751235962,-2.18,nan,0.0,-0.019405728206038475,0,-2
1656403452.86242199,84987049,9.847444744082168e-06,3.6489836929831654e-08,9.883964594337158e-06,0.12618795037269592,0.0,-2.195775270462036,-2.13,nan,0.0,-0.019683247432112694,0,-2
1656403452.96240091,85087028,3.2736893444962334e-06,1.2149484973633662e-08,3.2858133636182174e-06,0.12618795037269592,0.0,-2.196636915206909,-1.96,nan,0.0,-0.02054489217698574,0,-2
1656403453.06245494,85187082,9.847444744082168e-06,3.654804459074512e-08,9.884014616545755e-06,0.12618795037269592,0.0,-2.1958158016204834,-2.44,nan,0.0,-0.019490128383040428,0,-2
1656403453.16247082,85287098,9.847444744082168e-06,3.649802238214761e-08,3.285841785327648e-06,0.12618795037269592,0.0,-2.195747137069702,-2.17,nan,0.0,-0.019076233729720116,0,-2
1656403453.26244593,85387073,3.2736893444962334e-06,1.2138571037212387e-08,3.285882485215552e-06,0.12618795037269592,0.0,-2.1980226039886475,-2.02,nan,0.0,-0.02119625173509121,0,-2
1656403453.36242795,85487055,3.2736893444962334e-06,1.2172449714853428e-08,9.884151950245723e-06,0.12618795037269592,0.0,-2.2004191875457764,-2.06,nan,0.0,-0.023592835292220116,0,-2
1656403453.46248198,85587109,3.2736893444962334e-06,1.2182226782897487e-08,3.285864522695192e-06,0.12618795037269592,0.0,-2.2022721767425537,-1.97,nan,0.0,-0.02509988099336624,0,-2
1656403453.56243992,85687067,9.847444744082168e-06,3.669902071123943e-08,9.884069186227862e-06,0.12618795037269592,0.0,-2.203526496887207,-2.44,nan,0.0,-0.02635396271944046,0,-2
1656403453.66243577,85787063,9.847444744082168e-06,3.662444214569405e-08,9.8840891951113e-06,0.12618795037269592,0.0,-2.2062268257141113,-2.07,nan,0.0,-0.028821595013141632,0,-3
1656403453.76248598,85887113,3.2736893444962334e-06,1.2168584362370893e-08,3.2858558824955253e-06,0.12618795037269592,0.0,-2.209254741668701,-1.9000000000000001,nan,0.0,-0.03115714341402054,0,-2
1656403453.86245394,85987081,3.2736893444962334e-06,1.2141299521317706e-08,3.2859070415725e-06,0.12618795037269592,0.0,-2.2088353633880615,-2.07,nan,0.0,-0.03073776513338089,0,-3
1656403453.96240091,86087028,3.2736893444962334e-06,1.2181317288195714e-08,3.2858897611731663e-06,0.12618795037269592,0.0,-2.207371711730957,-2.06,nan,0.0,-0.029274113476276398,0,-3
1656403454.06241393,86187041,3.2736893444962334e-06,1.2165855878265575e-08,3.285874299763236e-06,0.12618795037269592,0.0,-2.2049522399902344,-2.12,nan,0.0,-0.02650941163301468,0,-3
1656403454.16243792,86287065,9.847444744082168e-06,3.661989467218518e-08,9.884031896945089e-06,0.12618795037269592,0.0,-2.2027571201324463,-2.0300000000000002,nan,0.0,-0.02423609048128128,0,-2
1656403454.26243401,86387061,3.2736893444962334e-06,1.216972123074811e-08,3.2858754366316134e-06,0.12618795037269592,0.0,-2.2002830505371094,-2.0,nan,0.0,-0.021762019023299217,0,-2
1656403454.36242580,86487053,3.2736893444962334e-06,1.2140390026615933e-08,3.2858492886589374e-06,0.12618795037269592,0.0,-2.1978201866149902,-2.09,nan,0.0,-0.018607741221785545,0,-2
1656403454.46239591,86587023,3.2736893444962334e-06,1.2139253158238716e-08,3.285864977442543e-06,0.12618795037269592,0.0,-2.196683883666992,-1.78,nan,0.0,-0.0174714382737875,0,-2
1656403454.56242585,86687053,9.847444744082168e-06,3.653804014902562e-08,3.285859747848008e-06,0.12618795037269592,0.0,-2.1953914165496826,-2.0,nan,0.0,-0.015833741053938866,0,-3
1656403454.66248679,86787114,9.847444744082168e-06,3.660443326225504e-08,9.884100109047722e-06,0.12618795037269592,0.0,-2.192591667175293,-1.9100000000000001,nan,0.0,-0.013033991679549217,0,-2
1656403454.76245999,86887087,3.2736893444962334e-06,1.2169266483397223e-08,3.2858656595635694e-06,0.12618795037269592,0.0,-2.189446210861206,-1.81,nan,0.0,-0.009197121486067772,0,-3
1656403454.86241293,86987040,9.847444744082168e-06,3.671175363706425e-08,9.88409374258481e-06,0.12618795037269592,0.0,-2.1845543384552,-1.78,nan,0.0,-0.0043052490800619125,0,-2
1656403454.96247578,87087103,9.847444744082168e-06,3.666264092316851e-08,9.884191968012601e-06,0.12618795037269592,0.0,-2.1789534091949463,-1.81,nan,0.0,0.0018755141645669937,0,-3
1656403455.06246901,87187096,3.2736893444962334e-06,1.2202917787362821e-08,3.285904995209421e-06,0.12618795037269592,0.0,-2.172941207885742,-1.99,nan,0.0,0.007887715473771095,0,-3
1656403455.16246700,87287094,3.2736893444962334e-06,1.219154910359066e-08,3.2858749818842625e-06,0.12618795037269592,0.0,-2.1677560806274414,-1.85,nan,0.0,0.013418072834610939,0,-2
1656403455.26245379,87387081,3.2736893444962334e-06,1.2162217899458483e-08,3.2858374652278144e-06,0.12618795037269592,0.0,-2.1599984169006348,-2.04,nan,0.0,0.02117573656141758,0,-2
1656403455.36243582,87487063,3.2736893444962334e-06,1.2181089914520271e-08,3.2858231406862615e-06,0.12618795037269592,0.0,-2.1524412631988525,-1.98,nan,0.0,0.029424304142594337,0,-2
1656403455.46243882,87587066,9.847444744082168e-06,3.648256097221747e-08,9.88404735835502e-06,0.12618795037269592,0.0,-2.145016670227051,-2.07,nan,0.0,0.036848895251750946,0,-2
1656403455.56245899,87687086,9.847444744082168e-06,3.6546225601341575e-08,9.883953680400737e-06,0.12618795037269592,0.0,-2.1383848190307617,-1.9100000000000001,nan,0.0,0.04382693022489548,0,-2
1656403455.66243577,87787063,3.2736893444962334e-06,1.2123564374633133e-08,3.285825414423016e-06,0.12618795037269592,0.0,-2.131439447402954,-2.2800000000000002,nan,0.0,0.050772301852703094,0,-1
1656403455.76246190,87887089,9.847444744082168e-06,3.642708179540932e-08,9.883944585453719e-06,0.12618795037269592,0.0,-2.128108024597168,-2.0300000000000002,nan,0.0,0.05479418486356735,0,-1
1656403455.86244082,87987068,3.2736893444962334e-06,1.2095824786229059e-08,3.2858258691703668e-06,0.12618795037269592,0.0,-2.1248886585235596,-1.84,nan,0.0,0.05801355093717575,0,-1
1656403455.96246099,88087088,3.2736893444962334e-06,1.206558408739511e-08,3.285778348072199e-06,0.12618795037269592,0.0,-2.1185595989227295,-1.7,nan,0.0,0.0646887943148613,0,-1
1656403456.06240797,88187035,3.2736893444962334e-06,1.2086957212886773e-08,9.883741768135224e-06,0.12618795037269592,0.0,-2.1080451011657715,-2.07,nan,0.0,0.0752032920718193,0,-1
1656403456.16243696,88287064,3.2736893444962334e-06,1.2072177923982963e-08,3.2857606129255146e-06,0.12618795037269592,0.0,-2.0984957218170166,-1.9100000000000001,nan,0.0,0.08544313162565231,0,-1
1656403456.26244688,88387074,3.2736893444962334e-06,1.2021700968034565e-08,3.285774710093392e-06,0.12618795037269592,0.0,-2.0914907455444336,-1.99,nan,0.0,0.09244810789823532,0,-1
1656403456.36244297,88487070,9.847444744082168e-06,3.6316123441793025e-08,3.2857508358574705e-06,0.12618795037269592,0.0,-2.085893154144287,-1.9100000000000001,nan,0.0,0.09854733198881149,0,-1
1656403456.46244788,88587075,9.847444744082168e-06,3.632430889410898e-08,9.883934581012e-06,0.12618795037269592,0.0,-2.082105875015259,-1.93,nan,0.0,0.10233461111783981,0,-1
1656403456.56248188,88687109,3.2736893444962334e-06,1.2078771760570817e-08,3.285774255346041e-06,0.12618795037269592,0.0,-2.078691244125366,-1.8800000000000001,nan,0.0,0.10609542578458786,0,-1
1656403456.66244698,88787074,3.2736893444962334e-06,1.2046712072333321e-08,3.2857622045412427e-06,0.12618795037269592,0.0,-2.0739693641662598,-1.94,nan,0.0,0.1108173057436943,0,-1
1656403456.76243782,88887065,3.2736893444962334e-06,1.2048985809087753e-08,3.285758793936111e-06,0.12618795037269592,0.0,-2.068997859954834,-1.99,nan,0.0,0.11648022383451462,0,-1
1656403456.86245990,88987087,9.847444744082168e-06,3.6316123441793025e-08,9.883777238428593e-06,0.12618795037269592,0.0,-2.063300609588623,-2.0100000000000002,nan,0.0,0.12275730818510056,0,-1
1656403456.96245480,89087082,3.2736893444962334e-06,1.207058630825486e-08,9.883816346700769e-06,0.12618795037269592,0.0,-2.058309316635132,-2.05,nan,0.0,0.12774860858917236,0,-1
1656403457.06243682,89187064,9.847444744082168e-06,3.6377969081513584e-08,9.883794518827926e-06,0.12618795037269592,0.0,-2.054307460784912,-1.94,nan,0.0,0.13244092464447021,0,-1
1656403457.16243887,89287066,3.2736893444962334e-06,1.209309630212374e-08,3.2857856240298133e-06,0.12618795037269592,0.0,-2.0506138801574707,-2.33,nan,0.0,0.1364806890487671,0,-1
1656403457.26247478,89387102,3.2736893444962334e-06,1.2090822565369308e-08,3.28579926645034e-06,0.12618795037269592,0.0,-2.0493457317352295,-1.9100000000000001,nan,0.0,0.13790428638458252,0,-1
1656403457.36245084,89487078,9.847444744082168e-06,3.646346158348024e-08,9.88385272648884e-06,0.12618795037269592,0.0,-2.0482914447784424,-1.7,nan,0.0,0.1393057107925415,0,-1
1656403457.46241593,89587043,9.847444744082168e-06,3.6462552088778466e-08,3.285816774223349e-06,0.12618795037269592,0.0,-2.0450127124786377,-1.95,nan,0.0,0.14327490329742432,0,-1
1656403457.56248283,89687110,9.847444744082168e-06,3.658169589471072e-08,9.883807251753751e-06,0.12618795037269592,0.0,-2.0413122177124023,-1.9000000000000001,nan,0.0,0.1472080945968628,0,-1
1656403457.66242981,89787057,9.847444744082168e-06,3.6558049032464623e-08,3.2858667964319466e-06,0.12618795037269592,0.0,-2.0357792377471924,-1.8,nan,0.0,0.15308821201324463,0,0
1656403457.76244879,89887076,3.2736893444962334e-06,1.2146983863203786e-08,3.2858520171430428e-06,0.12618795037269592,0.0,-2.0288572311401367,-2.06,nan,0.0,0.16077888011932373,0,0
1656403457.86243296,89987060,3.2736893444962334e-06,1.214789335790556e-08,3.285863385826815e-06,0.12618795037269592,0.0,-2.024418830871582,-1.72,nan,0.0,0.16556251049041748,0,0
1656403457.96244788,90087075,3.2736893444962334e-06,1.217676981468685e-08,3.2858902159205172e-06,0.12618795037269592,0.0,-2.0198283195495605,-1.96,nan,0.0,0.1703876256942749,0,0
1656403458.06244683,90187074,3.2736893444962334e-06,1.2212922229082324e-08,3.2858999929885613e-06,0.12618795037269592,0.0,-2.0157482624053955,-2.0100000000000002,nan,0.0,0.17515909671783447,0,0
1656403458.16247296,90287100,3.2736893444962334e-06,1.2216560207889415e-08,3.2858965823834296e-06,0.12618795037269592,0.0,-2.013298273086548,-1.96,nan,0.0,0.17811071872711182,0,-1
1656403458.26247478,90387102,3.2736893444962334e-06,1.2267946658539586e-08,3.285895218141377e-06,0.12618795037269592,0.0,-2.0126962661743164,-1.85,nan,0.0,0.1789463758468628,0,-1
1656403458.36246085,90487088,3.2736893444962334e-06,1.2186546882730909e-08,3.285885895820684e-06,0.12618795037269592,0.0,-2.011928081512451,-2.16,nan,0.0,0.1800607442855835,0,-1
1656403458.46245480,90587082,9.847444744082168e-06,3.659988578874618e-08,9.884065548249055e-06,0.12618795037269592,0.0,-2.0138003826141357,-1.98,nan,0.0,0.17818844318389893,0,-1
1656403458.56244683,90687074,3.2736893444962334e-06,1.2131522453273647e-08,3.2858661143109202e-06,0.12618795037269592,0.0,-2.0167837142944336,-2.09,nan,0.0,0.17605197429656982,0,-1
1656403458.66243887,90787066,9.847444744082168e-06,3.6424353311304e-08,9.883905477181543e-06,0.12618795037269592,0.0,-2.019771099090576,-2.05,nan,0.0,0.17341077327728271,0,-1
1656403458.76241279,90887040,3.2736893444962334e-06,1.2101736501790583e-08,3.2857458336366108e-06,0.12618795037269592,0.0,-2.022916793823242,-1.86,nan,0.0,0.1702650785446167,0,-1
1656403458.86245894,90987086,9.847444744082168e-06,3.6328856367617846e-08,9.883870006888174e-06,0.12618795037269592,0.0,-2.023483991622925,-2.05,nan,0.0,0.1703892946243286,0,-1
1656403458.96245694,91087084,3.2736893444962334e-06,1.2031932783429511e-08,3.2857328733371105e-06,0.12618795037269592,0.0,-2.023460626602173,-1.9000000000000001,nan,0.0,0.17041265964508057,0,-1
1656403459.06239986,91187027,9.847444744082168e-06,3.6297933547757566e-08,3.285747425252339e-06,0.12618795037269592,0.0,-2.0240278244018555,-2.04,nan,0.0,0.170190691947937,0,-1
1656403459.16244698,91287074,3.2736893444962334e-06,1.2101736501790583e-08,3.285752200099523e-06,0.12618795037269592,0.0,-2.025207042694092,-1.75,nan,0.0,0.16924512386322021,0,-1
1656403459.26242590,91387053,3.2736893444962334e-06,1.2115151548641734e-08,3.2857938094821293e-06,0.12618795037269592,0.0,-2.0249009132385254,-1.94,nan,0.0,0.17024362087249756,0,-2
1656403459.36244988,91487077,3.2736893444962334e-06,1.2129930837545544e-08,3.285797674834612e-06,0.12618795037269592,0.0,-2.0239148139953613,-1.92,nan,0.0,0.17122972011566162,0,-1
1656403459.46244478,91587072,3.2736893444962334e-06,1.209514266520273e-08,3.28579926645034e-06,0.12618795037269592,0.0,-2.0228424072265625,-1.52,nan,0.0,0.17280375957489014,0,-1
1656403459.56241798,91687045,9.847444744082168e-06,3.6331584851723164e-08,9.883956408884842e-06,0.12618795037269592,0.0,-2.018796682357788,-1.78,nan,0.0,0.17684948444366455,0,-1
1656403459.66246891,91787096,3.2736893444962334e-06,1.2139707905589603e-08,3.2857822134246817e-06,0.12618795037269592,0.0,-2.012821674346924,-1.81,nan,0.0,0.1833261251449585,0,-1
1656403459.76248097,91887108,9.847444744082168e-06,3.6530764191411436e-08,9.884040082397405e-06,0.12618795037269592,0.0,-2.0068790912628174,-2.02,nan,0.0,0.18926870822906494,0,-1
1656403459.86243892,91987066,3.2736893444962334e-06,1.2101054380764253e-08,3.2858001759450417e-06,0.12618795037269592,0.0,-2.002755641937256,-1.84,nan,0.0,0.194083571434021,0,-1
1656403459.96243882,92087066,3.2736893444962334e-06,1.2137661542510614e-08,3.285791080998024e-06,0.12618795037269592,0.0,-1.999480128288269,-2.08,nan,0.0,0.19751548767089844,0,-1
1656403460.06246281,92187090,3.2736893444962334e-06,1.2076725397491828e-08,3.2857878977665678e-06,0.12618795037269592,0.0,-1.9963334798812866,-2.19,nan,0.0,0.20066213607788086,0,-1
1656403460.16243887,92287066,3.2736893444962334e-06,1.2107648217352107e-08,3.2858079066500068e-06,0.12618795037269592,0.0,-1.9955450296401978,-1.9100000000000001,nan,0.0,0.2017958164215088,0,-1
1656403460.26244497,92387072,3.2736893444962334e-06,1.2120608516852371e-08,3.285809043518384e-06,0.12618795037269592,0.0,-1.9959337711334229,-1.78,nan,0.0,0.20164060592651367,0,-1
1656403460.36238384,92487011,9.847444744082168e-06,3.6502569855656475e-08,9.883948223432526e-06,0.12618795037269592,0.0,-1.9950968027114868,-1.83,nan,0.0,0.20316994190216064,0,-1
1656403460.46247697,92587104,3.2736893444962334e-06,1.2066266208421439e-08,3.2858149552339455e-06,0.12618795037269592,0.0,-1.9933396577835083,-1.75,nan,0.0,0.2049272060394287,0,-1
1656403460.56245589,92687083,9.847444744082168e-06,3.639888745965436e-08,3.2858031318028225e-06,0.12618795037269592,0.0,-1.9905014038085938,-2.11,nan,0.0,0.2079218626022339,0,-1
1656403460.66238999,92787017,9.847444744082168e-06,3.649438440334052e-08,9.883902748697437e-06,0.12618795037269592,0.0,-1.9882563352584839,-1.97,nan,0.0,0.2105112075805664,0,-1
1656403460.76240277,92887030,3.2736893444962334e-06,1.2144710126449354e-08,3.2857965379662346e-06,0.12618795037269592,0.0,-1.9870959520339966,-1.94,nan,0.0,0.21190619468688965,0,-1
1656403460.86244893,92987076,3.2736893444962334e-06,1.2104010238545015e-08,3.285792217866401e-06,0.12618795037269592,0.0,-1.9856044054031372,-1.82,nan,0.0,0.21409010887145996,0,-1
1656403460.96247482,93087102,3.2736893444962334e-06,1.2075133781763725e-08,3.285799721197691e-06,0.12618795037269592,0.0,-1.9833643436431885,-1.98,nan,0.0,0.2163301706314087,0,-1
1656403461.06244993,93187077,3.2736893444962334e-06,1.208536559715867e-08,3.2857658425200498e-06,0.12618795037269592,0.0,-1.9829975366592407,-1.82,nan,0.0,0.2166968584060669,0,-1
1656403461.16243291,93287060,3.2736893444962334e-06,1.2082637113053352e-08,3.285786533524515e-06,0.12618795037269592,0.0,-1.9829368591308594,-2.05,nan,0.0,0.21710288524627686,0,-1
1656403461.26246881,93387096,3.2736893444962334e-06,1.2096279533579946e-08,3.28577630170912e-06,0.12618795037269592,0.0,-1.9836455583572388,-1.82,nan,0.0,0.21639418601989746,0,-1
1656403461.36242199,93487049,9.847444744082168e-06,3.6195160646457225e-08,9.88376541499747e-06,0.12618795037269592,0.0,-1.9840621948242188,-1.93,nan,0.0,0.21597754955291748,0,-1
1656403461.46246600,93587093,3.2736893444962334e-06,1.2040572983096354e-08,9.883588063530624e-06,0.12618795037269592,0.0,-1.9855159521102905,-2.0,nan,0.0,0.21486890316009521,0,-1
1656403461.56244397,93687071,3.2736893444962334e-06,1.2038071872666478e-08,3.2857287806109525e-06,0.12618795037269592,0.0,-1.9878878593444824,-1.85,nan,0.0,0.2126535177230835,0,-2
1656403461.66243482,93787062,9.847444744082168e-06,3.623063093982637e-08,9.883558050205465e-06,0.12618795037269592,0.0,-1.9890989065170288,-1.9000000000000001,nan,0.0,0.21213388442993164,0,-2
1656403461.76244497,93887072,3.2736893444962334e-06,1.202761268359609e-08,3.285746970504988e-06,0.12618795037269592,0.0,-1.9895180463790894,-1.8900000000000001,nan,0.0,0.21171462535858154,0,-2
1656403461.86245179,93987079,3.2736893444962334e-06,1.2077180144842714e-08,3.285776756456471e-06,0.12618795037269592,0.0,-1.990849256515503,-1.84,nan,0.0,0.210729718208313,0,-1
1656403461.96248794,94087115,9.847444744082168e-06,3.627974365372211e-08,9.883696293400135e-06,0.12618795037269592,0.0,-1.991963505744934,-2.09,nan,0.0,0.20961546897888184,0,-1
1656403462.06245589,94187083,3.2736893444962334e-06,1.2071041055605747e-08,3.2857508358574705e-06,0.12618795037269592,0.0,-1.994596004486084,-1.7,nan,0.0,0.20767426490783691,0,-2
1656403462.16238689,94287014,3.2736893444962334e-06,1.2051941666868515e-08,9.883754501061048e-06,0.12618795037269592,0.0,-1.9961631298065186,-1.83,nan,0.0,0.2061072587966919,0,-2
1656403462.26240778,94387035,3.2736893444962334e-06,1.205580701935105e-08,3.28575833918876e-06,0.12618795037269592,0.0,-1.9979822635650635,-1.9000000000000001,nan,0.0,0.2046341896057129,0,-2
1656403462.36241293,94487040,9.847444744082168e-06,3.63170329364948e-08,9.883820894174278e-06,0.12618795037269592,0.0,-2.000079393386841,-2.0100000000000002,nan,0.0,0.2025371789932251,0,-2
1656403462.46244478,94587072,3.2736893444962334e-06,1.2003511073999107e-08,3.2857337828318123e-06,0.12618795037269592,0.0,-2.0028724670410156,-1.6400000000000001,nan,0.0,0.1998995542526245,0,-3
1656403462.56245685,94687084,3.2736893444962334e-06,1.1996917237411253e-08,3.2856974030437414e-06,0.12618795037269592,0.0,-2.0037107467651367,-2.19,nan,0.0,0.19975364208221436,0,-3
1656403462.66245484,94787082,3.2736893444962334e-06,1.2027157936245203e-08,9.883453458314762e-06,0.12618795037269592,0.0,-2.0048885345458984,-1.68,nan,0.0,0.19857585430145264,0,-2
1656403462.76245499,94887082,9.847444744082168e-06,3.610966814449057e-08,9.883415259537287e-06,0.12618795037269592,0.0,-2.0049073696136475,-2.04,nan,0.0,0.1985570192337036,0,-2
1656403462.86246800,94987095,9.847444744082168e-06,3.599507181206718e-08,3.285676712039276e-06,0.12618795037269592,0.0,-2.00439190864563,-1.85,nan,0.0,0.1990724802017212,0,-2
1656403462.96247387,95087101,9.847444744082168e-06,3.598597686504945e-08,9.883479833661113e-06,0.12618795037269592,0.0,-2.0037782192230225,-1.76,nan,0.0,0.20003139972686768,0,-3
1656403463.06243587,95187063,3.2736893444962334e-06,1.2011696526315063e-08,3.2856739835551707e-06,0.12618795037269592,0.0,-2.0010337829589844,-1.73,nan,0.0,0.20277583599090576,0,-2
1656403463.16247082,95287098,3.2736893444962334e-06,1.1998281479463913e-08,3.2856614780030213e-06,0.12618795037269592,0.0,-1.9967905282974243,-2.24,nan,0.0,0.20701897144317627,0,-2
1656403463.26243401,95387061,9.847444744082168e-06,3.600962372729555e-08,3.285677621533978e-06,0.12618795037269592,0.0,-1.9954460859298706,-1.74,nan,0.0,0.20870959758758545,0,-2
1656403463.36245584,95487083,9.847444744082168e-06,3.605055098887533e-08,9.883481652650516e-06,0.12618795037269592,0.0,-1.9944846630096436,-2.1,nan,0.0,0.2096710205078125,0,-2
1656403463.46240091,95587028,3.2736893444962334e-06,1.1980318959103897e-08,3.2856846701179165e-06,0.12618795037269592,0.0,-1.995442509651184,-2.08,nan,0.0,0.20940470695495605,0,-2
1656403463.56244278,95687070,9.847444744082168e-06,3.615059540607035e-08,3.2857271889952244e-06,0.12618795037269592,0.0,-1.9984405040740967,-1.8900000000000001,nan,0.0,0.2064065933227539,0,-2
1656403463.66247678,95787104,3.2736893444962334e-06,1.2045120456605218e-08,3.285746970504988e-06,0.12618795037269592,0.0,-1.9991850852966309,-2.06,nan,0.0,0.2060081958770752,0,-2
1656403463.76239586,95887023,9.847444744082168e-06,3.624427336035296e-08,9.883696293400135e-06,0.12618795037269592,0.0,-1.9996813535690308,-2.0100000000000002,nan,0.0,0.20566749572753906,0,-2
1656403463.86240578,95987033,3.2736893444962334e-06,1.2055352272000164e-08,3.28577630170912e-06,0.12618795037269592,0.0,-2.0006072521209717,-1.98,nan,0.0,0.20474159717559814,0,-2
1656403463.96242595,96087053,3.2736893444962334e-06,1.203966348839458e-08,3.2857419682841282e-06,0.12618795037269592,0.0,-2.001739501953125,-1.72,nan,0.0,0.20360934734344482,0,-2
1656403464.06245494,96187082,9.847444744082168e-06,3.618060873122886e-08,9.883676284516696e-06,0.12618795037269592,0.0,-2.0014166831970215,-1.78,nan,0.0,0.20393216609954834,0,-3
1656403464.16245985,96287087,3.2736893444962334e-06,1.2054897524649277e-08,3.285697175670066e-06,0.12618795037269592,0.0,-1.9997180700302124,-1.84,nan,0.0,0.20640027523040771,0,-2
1656403464.26242590,96387053,3.2736893444962334e-06,1.2031478036078624e-08,3.285721277279663e-06,0.12618795037269592,0.0,-1.9972606897354126,-2.17,nan,0.0,0.20885765552520752,0,-2
1656403464.36251593,96487143,3.2736893444962334e-06,1.1983502190560102e-08,3.2856819416338112e-06,0.12618795037269592,0.0,-1.9967741966247559,-1.84,nan,0.0,0.20934414863586426,0,-2
1656403464.46246600,96587093,3.2736893444962334e-06,1.1990096027147956e-08,3.285712637079996e-06,0.12618795037269592,0.0,-1.9974110126495361,-1.9100000000000001,nan,0.0,0.209053635597229,0,-2
1656403464.56247997,96687107,3.2736893444962334e-06,1.2076043276465498e-08,3.28570945384854e-06,0.12618795037269592,0.0,-1.9979506731033325,-2.05,nan,0.0,0.20867037773132324,0,-2
1656403464.66245389,96787081,9.847444744082168e-06,3.624700184445828e-08,9.883692655421328e-06,0.12618795037269592,0.0,-1.9991686344146729,-1.8900000000000001,nan,0.0,0.20745229721069336,0,-2
1656403464.76243281,96887060,9.847444744082168e-06,3.624245437094942e-08,9.883600796456449e-06,0.12618795037269592,0.0,-2.000417709350586,-1.85,nan,0.0,0.20620334148406982,0,-2
1656403464.86244297,96987070,3.2736893444962334e-06,1.1973725122516043e-08,9.883536222332623e-06,0.12618795037269592,0.0,-2.000746726989746,-1.92,nan,0.0,0.20621955394744873,0,-2
1656403464.96244597,97087073,3.2736893444962334e-06,1.198122845380567e-08,3.2856614780030213e-06,0.12618795037269592,0.0,-2.000859022140503,-1.72,nan,0.0,0.2061072587966919,0,-2
1656403465.06247282,97187100,3.2736893444962334e-06,1.1958263712585904e-08,9.8834734671982e-06,0.12618795037269592,0.0,-2.0008790493011475,-1.73,nan,0.0,0.20608723163604736,0,-2
1656403465.16245484,97287082,3.2736893444962334e-06,1.1870270100189373e-08,3.285580305600888e-06,0.12618795037269592,0.0,-1.9997069835662842,-2.06,nan,0.0,0.2072591781616211,0,-2
1656403465.26246095,97387088,3.2736893444962334e-06,1.190733200928662e-08,3.285589400547906e-06,0.12618795037269592,0.0,-1.9994243383407593,-1.6400000000000001,nan,0.0,0.207541823387146,0,-2
1656403465.36237383,97487001,3.2736893444962334e-06,1.1900056051672436e-08,3.2855789413588354e-06,0.12618795037269592,0.0,-1.9980930089950562,-1.76,nan,0.0,0.20887315273284912,0,-2
1656403465.46244478,97587072,3.2736893444962334e-06,1.194325705000665e-08,3.285598722868599e-06,0.12618795037269592,0.0,-1.996466040611267,-1.96,nan,0.0,0.21119165420532227,0,-2
1656403465.56245589,97687083,3.2736893444962334e-06,1.1937800081796013e-08,3.2856378311407752e-06,0.12618795037269592,0.0,-1.9959250688552856,-1.98,nan,0.0,0.2117326259613037,0,-2
1656403465.66243696,97787064,3.2736893444962334e-06,1.1946895028813742e-08,3.2856651159818284e-06,0.12618795037269592,0.0,-1.9969313144683838,-1.9100000000000001,nan,0.0,0.21072638034820557,0,-2
1656403465.76244593,97887073,3.2736893444962334e-06,1.1945758160436526e-08,3.285626917204354e-06,0.12618795037269592,0.0,-1.9983689785003662,-1.67,nan,0.0,0.20928871631622314,0,-3
1656403465.86245298,97987080,3.2736893444962334e-06,1.1969177649007179e-08,3.2856282814464066e-06,0.12618795037269592,0.0,-1.997345209121704,-1.95,nan,0.0,0.2103123664855957,0,-2
1656403465.96243000,98087057,3.2736893444962334e-06,1.1949168765568174e-08,9.883408893074375e-06,0.12618795037269592,0.0,-1.995923399925232,-1.72,nan,0.0,0.21173429489135742,0,-2
1656403466.06243896,98187066,9.847444744082168e-06,3.586046659620479e-08,9.88338069873862e-06,0.12618795037269592,0.0,-1.993079662322998,-2.05,nan,0.0,0.2145780324935913,0,-2
1656403466.16243792,98287065,3.2736893444962334e-06,1.193757270812057e-08,3.2856139569048537e-06,0.12618795037269592,0.0,-1.9910316467285156,-1.6400000000000001,nan,0.0,0.2169731855392456,0,-2
1656403466.26244879,98387076,9.847444744082168e-06,3.596142050810158e-08,3.2856298730621347e-06,0.12618795037269592,0.0,-1.987845778465271,-1.55,nan,0.0,0.22015905380249023,0,-3
1656403466.36244082,98487068,3.2736893444962334e-06,1.1899146556970663e-08,3.285595539637143e-06,0.12618795037269592,0.0,-1.9822202920913696,-1.79,nan,0.0,0.2257845401763916,0,-2
1656403466.46243978,98587067,3.2736893444962334e-06,1.1955080481129698e-08,3.285641241745907e-06,0.12618795037269592,0.0,-1.9755899906158447,-1.72,nan,0.0,0.23206770420074463,0,-2
1656403466.56247091,98687098,3.2736893444962334e-06,1.1940983313252218e-08,3.2856353300303454e-06,0.12618795037269592,0.0,-1.9690532684326172,-2.0,nan,0.0,0.23860442638397217,0,-2
1656403466.66244793,98787075,9.847444744082168e-06,3.5986886359751225e-08,9.883320672088303e-06,0.12618795037269592,0.0,-1.9659322500228882,-1.74,nan,0.0,0.24172544479370117,0,-2
1656403466.76241183,98887039,3.2736893444962334e-06,1.1895053830812685e-08,3.285608499936643e-06,0.12618795037269592,0.0,-1.9638259410858154,-1.85,nan,0.0,0.24367618560791016,0,-1
1656403466.86245179,98987079,9.847444744082168e-06,3.590866981539875e-08,9.883358870865777e-06,0.12618795037269592,0.0,-1.960524559020996,-1.5,nan,0.0,0.24697768688201904,0,-1
1656403466.96239281,99087020,3.2736893444962334e-06,1.1899146556970663e-08,3.285590537416283e-06,0.12618795037269592,0.0,-1.9550623893737793,-1.92,nan,0.0,0.25243985652923584,0,-1
1656403467.06242681,99187054,3.2736893444962334e-06,1.1890278983628377e-08,3.2856132747838274e-06,0.12618795037269592,0.0,-1.9505841732025146,-1.75,nan,0.0,0.25691795349121094,0,-2
1656403467.16245294,99287080,3.2736893444962334e-06,1.1905513019883074e-08,3.2855998597369762e-06,0.12618795037269592,0.0,-1.9469890594482422,-1.79,nan,0.0,0.260278582572937,0,-2
1656403467.26248479,99387112,3.2736893444962334e-06,1.196644916490186e-08,3.2856298730621347e-06,0.12618795037269592,0.0,-1.9428505897521973,-1.8800000000000001,nan,0.0,0.26441705226898193,0,-2
1656403467.36244798,99487075,3.2736893444962334e-06,1.1950760381296277e-08,3.2856380585144507e-06,0.12618795037269592,0.0,-1.9394773244857788,-1.93,nan,0.0,0.26779019832611084,0,-2
1656403467.46247387,99587101,3.2736893444962334e-06,1.1956672096857801e-08,3.2856435154826613e-06,0.12618795037269592,0.0,-1.9380358457565308,-1.8800000000000001,nan,0.0,0.26923179626464844,0,-2
1656403467.56247687,99687104,9.847444744082168e-06,3.591412678360939e-08,3.2856478355824947e-06,0.12618795037269592,0.0,-1.9377083778381348,-1.7,nan,0.0,0.2695591449737549,0,-2
1656403467.66247487,99787102,3.2736893444962334e-06,1.1941665434278548e-08,3.2856282814464066e-06,0.12618795037269592,0.0,-1.937282681465149,-1.74,nan,0.0,0.26990675926208496,0,-2
1656403467.76244092,99887068,3.2736893444962334e-06,1.1922338671865873e-08,3.2856200959940907e-06,0.12618795037269592,0.0,-1.9361991882324219,-1.93,nan,0.0,0.270990252494812,0,-1
1656403467.86243582,99987063,3.2736893444962334e-06,1.1933252608287148e-08,3.2855948575161165e-06,0.12618795037269592,0.0,-1.936509609222412,-1.78,nan,0.0,0.2706797122955322,0,-1
1656403467.96243978,100087067,3.2736893444962334e-06,1.1901192920049652e-08,3.285608045189292e-06,0.12618795037269592,0.0,-1.9370397329330444,-2.06,nan,0.0,0.26991593837738037,0,-1
1656403468.06244087,100187068,3.2736893444962334e-06,1.1910060493391939e-08,3.2855882636795286e-06,0.12618795037269592,0.0,-1.9370847940444946,-1.84,nan,0.0,0.2698709964752197,0,-1
1656403468.16247177,100287099,3.2736893444962334e-06,1.1947349776164629e-08,3.2856030429684324e-06,0.12618795037269592,0.0,-1.9369776248931885,-1.84,nan,0.0,0.2699781656265259,0,-3
1656403468.26244783,100387075,3.2736893444962334e-06,1.1941438060603105e-08,9.883367056318093e-06,0.12618795037269592,0.0,-1.9367713928222656,-1.84,nan,0.0,0.27018439769744873,0,-2
1656403468.36244297,100487070,3.2736893444962334e-06,1.1957808965235017e-08,3.28563510265667e-06,0.12618795037269592,0.0,-1.9364492893218994,-1.58,nan,0.0,0.2708526849746704,0,-2
1656403468.46241999,100587047,3.2736893444962334e-06,1.1892325346707366e-08,3.285634193161968e-06,0.12618795037269592,0.0,-1.9349613189697266,-1.75,nan,0.0,0.2721841335296631,0,-2
1656403468.56241798,100687045,3.2736893444962334e-06,1.1900510799023323e-08,3.2856255529623013e-06,0.12618795037269592,0.0,-1.9327350854873657,-1.84,nan,0.0,0.2744104862213135,0,-2
1656403468.66245079,100787078,3.2736893444962334e-06,1.195940058096312e-08,9.883316124614794e-06,0.12618795037269592,0.0,-1.9316400289535522,-1.86,nan,0.0,0.27550554275512695,0,-1
1656403468.76244783,100887075,3.2736893444962334e-06,1.1939846444875002e-08,3.2856373763934243e-06,0.12618795037269592,0.0,-1.9313809871673584,-1.92,nan,0.0,0.27576446533203125,0,-1
1656403468.86241388,100987041,9.847444744082168e-06,3.60414560418576e-08,9.883501661533955e-06,0.12618795037269592,0.0,-1.9322293996810913,-1.93,nan,0.0,0.27468252182006836,0,-2
1656403468.96242380,101087051,3.2736893444962334e-06,1.1936663213418797e-08,3.2856544294190826e-06,0.12618795037269592,0.0,-1.9337825775146484,-1.8,nan,0.0,0.27381980419158936,0,-1
1656403469.06248379,101187111,3.2736893444962334e-06,1.1974634617217816e-08,3.285668981334311e-06,0.12618795037269592,0.0,-1.936132788658142,-1.8800000000000001,nan,0.0,0.2714695930480957,0,-2
1656403469.16247892,101287106,3.2736893444962334e-06,1.1964402801822871e-08,3.285675575170899e-06,0.12618795037269592,0.0,-1.9385002851486206,-1.84,nan,0.0,0.26910197734832764,0,-2
1656403469.26244092,101387068,3.2736893444962334e-06,1.2016698747174814e-08,3.2857026326382766e-06,0.12618795037269592,0.0,-1.9396511316299438,-2.02,nan,0.0,0.26795125007629395,0,-2
1656403469.36243391,101487061,3.2736893444962334e-06,1.1977363101323135e-08,3.2857087717275135e-06,0.12618795037269592,0.0,-1.9412368535995483,-1.93,nan,0.0,0.26636552810668945,0,-2
1656403469.46247983,101587107,3.2736893444962334e-06,1.1994416126981378e-08,3.285719230916584e-06,0.12618795037269592,0.0,-1.9428566694259644,-1.84,nan,0.0,0.2647455930709839,0,-2
1656403469.56244588,101687073,9.847444744082168e-06,3.622426447691396e-08,9.883651728159748e-06,0.12618795037269592,0.0,-1.943878412246704,-1.84,nan,0.0,0.2640700340270996,0,-2
1656403469.66245699,101787084,3.2736893444962334e-06,1.2044438335578889e-08,3.2857240057637682e-06,0.12618795037269592,0.0,-1.943377137184143,-1.98,nan,0.0,0.2644158601760864,0,-2
1656403469.76245189,101887079,3.2736893444962334e-06,1.2040800356771797e-08,3.2857615224202164e-06,0.12618795037269592,0.0,-1.9432069063186646,-1.81,nan,0.0,0.2645862102508545,0,-2
1656403469.86245179,101987079,3.2736893444962334e-06,1.2054897524649277e-08,9.883558959700167e-06,0.12618795037269592,0.0,-1.9429863691329956,-1.61,nan,0.0,0.2648066282272339,0,-2
1656403469.96245193,102087079,3.2736893444962334e-06,1.1976453606621362e-08,3.2857137739483733e-06,0.12618795037269592,0.0,-1.9409213066101074,-1.84,nan,0.0,0.2666372060775757,0,-2
1656403470.06240296,102187030,3.2736893444962334e-06,1.200578481075354e-08,3.2857017231435748e-06,0.12618795037269592,0.0,-1.9377384185791016,-1.86,nan,0.0,0.2705113887786865,0,-2
1656403470.16242099,102287048,3.2736893444962334e-06,1.2076043276465498e-08,3.2857328733371105e-06,0.12618795037269592,0.0,-1.9351128339767456,-1.76,nan,0.0,0.2731369733810425,0,-2
1656403470.26243186,102387059,9.847444744082168e-06,3.6468918551690876e-08,3.2857856240298133e-06,0.12618795037269592,0.0,-1.9344098567962646,-1.75,nan,0.0,0.27383995056152344,0,-2
1656403470.36244988,102487077,9.847444744082168e-06,3.645527613116428e-08,9.88393003353849e-06,0.12618795037269592,0.0,-1.9339518547058105,-2.04,nan,0.0,0.27464425563812256,0,-2
1656403470.46243477,102587062,3.2736893444962334e-06,1.2129021342843771e-08,3.285773573225015e-06,0.12618795037269592,0.0,-1.9351067543029785,-1.6400000000000001,nan,0.0,0.2734893560409546,0,-1
1656403470.56244779,102687075,9.847444744082168e-06,3.6430719774216413e-08,9.883874554361682e-06,0.12618795037269592,0.0,-1.935497522354126,-2.0300000000000002,nan,0.0,0.27309858798980713,0,-2
1656403470.66247082,102787098,3.2736893444962334e-06,1.2127202353440225e-08,3.2858210943231825e-06,0.12618795037269592,0.0,-1.937602162361145,-1.49,nan,0.0,0.2712618112564087,0,-2
1656403470.76246595,102887093,3.2736893444962334e-06,1.2135387805756181e-08,9.883982784231193e-06,0.12618795037269592,0.0,-1.9381242990493774,-1.58,nan,0.0,0.2714310884475708,0,-2
1656403470.86244988,102987077,9.847444744082168e-06,3.663444658741355e-08,9.88406827673316e-06,0.12618795037269592,0.0,-1.936818242073059,-1.97,nan,0.0,0.2727372646331787,0,-2
1656403470.96242881,103087056,3.2736893444962334e-06,1.2134933058405295e-08,3.2858663416845957e-06,0.12618795037269592,0.0,-1.936625361442566,-1.7,nan,0.0,0.2729301452636719,0,-2
1656403471.06244087,103187068,3.2736893444962334e-06,1.2203145161038265e-08,3.2858856684470084e-06,0.12618795037269592,0.0,-1.9360506534576416,-1.74,nan,0.0,0.27385008335113525,0,-2
1656403471.16244888,103287076,9.847444744082168e-06,3.681998350657523e-08,3.2859277325769654e-06,0.12618795037269592,0.0,-1.9345601797103882,-1.83,nan,0.0,0.2753404378890991,0,-2
1656403471.26241994,103387047,3.2736893444962334e-06,1.2271584637346677e-08,3.2859145449037896e-06,0.12618795037269592,0.0,-1.9335933923721313,-1.79,nan,0.0,0.27699875831604004,0,-2
1656403471.36244488,103487072,3.2736893444962334e-06,1.2258169590495527e-08,9.884332030196674e-06,0.12618795037269592,0.0,-1.932902455329895,-1.68,nan,0.0,0.2774559259414673,0,-2
1656403471.46247077,103587098,3.2736893444962334e-06,1.2257942216820084e-08,3.285975708422484e-06,0.12618795037269592,0.0,-1.9322384595870972,-1.84,nan,0.0,0.2781200408935547,0,-2
1656403471.56245399,103687081,3.2736893444962334e-06,1.2248165148776025e-08,3.2859534258022904e-06,0.12618795037269592,0.0,-1.9318407773971558,-1.72,nan,0.0,0.2788628339767456,0,-2
1656403471.66239285,103787020,9.847444744082168e-06,3.697914507938549e-08,3.2859713883226505e-06,0.12618795037269592,0.0,-1.9323095083236694,-1.98,nan,0.0,0.27839410305023193,0,-2
1656403471.76244688,103887074,9.847444744082168e-06,3.7051904655527323e-08,9.884444807539694e-06,0.12618795037269592,0.0,-1.9340897798538208,-1.72,nan,0.0,0.27730631828308105,0,-2
1656403471.86246181,103987089,9.847444744082168e-06,3.694731276482344e-08,9.884357496048324e-06,0.12618795037269592,0.0,-1.936946988105774,-1.61,nan,0.0,0.27444911003112793,0,-2
1656403471.96244979,104087077,3.2736893444962334e-06,1.2299324225750752e-08,3.2859582006494747e-06,0.12618795037269592,0.0,-1.9381946325302124,-1.6600000000000001,nan,0.0,0.27339017391204834,0,-2
1656403472.06246400,104187091,3.2736893444962334e-06,1.2287046047276817e-08,9.884456630970817e-06,0.12618795037269592,0.0,-1.9395474195480347,-1.6300000000000001,nan,0.0,0.2720375061035156,0,-3
1656403472.16246700,104287094,9.847444744082168e-06,3.708737494889647e-08,9.884577593766153e-06,0.12618795037269592,0.0,-1.9399654865264893,-1.82,nan,0.0,0.27161943912506104,0,-3
1656403472.26246595,104387093,9.847444744082168e-06,3.716559149324894e-08,3.286052105977433e-06,0.12618795037269592,0.0,-1.9407662153244019,-1.96,nan,0.0,0.27116477489471436,0,-3
1656403472.36246681,104487094,3.2736893444962334e-06,1.2307509678066708e-08,3.28603277921502e-06,0.12618795037269592,0.0,-1.9429198503494263,-2.06,nan,0.0,0.26901113986968994,0,-3
1656403472.46244693,104587074,3.2736893444962334e-06,1.2314103514654562e-08,3.2860498322406784e-06,0.12618795037269592,0.0,-1.9459803104400635,-1.78,nan,0.0,0.2659507989883423,0,-3
1656403472.56248283,104687110,-0.00228804349899292,-8.613336831331253e-06,0.0,0.12618795037269592,-1.948268175125122,-1.9483513832092285,-1.75,nan,0.0,0.2635796070098877,-3,-3
1656403472.66247797,104787105,-0.012322217226028442,-4.6522356569767e-05,0.0,0.12618795037269592,-1.9506590366363525,-1.9506471157073975,-1.76,nan,0.0,0.2612839937210083,-4,-3
1656403472.76245689,104887084,-0.02255779504776001,-8.496828377246857e-05,0.0,0.12618795037269592,-1.9530575275421143,-1.9531246423721313,-2.0100000000000002,nan,0.0,0.2594977617263794,-4,-3
1656403472.86249399,104987121,-0.03251740336418152,-0.0001223534345626831,0.0,0.12618795037269592,-1.955915927886963,-1.955923080444336,-1.62,nan,0.0,0.2566993236541748,-4,-3
1656403472.96245980,105087087,-0.04283885657787323,-0.00016102567315101624,0.0,0.12618795037269592,-1.9584929943084717,-1.9585505723953247,-1.6600000000000001,nan,0.0,0.25338053703308105,-4,-4
1656403473.06247091,105187098,-0.05051635205745697,-0.00018981844186782837,0.0,0.12618795037269592,-1.9604514837265015,-1.9605093002319336,-1.61,nan,0.0,0.25142180919647217,-4,-4
1656403473.16248679,105287114,-0.04932233691215515,-0.000185355544090271,0.0,0.12618795037269592,-1.962090253829956,-1.9620929956436157,-1.52,nan,0.0,0.2498379945755005,-4,-3
1656403473.26244283,105387070,-0.05060438811779022,-0.0001907944679260254,0.0,0.12618795037269592,-1.9629642963409424,-1.9630385637283325,-1.57,nan,0.0,0.2488924264907837,-4,-4
1656403473.36248183,105487109,-0.05054953694343567,-0.0001903735101222992,0.0,0.12618795037269592,-1.9637291431427002,-1.9637483358383179,-1.9100000000000001,nan,0.0,0.2481827735900879,-4,-4
1656403473.46246886,105587096,-0.04987157881259918,-0.00018746405839920044,0.0,0.12618795037269592,-1.9642753601074219,-1.963992714881897,-1.93,nan,0.0,0.24793827533721924,-4,-4
1656403473.56247377,105687101,-0.04212385416030884,-0.00015874579548835754,0.0,0.12618795037269592,-1.9647053480148315,-1.9647053480148315,-1.79,nan,0.0,0.24722576141357422,-3,-3
1656403473.66246486,105787092,-0.022656723856925964,-8.545443415641785e-05,0.0,0.12618795037269592,-1.9654326438903809,-1.9654325246810913,-1.61,nan,0.0,0.24649858474731445,-3,-3
1656403473.76247597,105887103,-0.012186139822006226,-4.575401544570923e-05,0.0,0.12618795037269592,-1.9659920930862427,-1.9659920930862427,-1.53,nan,0.0,0.24593901634216309,-3,-3
1656403473.86247087,105987098,-0.006554543972015381,-2.4641864001750946e-05,0.0,0.12618795037269592,-1.9654741287231445,-1.965474009513855,-1.75,nan,0.0,0.24645698070526123,-3,-3
1656403473.96247292,106087100,-0.0035255849361419678,-1.3238517567515373e-05,0.0,0.12618795037269592,-1.9649449586868286,-1.964944839477539,-1.59,nan,0.0,0.24698615074157715,-3,-3
1656403474.06247997,106187107,-0.0018965154886245728,-7.116119377315044e-06,0.0,0.12618795037269592,-1.963148593902588,-1.963148593902588,-1.59,nan,0.0,0.24878239631652832,-3,-3
1656403474.16243696,106287064,-0.0010202378034591675,-3.844732418656349e-06,0.0,0.12618795037269592,-1.9610142707824707,-1.9610141515731812,-1.92,nan,0.0,0.25091683864593506,-3,-3
1656403474.26239896,106387026,-0.0005488991737365723,-2.0693987607955933e-06,0.0,0.12618795037269592,-1.960580587387085,-1.960580587387085,-1.87,nan,0.0,0.2513505220413208,-3,-3
1656403474.36245584,106487083,-0.00029537081718444824,-1.114996848627925e-06,0.0,0.12618795037269592,-1.9614297151565552,-1.9614297151565552,-1.85,nan,0.0,0.2505013942718506,-3,-3
1656403474.46250796,106587135,-0.0001589953899383545,-6.016343832015991e-07,0.0,0.12618795037269592,-1.961124062538147,-1.961124062538147,-2.0300000000000002,nan,0.0,0.2508070468902588,-3,-3
1656403474.56246090,106687088,-8.569657802581787e-05,-3.2461684895679355e-07,0.0,0.12618795037269592,-1.9611632823944092,-1.9611632823944092,-1.72,nan,0.0,0.2507678270339966,-3,-3
1656403474.66245699,106787084,-4.623830318450928e-05,-1.7532511265017092e-07,0.0,0.12618795037269592,-1.9603139162063599,-1.9603137969970703,-1.6600000000000001,nan,0.0,0.2516171932220459,-3,-3
1656403474.76240897,106887036,-2.5033950805664062e-05,-9.502764442004263e-08,0.0,0.12618795037269592,-1.959038496017456,-1.959038496017456,-1.95,nan,0.0,0.2528926134109497,-3,-3
1656403474.86243582,106987063,-1.3619661331176758e-05,-5.167930794414133e-08,0.0,0.12618795037269592,-1.9590630531311035,-1.9590630531311035,-1.96,nan,0.0,0.25286805629730225,-3,-3
1656403474.96247578,107087103,-7.4803829193115234e-06,-2.8373051463859156e-08,0.0,0.12618795037269592,-1.9602512121200562,-1.9602510929107666,-1.58,nan,0.0,0.25168001651763916,-3,-3
1656403475.06246090,107187088,-4.231929779052734e-06,-1.6065314412117004e-08,0.0,0.12618795037269592,-1.961642861366272,-1.961642861366272,-1.92,nan,0.0,0.25097954273223877,-3,-3
1656403475.16243386,107287061,-2.4586915969848633e-06,-9.350742402602918e-09,0.0,0.12618795037269592,-1.9633815288543701,-1.9633814096450806,-1.78,nan,0.0,0.24924099445343018,-3,-3
1656403475.26245999,107387087,-1.5497207641601562e-06,-5.882156983716413e-09,0.0,0.12618795037269592,-1.9625751972198486,-1.9625751972198486,-1.83,nan,0.0,0.25004732608795166,-3,-3
1656403475.36248493,107487112,-1.1175870895385742e-06,-4.233470463077538e-09,0.0,0.12618795037269592,-1.9611209630966187,-1.961120843887329,-1.79,nan,0.0,0.25126707553863525,-3,-3
1656403475.46244097,107587068,-1.1175870895385742e-06,-4.233470463077538e-09,0.0,0.12618795037269592,-1.9603725671768188,-1.9603725671768188,-2.05,nan,0.0,0.25201523303985596,-3,-3
1656403475.56246495,107687092,-1.1175870895385742e-06,-4.23290202888893e-09,0.0,0.12618795037269592,-1.960817813873291,-1.960817813873291,-1.74,nan,0.0,0.25157010555267334,-2,-2
1656403475.66246080,107787088,-1.1175870895385742e-06,-4.214371074340306e-09,0.0,0.12618795037269592,-1.9631503820419312,-1.9631502628326416,-2.02,nan,0.0,0.24958276748657227,-2,-2
1656403475.76247096,107887098,-1.1175870895385742e-06,-4.1959538066294044e-09,0.0,0.12618795037269592,-1.9665676355361938,-1.9665676355361938,-1.8,nan,0.0,0.2460099458694458,-3,-3
1656403475.86245394,107987081,-1.1175870895385742e-06,-4.195499059278518e-09,0.0,0.12618795037269592,-1.970182180404663,-1.970182180404663,-1.71,nan,0.0,0.2423955202102661,-3,-3
1656403475.96244478,108087072,-1.1175870895385742e-06,-4.19424850406358e-09,0.0,0.12618795037269592,-1.9731659889221191,-1.9731659889221191,-1.67,nan,0.0,0.23941171169281006,-3,-3
1656403476.06245780,108187085,-1.1175870895385742e-06,-4.192997948848642e-09,0.0,0.12618795037269592,-1.9761297702789307,-1.9761297702789307,-1.51,nan,0.0,0.23644793033599854,-3,-3
1656403476.16245794,108287085,-1.1175870895385742e-06,-4.205617187835742e-09,0.0,0.12618795037269592,-1.9782650470733643,-1.9782650470733643,-1.75,nan,0.0,0.23500406742095947,-3,-3
1656403476.26246881,108387096,-1.1175870895385742e-06,-4.212893145449925e-09,0.0,0.12618795037269592,-1.9801034927368164,-1.9801033735275269,-1.81,nan,0.0,0.23316562175750732,-3,-3
1656403476.36249495,108487122,-1.1175870895385742e-06,-4.211187842884101e-09,0.0,0.12618795037269592,-1.982039213180542,-1.9820390939712524,-1.9100000000000001,nan,0.0,0.23122990131378174,-3,-3
1656403476.46246791,108587095,-1.1175870895385742e-06,-4.210278348182328e-09,0.0,0.12618795037269592,-1.9841848611831665,-1.9841848611831665,-1.6600000000000001,nan,0.0,0.22908425331115723,-3,-3
1656403476.56245184,108687079,-1.1175870895385742e-06,-4.2122110244235955e-09,0.0,0.12618795037269592,-1.9859130382537842,-1.9859130382537842,-1.6400000000000001,nan,0.0,0.22770226001739502,-3,-3
1656403476.66244698,108787074,-1.1175870895385742e-06,-4.219828042550944e-09,0.0,0.12618795037269592,-1.9885374307632446,-1.9885374307632446,-1.6300000000000001,nan,0.0,0.22507786750793457,-3,-3
1656403476.76243782,108887065,-1.1175870895385742e-06,-4.215735316392966e-09,0.0,0.12618795037269592,-1.9910496473312378,-1.9910496473312378,-1.46,nan,0.0,0.22325801849365234,-4,-4
1656403476.86247492,108987102,-1.1175870895385742e-06,-4.2151668822043575e-09,0.0,0.12618795037269592,-1.9923206567764282,-1.9923206567764282,-1.8,nan,0.0,0.22198688983917236,-3,-3
1656403476.96253800,109087165,-1.1175870895385742e-06,-4.22164703195449e-09,0.0,0.12618795037269592,-1.9933724403381348,-1.9933724403381348,-1.67,nan,0.0,0.22093510627746582,-3,-3
1656403477.06245685,109187084,-1.1175870895385742e-06,-4.22164703195449e-09,0.0,0.12618795037269592,-1.993343710899353,-1.9933435916900635,-1.59,nan,0.0,0.22096407413482666,-3,-3
1656403477.16246390,109287091,-1.1175870895385742e-06,-4.223124960844871e-09,0.0,0.12618795037269592,-1.9927585124969482,-1.9927583932876587,-1.6500000000000001,nan,0.0,0.2215491533279419,-4,-4
1656403477.26245880,109387086,-1.1175870895385742e-06,-4.22517132392386e-09,0.0,0.12618795037269592,-1.9908255338668823,-1.9908254146575928,-1.53,nan,0.0,0.2234821319580078,-4,-4
1656403477.36244678,109487074,-1.1175870895385742e-06,-4.234266270941589e-09,0.0,0.12618795037269592,-1.9882289171218872,-1.9882289171218872,-1.61,nan,0.0,0.22642302513122559,-4,-4
1656403477.46242285,109587050,-1.1175870895385742e-06,-4.228581929055508e-09,0.0,0.12618795037269592,-1.986910104751587,-1.986910104751587,-1.84,nan,0.0,0.22774183750152588,-3,-3
1656403477.56249499,109687122,-1.1175870895385742e-06,-4.235971573507413e-09,0.0,0.12618795037269592,-1.986930251121521,-1.986930251121521,-1.85,nan,0.0,0.2277216911315918,-3,-3
1656403477.66246486,109787092,-1.1175870895385742e-06,-4.235175765643362e-09,0.0,0.12618795037269592,-1.989315152168274,-1.989315152168274,-1.59,nan,0.0,0.22555041313171387,-3,-3
1656403477.76246691,109887094,-1.1175870895385742e-06,-4.238358997099567e-09,0.0,0.12618795037269592,-1.991795539855957,-1.9917954206466675,-1.6500000000000001,nan,0.0,0.22307002544403076,-4,-4
1656403477.86248899,109987116,-1.1175870895385742e-06,-4.2356305129942484e-09,0.0,0.12618795037269592,-1.9931514263153076,-1.993151307106018,-1.71,nan,0.0,0.22171413898468018,-3,-3
1656403477.96246195,110087089,-1.1175870895385742e-06,-4.228468242217787e-09,0.0,0.12618795037269592,-1.9940745830535889,-1.9940744638442993,-1.57,nan,0.0,0.2212163209915161,-4,-4
1656403478.06244779,110187075,-1.1175870895385742e-06,-4.224602889735252e-09,0.0,0.12618795037269592,-1.9934470653533936,-1.9934470653533936,-1.81,nan,0.0,0.22184371948242188,-3,-3
1656403478.16247678,110287104,-1.1175870895385742e-06,-4.219259608362336e-09,0.0,0.12618795037269592,-1.992704153060913,-1.992704153060913,-1.96,nan,0.0,0.2225867509841919,-4,-4
1656403478.26244998,110387077,-1.1175870895385742e-06,-4.22448920289753e-09,0.0,0.12618795037269592,-1.9952893257141113,-1.9952892065048218,-1.75,nan,0.0,0.21976697444915771,-4,-4
1656403478.36245179,110487079,-1.1175870895385742e-06,-4.228922989568673e-09,0.0,0.12618795037269592,-1.9989053010940552,-1.9989053010940552,-1.55,nan,0.0,0.21636366844177246,-4,-4
1656403478.46248078,110587108,-1.1175870895385742e-06,-4.227445060678292e-09,0.0,0.12618795037269592,-1.9997483491897583,-1.9997483491897583,-1.9100000000000001,nan,0.0,0.21552062034606934,-4,-4
1656403478.56248379,110687111,-1.1175870895385742e-06,-4.237563189235516e-09,0.0,0.12618795037269592,-2.0004100799560547,-2.0004100799560547,-2.04,nan,0.0,0.21485888957977295,-4,-4
1656403478.66246891,110787096,-1.1175870895385742e-06,-4.234038897266146e-09,0.0,0.12618795037269592,-2.000797748565674,-2.000797748565674,-1.71,nan,0.0,0.214896559715271,-4,-4
1656403478.76244593,110887073,-1.1175870895385742e-06,-4.2322199078626e-09,0.0,0.12618795037269592,-2.0008645057678223,-2.0008645057678223,-1.51,nan,0.0,0.21482980251312256,-4,-4
1656403478.86245990,110987087,-1.1175870895385742e-06,-4.227558747516014e-09,0.0,0.12618795037269592,-2.0004732608795166,-2.0004732608795166,-1.37,nan,0.0,0.215065598487854,-4,-4
1656403478.96247196,111087099,-1.1175870895385742e-06,-4.241883289068937e-09,0.0,0.12618795037269592,-1.9989593029022217,-1.9989593029022217,-1.62,nan,0.0,0.21679222583770752,-3,-3
1656403479.06242085,111187048,-1.1175870895385742e-06,-4.2322199078626e-09,0.0,0.12618795037269592,-1.9976707696914673,-1.9976706504821777,-1.81,nan,0.0,0.21808075904846191,-3,-3
1656403479.16248989,111287117,-1.1175870895385742e-06,-4.242338036419824e-09,0.0,0.12618795037269592,-1.9972952604293823,-1.9972951412200928,-1.72,nan,0.0,0.21845626831054688,-4,-4
1656403479.26247692,111387104,-1.1175870895385742e-06,-4.233015715726651e-09,0.0,0.12618795037269592,-1.9976338148117065,-1.9976338148117065,-1.74,nan,0.0,0.21811771392822266,-4,-4
1656403479.36239290,111487020,-1.1175870895385742e-06,-4.230514605296776e-09,0.0,0.12618795037269592,-1.998243808746338,-1.998243808746338,-1.83,nan,0.0,0.21750760078430176,-4,-4
1656403479.46247387,111587101,-1.1175870895385742e-06,-4.231992534187157e-09,0.0,0.12618795037269592,-1.9989924430847168,-1.9989924430847168,-1.87,nan,0.0,0.21702802181243896,-4,-4
1656403479.56243086,111687058,-1.1175870895385742e-06,-4.236994755046908e-09,0.0,0.12618795037269592,-2.000178813934326,-2.000178813934326,-1.84,nan,0.0,0.2158416509628296,-5,-5
1656403479.66245985,111787087,-1.1175870895385742e-06,-4.2367673813714646e-09,0.0,0.12618795037269592,-2.0028014183044434,-2.0028014183044434,-1.6600000000000001,nan,0.0,0.2132190465927124,-5,-5
1656403479.76244283,111887070,-1.1175870895385742e-06,-4.226876626489684e-09,0.0,0.12618795037269592,-2.0053229331970215,-2.0053229331970215,-1.99,nan,0.0,0.21054112911224365,-4,-4
1656403479.86248899,111987116,-1.1175870895385742e-06,-4.2347210182924755e-09,0.0,0.12618795037269592,-2.0072288513183594,-2.0072288513183594,-1.59,nan,0.0,0.20884788036346436,-4,-4
1656403479.96249294,112087120,-1.1175870895385742e-06,-4.249386620358564e-09,0.0,0.12618795037269592,-2.008251667022705,-2.008251667022705,-1.93,nan,0.0,0.20782506465911865,-3,-3
1656403480.06248784,112187115,-1.1175870895385742e-06,-4.2607553041307256e-09,0.0,0.12618795037269592,-2.0115129947662354,-2.0115129947662354,-1.6500000000000001,nan,0.0,0.20456373691558838,-4,-4
1656403480.16248894,112287116,-1.1175870895385742e-06,-4.26109636464389e-09,0.0,0.12618795037269592,-2.0150294303894043,-2.0150294303894043,-1.97,nan,0.0,0.20104730129241943,-4,-4
1656403480.26245189,112387079,-1.1175870895385742e-06,-4.25541202275781e-09,0.0,0.12618795037269592,-2.0184199810028076,-2.0184199810028076,-1.71,nan,0.0,0.1976567506790161,-5,-5
1656403480.36244583,112487073,-1.1175870895385742e-06,-4.253138286003377e-09,0.0,0.12618795037269592,-2.0213775634765625,-2.0213775634765625,-1.73,nan,0.0,0.19491279125213623,-4,-4
1656403480.46244597,112587073,-1.1175870895385742e-06,-4.257913133187685e-09,0.0,0.12618795037269592,-2.0210492610931396,-2.0210492610931396,-1.59,nan,0.0,0.19524109363555908,-4,-4
1656403480.56245899,112687086,-1.1175870895385742e-06,-4.242565410095267e-09,0.0,0.12618795037269592,-2.0191402435302734,-2.0191402435302734,-1.95,nan,0.0,0.1971501111984253,-4,-4
1656403480.66248989,112787117,-1.1175870895385742e-06,-4.240519047016278e-09,0.0,0.12618795037269592,-2.0181097984313965,-2.0181097984313965,-1.81,nan,0.0,0.19818055629730225,-5,-5
1656403480.76246190,112887089,-1.1175870895385742e-06,-4.234379957779311e-09,0.0,0.12618795037269592,-2.01800537109375,-2.01800537109375,-1.76,nan,0.0,0.19828498363494873,-4,-4
1656403480.86244893,112987076,-1.1175870895385742e-06,-4.220396476739552e-09,0.0,0.12618795037269592,-2.0184688568115234,-2.0184688568115234,-1.68,nan,0.0,0.1976078748703003,-4,-4
1656403480.96243882,113087066,-1.1175870895385742e-06,-4.23153778683627e-09,0.0,0.12618795037269592,-2.0188517570495605,-2.0188517570495605,-1.83,nan,0.0,0.19722497463226318,-4,-4
1656403481.06245089,113187078,-1.1175870895385742e-06,-4.221305971441325e-09,0.0,0.12618795037269592,-2.021268606185913,-2.021268606185913,-1.67,nan,0.0,0.1945735216140747,-4,-4
1656403481.16245294,113287080,0.002053774893283844,7.752561941742897e-06,0.00048640018212608993,0.12618795037269592,-2.024611473083496,-2.024054765701294,-1.59,nan,0.0,0.19178736209869385,-4,-4
1656403481.26246595,113387093,0.006570175290107727,2.4794600903987885e-05,0.003784643951803446,0.12618795037269592,-2.028128147125244,-2.026528835296631,-1.6400000000000001,nan,0.0,0.18931329250335693,-2,-4
1656403481.36247778,113487105,0.009518921375274658,3.585405647754669e-05,0.006641565356403589,0.12618795037269592,-2.0296759605407715,-2.02835750579834,-1.59,nan,0.0,0.18748462200164795,0,-5
