timestamp,TimeUS,Instance,Volt,VoltR,Curr,CurrTot,EnrgTot,Temp,Res,RemPct
1670396428.57970786,69816006,0,24.897314071655273,24.969812393188477,0.6899245381355286,12.903867721557617,0.32175424695014954,0.0,0.10508214682340622,99
1670396428.67968583,69915984,0,24.9052734375,24.97944450378418,0.7058444023132324,12.923471450805664,0.32224249839782715,0.0,0.10508214682340622,99
1670396428.77972603,70016024,0,24.91934585571289,24.99658203125,0.7349988222122192,12.94389820098877,0.322751522064209,0.0,0.10508214682340622,99
1670396428.87970185,70116000,0,24.861902236938477,24.92707633972168,0.6202223896980286,12.9611234664917,0.32317978143692017,0.0,0.10508214682340622,99
1670396428.97971582,70216014,0,24.87990379333496,24.949045181274414,0.6579697132110596,12.97940444946289,0.32363462448120117,0.0,0.10508214682340622,99
1670396429.07968092,70315979,0,24.91814613342285,24.994861602783203,0.730054497718811,12.999678611755371,0.324139803647995,0.0,0.10508214682340622,99
1670396429.17968893,70415987,0,24.90192222595215,24.976255416870117,0.7073788046836853,13.019330978393555,0.32462918758392334,0.0,0.10508214682340622,99
1670396429.27966785,70515966,0,24.925378799438477,25.00345230102539,0.7429779767990112,13.039966583251953,0.3251435458660126,0.0,0.10508214682340622,99
1670396429.37968302,70615981,0,24.912357330322266,24.98897933959961,0.7291679978370667,13.060225486755371,0.3256482481956482,0.0,0.10508214682340622,99
1670396429.47968888,70715987,0,24.905847549438477,24.980606079101562,0.7113683819770813,13.079988479614258,0.32614046335220337,0.0,0.10509099066257477,99
1670396429.57965684,70815955,0,24.84553337097168,24.90732765197754,0.5879991054534912,13.09631633758545,0.3265461325645447,0.0,0.10509099066257477,99
1670396429.67967892,70915977,0,24.879520416259766,24.948345184326172,0.654900848865509,13.11451530456543,0.32699891924858093,0.0,0.10509099066257477,99
1670396429.77973986,71016038,0,24.909963607788086,24.986528396606445,0.7285541892051697,13.134757995605469,0.32750317454338074,0.0,0.10509099066257477,99
1670396429.87971497,71116013,0,24.875595092773438,24.942838668823242,0.6398633122444153,13.152535438537598,0.32794538140296936,0.0,0.10509099066257477,99
1670396429.97972894,71216027,0,24.84261703491211,24.902748107910156,0.5721772313117981,13.168434143066406,0.3283403515815735,0.0,0.10509099066257477,99
1670396430.07968783,71315986,0,24.911306381225586,24.98764419555664,0.726405918598175,13.188605308532715,0.3288428485393524,0.0,0.10509099066257477,99
1670396430.17969489,71415993,0,24.90211296081543,24.97612953186035,0.7043099403381348,13.208172798156738,0.32933011651039124,0.0,0.10509099066257477,99
1670396430.27964091,71515939,0,24.9221248626709,25.000043869018555,0.7414435148239136,13.228758811950684,0.3298431634902954,0.0,0.10509099066257477,99
1670396430.37969494,71615993,0,24.856447219848633,24.91969108581543,0.6018090844154358,13.24548625946045,0.33025893568992615,0.0,0.10509099066257477,99
1670396430.47970080,71715999,0,24.870807647705078,24.938308715820312,0.6423184275627136,13.263330459594727,0.3307027518749237,0.0,0.10509099066257477,99
1670396430.57972193,71816020,0,24.918867111206055,24.9957218170166,0.7313162088394165,13.283651351928711,0.33120912313461304,0.0,0.10509099066257477,99
1670396430.67969584,71915994,0,24.904699325561523,24.979328155517578,0.7101408243179321,13.303374290466309,0.33170029520988464,0.0,0.10509099066257477,99
1670396430.77965498,72015953,0,24.842086791992188,25.017126083374023,1.6998233795166016,13.350576400756836,0.3328728973865509,0.0,0.10297508537769318,99
1670396430.87973380,72116032,0,24.54568099975586,25.06296730041504,5.120134353637695,13.492925643920898,0.3363669812679291,0.0,0.10102972388267517,99
1670396430.97966385,72215962,0,24.63041114807129,24.964515686035156,3.291689872741699,13.584304809570312,0.3386176824569702,0.0,0.10149914771318436,99
1670396431.07966590,72315964,0,24.7441463470459,24.985532760620117,2.379002332687378,13.650394439697266,0.3402530252933502,0.0,0.10146578401327133,99
1670396431.17964196,72415940,0,24.757837295532227,25.012453079223633,2.5238540172576904,13.720484733581543,0.34198829531669617,0.0,0.10088381916284561,99
1670396431.27963400,72515932,0,24.76568603515625,25.004186630249023,2.3719441890716553,13.786376953125,0.3436201810836792,0.0,0.10055040568113327,99
1670396431.37966990,72615968,0,24.7432861328125,24.967443466186523,2.219113349914551,13.84804630279541,0.3451460897922516,0.0,0.10101199895143509,99
1670396431.47974086,72716039,0,24.76329231262207,24.985090255737305,2.194869041442871,13.909063339233398,0.34665706753730774,0.0,0.10105282068252563,99
1670396431.57964301,72815941,0,24.77432632446289,24.99209976196289,2.1550416946411133,13.9688720703125,0.3481387794017792,0.0,0.10105282068252563,99
1670396431.67966485,72915963,0,24.789142608642578,25.00774574279785,2.163259744644165,14.028980255126953,0.3496288061141968,0.0,0.10105282068252563,99
1670396431.77970290,73016001,0,24.7885684967041,25.00546646118164,2.14638090133667,14.088629722595215,0.3511074185371399,0.0,0.10105282068252563,99
1670396431.87971997,73116018,0,24.738117218017578,24.943695068359375,2.0343663692474365,14.14515495300293,0.35250574350357056,0.0,0.10105282068252563,99
1670396431.97967887,73215977,0,24.76693344116211,24.978961944580078,2.0981991291046143,14.203418731689453,0.3539487421512604,0.0,0.10105282068252563,99
1670396432.07969594,73315994,0,24.78818702697754,25.007007598876953,2.16540789604187,14.26358413696289,0.3554401397705078,0.0,0.10105282068252563,99
1670396432.17970085,73415999,0,24.77794075012207,24.994186401367188,2.1399359703063965,14.323030471801758,0.35691308975219727,0.0,0.10105282068252563,99
1670396432.27968192,73515980,0,24.790773391723633,25.010679244995117,2.1761488914489746,14.383476257324219,0.35841161012649536,0.0,0.10105282068252563,99
1670396432.37972188,73616020,0,24.77794075012207,24.994808197021484,2.146073818206787,14.44311809539795,0.359889417886734,0.0,0.10105282068252563,99
1670396432.47964501,73715943,0,24.73603057861328,24.9427433013916,2.0455846786499023,14.499900817871094,0.3612940013408661,0.0,0.10105282068252563,99
1670396432.57975888,73816057,0,24.76549530029297,24.980375289916992,2.124591588973999,14.558989524841309,0.3627573549747467,0.0,0.1011398509144783,99
1670396432.67968202,73915980,0,24.787324905395508,25.007078170776367,2.1727731227874756,14.619301795959473,0.36425232887268066,0.0,0.1011398509144783,99
1670396432.77973390,74016032,0,24.77459144592285,24.992389678955078,2.1534392833709717,14.679155349731445,0.36573517322540283,0.0,0.1011398509144783,99
1670396432.87965989,74115958,0,24.74749755859375,24.959274291992188,2.093902587890625,14.737274169921875,0.3671734631061554,0.0,0.1011398509144783,99
1670396432.97968102,74215979,0,24.74175262451172,24.951885223388672,2.0776374340057373,14.795002937316895,0.3686017692089081,0.0,0.1011398509144783,99
1670396433.07968092,74315979,0,24.789621353149414,25.01036834716797,2.182593584060669,14.855642318725586,0.37010499835014343,0.0,0.1011398509144783,99
1670396433.17967296,74415971,0,24.770761489868164,24.986263275146484,2.1307294368743896,14.91482925415039,0.3715710937976837,0.0,0.1011398509144783,99
1670396433.27974200,74516040,0,24.78416633605957,25.003671646118164,2.170318126678467,14.975162506103516,0.37306639552116394,0.0,0.1011398509144783,99
1670396433.37972784,74616026,0,24.706457138061523,24.90869140625,1.9995514154434204,15.030702590942383,0.3744385838508606,0.0,0.1011398509144783,99
1670396433.47970200,74716000,0,24.734954833984375,24.943721771240234,2.064134359359741,15.088029861450195,0.37585657835006714,0.0,0.1011398509144783,99
1670396433.57972789,74816026,0,24.778804779052734,24.99740982055664,2.1614181995391846,15.148063659667969,0.37734416127204895,0.0,0.1011398509144783,99
1670396433.67969990,74915998,0,24.79000473022461,25.010534286499023,2.180445432662964,15.208645820617676,0.3788459897041321,0.0,0.1011398509144783,99
1670396433.77968287,75015981,0,24.767316818237305,24.984525680541992,2.1476082801818848,15.268296241760254,0.3803233802318573,0.0,0.1011398509144783,99
1670396433.87968397,75115982,0,24.776697158813477,24.995954513549805,2.167863130569458,15.328519821166992,0.38181552290916443,0.0,0.1011398509144783,99
1670396433.97969484,75215993,0,24.768367767333984,24.984893798828125,2.1408565044403076,15.387999534606934,0.38328874111175537,0.0,0.1011398509144783,99
1670396434.07969189,75315990,0,24.738117218017578,24.94679069519043,2.06321382522583,15.445313453674316,0.38470658659935,0.0,0.1011398509144783,99
1670396434.17978883,75416087,0,24.75745391845703,24.97269630432129,2.1261260509490967,15.504435539245605,0.38617029786109924,0.0,0.10123676061630249,99
1670396434.27968597,75515984,0,24.75337028503418,24.967777252197266,2.1178739070892334,15.56320858001709,0.387625128030777,0.0,0.10123676061630249,99
1670396434.37973285,75616031,0,24.733232498168945,24.943471908569336,2.0767171382904053,15.620927810668945,0.38905268907546997,0.0,0.10123676061630249,99
1670396434.47972298,75716021,0,24.720211029052734,24.927593231201172,2.04848313331604,15.677812576293945,0.3904589116573334,0.0,0.10123676061630249,99
1670396434.57975888,75816057,0,24.767601013183594,24.985918045043945,2.156507968902588,15.737757682800293,0.39194363355636597,0.0,0.10123676061630249,99
1670396434.67970490,75916003,0,24.768943786621094,24.987199783325195,2.1558942794799805,15.797616958618164,0.3934262692928314,0.0,0.10123676061630249,99
1670396434.77978301,76016081,0,24.770570755004883,24.98832893371582,2.150984048843384,15.857418060302734,0.39490756392478943,0.0,0.10123676061630249,99
1670396434.87974095,76116039,0,24.727678298950195,24.936519622802734,2.0629069805145264,15.914700508117676,0.3963240385055542,0.0,0.10123676061630249,99
1670396434.97970796,76216006,0,24.73524284362793,24.945234298706055,2.0742619037628174,15.972305297851562,0.3977488875389099,0.0,0.10123676061630249,99
1670396435.07974195,76316040,0,24.768260955810547,24.986534118652344,2.156064748764038,16.0322208404541,0.3992328941822052,0.0,0.10123676061630249,99
1670396435.17973185,76416030,0,24.770952224731445,24.9899845123291,2.1635665893554688,16.092317581176758,0.40072154998779297,0.0,0.10123676061630249,99
1670396435.27975988,76516058,0,24.76051902770996,24.976537704467773,2.133798360824585,16.151611328125,0.402189701795578,0.0,0.10123676061630249,99
1670396435.37978482,76616083,0,24.75889015197754,24.974380493164062,2.1285810470581055,16.210752487182617,0.40365394949913025,0.0,0.10123676061630249,99
1670396435.47967982,76715978,0,24.72614860534668,24.93424415588379,2.055541515350342,16.26780128479004,0.40506455302238464,0.0,0.10123676061630249,99
1670396435.57974291,76816041,0,24.75056266784668,24.966442108154297,2.13257098197937,16.32708168029785,0.40653175115585327,0.0,0.10122939944267273,99
1670396435.67971396,76916012,0,24.771909713745117,24.991485595703125,2.169090509414673,16.38732147216797,0.40802401304244995,0.0,0.10122939944267273,99
1670396435.77975798,77016056,0,24.758506774902344,24.981809616088867,2.2059173583984375,16.44862937927246,0.40954190492630005,0.0,0.10122939944267273,99
1670396435.87972689,77116025,0,24.61681365966797,24.983442306518555,3.630188465118408,16.549440383911133,0.41202354431152344,0.0,0.10099443793296814,99
1670396435.97975183,77216050,0,23.896833419799805,25.06492805480957,12.937411308288574,16.908945083618164,0.4206146001815796,0.0,0.09028813987970352,99
1670396436.07974792,77316046,0,22.97720718383789,25.058753967285156,25.25358009338379,17.61039161682129,0.43673187494277954,0.0,0.0824257954955101,99
1670396436.17974496,77416043,0,22.420682907104492,25.055252075195312,32.09720230102539,18.50211524963379,0.4567249119281769,0.0,0.08208094537258148,99
1670396436.27976680,77516065,0,22.45907211303711,25.046537399291992,31.62520408630371,19.380847930908203,0.47646042704582214,0.0,0.08181654661893845,99
1670396436.37976694,77616065,0,22.838674545288086,24.931005477905273,25.521493911743164,20.089834213256836,0.4926527440547943,0.0,0.0819830596446991,99
1670396436.47973394,77716032,0,23.079742431640625,24.916812896728516,22.355627059936523,20.710668563842773,0.5069814324378967,0.0,0.0821748748421669,99
1670396436.57972383,77816022,0,23.249677658081055,24.95815658569336,20.78312873840332,21.287965774536133,0.5204034447669983,0.0,0.08220510184764862,99
1670396436.67972898,77916027,0,23.164566040039062,24.94145393371582,21.59362030029297,21.88787269592285,0.5343000292778015,0.0,0.08228763937950134,99
1670396436.77975893,78016057,0,23.04444694519043,24.910846710205078,22.633054733276367,22.516807556152344,0.5487934947013855,0.0,0.08246346563100815,99
1670396436.87978792,78116086,0,22.988218307495117,24.893728256225586,23.04766082763672,23.157257080078125,0.5635163187980652,0.0,0.08267689496278763,99
1670396436.97974491,78216043,0,22.932880401611328,24.836545944213867,22.919687271118164,23.793691635131836,0.5781115889549255,0.0,0.08305811882019043,99
1670396437.07973886,78316037,0,22.948579788208008,24.91626739501953,23.67003059387207,24.45120620727539,0.5932006239891052,0.0,0.0831298753619194,99
1670396437.17975497,78416053,0,22.898033142089844,24.921613693237305,24.328922271728516,25.127164840698242,0.6086787581443787,0.0,0.08317592740058899,99
1670396437.27971888,78516017,0,22.872373580932617,24.903194427490234,24.385698318481445,25.80435562133789,0.6241677403450012,0.0,0.08327914029359818,99
1670396437.37973189,78616030,0,22.80698585510254,24.85023307800293,24.455360412597656,26.48381996154785,0.6396642923355103,0.0,0.08355005085468292,99
1670396437.47972703,78716025,0,22.780658721923828,24.854339599609375,24.751813888549805,27.171390533447266,0.6553276181221008,0.0,0.083778977394104,99
1670396437.57975793,78816056,0,22.750690460205078,24.91364288330078,25.8157958984375,27.888774871826172,0.6716486215591431,0.0,0.08378403633832932,99
1670396437.67983890,78916137,0,22.67117691040039,24.880416870117188,26.33140754699707,28.620853424072266,0.6882457137107849,0.0,0.08390135318040848,99
1670396437.77976894,79016067,0,22.64317512512207,24.88846778869629,26.73615837097168,29.36306381225586,0.7050517201423645,0.0,0.08397964388132095,99
1670396437.87976384,79116062,0,22.58563804626465,24.813894271850586,26.43141746520996,30.097291946411133,0.7216347455978394,0.0,0.08430328965187073,99
1670396437.97979283,79216091,0,22.60124397277832,24.853185653686523,26.662199020385742,30.83817481994629,0.7383796572685242,0.0,0.0844619870185852,99
1670396438.07972789,79316026,0,22.614072799682617,24.891677856445312,26.962026596069336,31.586700439453125,0.7553068995475769,0.0,0.08447454869747162,99
1670396438.17977500,79416073,0,22.62967872619629,24.889484405517578,26.745365142822266,32.33003616333008,0.7721283435821533,0.0,0.08449336141347885,99
1670396438.27975297,79516051,0,22.613880157470703,24.872684478759766,26.710071563720703,33.07188034057617,0.7889043092727661,0.0,0.08456747978925705,99
1670396438.37974787,79616046,0,22.639923095703125,24.85869598388672,26.201251983642578,33.799713134765625,0.8053824305534363,0.0,0.08468195050954819,99
1670396438.47972798,79716026,0,22.490549087524414,24.830034255981445,27.561004638671875,34.56520462036133,0.8225987553596497,0.0,0.08488385379314423,99
1670396438.57972884,79816027,0,22.45840072631836,24.85904312133789,28.25341796875,35.350093841552734,0.8402260541915894,0.0,0.08496823906898499,99
1670396438.67981482,79916113,0,22.608137130737305,24.841503143310547,26.284725189208984,36.08086013793945,0.8567473292350769,0.0,0.08496823906898499,99
1670396438.77981901,80016117,0,22.678503036499023,24.81648826599121,25.212148666381836,36.781219482421875,0.8726304173469543,0.0,0.08479977399110794,99
1670396438.87975097,80116049,0,22.658592224121094,24.766887664794922,24.942392349243164,37.473758697509766,0.8883224129676819,0.0,0.08452662080526352,99
1670396438.97971201,80216010,0,22.649019241333008,24.751558303833008,24.949451446533203,38.16658401489258,0.9040142297744751,0.0,0.08427194505929947,99
1670396439.07973981,80316038,0,22.714120864868164,24.80521583557129,24.825775146484375,38.85643768310547,0.9196836352348328,0.0,0.08423077315092087,99
1670396439.17977190,80416070,0,22.665197372436523,24.795379638671875,25.30789566040039,39.55970764160156,0.9356234073638916,0.0,0.08417067676782608,99
1670396439.27979493,80516093,0,22.6826229095459,24.79759407043457,25.139108657836914,40.25823974609375,0.9514679312705994,0.0,0.0841306820511818,99
1670396439.37976503,80616063,0,22.667984008789062,24.72905921936035,24.5654296875,40.94046401977539,0.9669325351715088,0.0,0.08390142023563385,99
1670396439.47973490,80716033,0,22.67428970336914,24.72832679748535,24.533924102783203,41.62181091308594,0.9823816418647766,0.0,0.08372235298156738,99
1670396439.57980084,80816099,0,22.68549346923828,24.76200294494629,24.81441879272461,42.31159591674805,0.9980297684669495,0.0,0.08368159085512161,99
1670396439.67972684,80916025,0,22.671419143676758,24.757614135742188,24.94331169128418,43.0040168762207,1.0137279033660889,0.0,0.08363741636276245,99
1670396439.77977085,81016069,0,22.705120086669922,24.748260498046875,24.44645881652832,43.68343734741211,1.0291543006896973,0.0,0.08357615768909454,99
1670396439.87973881,81116037,0,22.707130432128906,24.745206832885742,24.402267456054688,44.361114501953125,1.0445424318313599,0.0,0.08351997286081314,99
1670396439.97972703,81216025,0,22.71613121032715,24.719377517700195,24.019269943237305,45.028289794921875,1.0596981048583984,0.0,0.083401620388031,99
1670396440.07973695,81316035,0,22.685779571533203,24.669574737548828,23.853551864624023,45.69101333618164,1.0747325420379639,0.0,0.08316563814878464,99
1670396440.17974091,81416039,0,22.682025909423828,24.705629348754883,24.332195281982422,46.366981506347656,1.0900648832321167,0.0,0.08316563814878464,99
1670396440.27976894,81516067,0,22.675058364868164,24.70760154724121,24.43971061706543,47.046112060546875,1.105464220046997,0.0,0.08316563814878464,99
1670396440.37976599,81616064,0,22.65447425842285,24.651796340942383,24.016202926635742,47.713260650634766,1.1205781698226929,0.0,0.08316563814878464,99
1670396440.47976089,81716059,0,22.63877296447754,24.646636962890625,24.142946243286133,48.38391876220703,1.135761022567749,0.0,0.08316563814878464,99
1670396440.57974100,81816039,0,22.690088272094727,24.711767196655273,24.30038070678711,49.058841705322266,1.1510751247406006,0.0,0.08319532126188278,99
1670396440.67979789,81916096,0,22.687599182128906,24.67972183227539,23.96525764465332,49.72472381591797,1.1661823987960815,0.0,0.08312542736530304,99
1670396440.77978301,82016081,0,22.703397750854492,24.682756423950195,23.824703216552734,50.38672637939453,1.181212067604065,0.0,0.08308008313179016,99
1670396440.87972593,82116024,0,22.64202880859375,24.61080551147461,23.697343826293945,51.04466247558594,1.1961090564727783,0.0,0.08308008313179016,99
1670396440.97976184,82216060,0,22.681812286376953,24.636289596557617,23.56190299987793,51.69944763183594,1.2109607458114624,0.0,0.08295072615146637,99
1670396441.07973886,82316037,0,22.78496742248535,24.680992126464844,22.849102020263672,52.33405685424805,1.2254202365875244,0.0,0.08298029005527496,99
1670396441.17975903,82416057,0,22.82689666748047,24.66518783569336,22.15952491760254,52.94969177246094,1.2394732236862183,0.0,0.0829571932554245,99
1670396441.27975297,82516051,0,22.84164047241211,24.649250030517578,21.806602478027344,53.55552291870117,1.2533113956451416,0.0,0.0828927680850029,99
1670396441.37981892,82616117,0,22.860788345336914,24.619464874267578,21.251440048217773,54.146270751953125,1.2668163776397705,0.0,0.08275564759969711,99
1670396441.47972488,82716023,0,22.82440948486328,24.581775665283203,21.29133415222168,54.7371940612793,1.2803038358688354,0.0,0.08253904432058334,99
1670396441.57979798,82816096,0,22.88003158569336,24.63796615600586,21.29931640625,55.329322814941406,1.2938517332077026,0.0,0.08253481239080429,99
1670396441.67973399,82916032,0,22.894201278686523,24.63091468811035,21.048280715942383,55.913665771484375,1.30722975730896,0.0,0.08251089602708817,99
1670396441.77975392,83016052,0,22.95183563232422,24.614530563354492,20.167509078979492,56.474037170410156,1.3200912475585938,0.0,0.0824441984295845,99
1670396441.87977386,83116072,0,22.903606414794922,24.534210205078125,19.84752655029297,57.0255126953125,1.3327219486236572,0.0,0.08215651661157608,99
1670396441.97975492,83216053,0,22.90884780883789,24.548423767089844,20.001174926757812,57.58103942871094,1.3454484939575195,0.0,0.08197394013404846,99
1670396442.07972193,83316020,0,22.96409034729004,24.607929229736328,20.045366287231445,58.13771438598633,1.358232021331787,0.0,0.08200591057538986,99
1670396442.17977881,83416077,0,22.96753692626953,24.607200622558594,19.98889923095703,58.693321228027344,1.3709930181503296,0.0,0.08202876150608063,99
1670396442.27981591,83516114,0,22.96485710144043,24.596097946166992,19.8897762298584,59.24605941772461,1.3836865425109863,0.0,0.0820140540599823,99
1670396442.37978601,83616084,0,22.938720703125,24.542062759399414,19.59025001525879,59.79011917114258,1.3961665630340576,0.0,0.08184387534856796,99
1670396442.47975302,83716051,0,22.950782775878906,24.557125091552734,19.648252487182617,60.33576583862305,1.4086896181106567,0.0,0.08175493031740189,99
1670396442.57976484,83816063,0,23.00985336303711,24.588502883911133,19.304229736328125,60.872100830078125,1.4210306406021118,0.0,0.0817774161696434,99
1670396442.67975283,83916051,0,23.02440643310547,24.59143829345703,19.156003952026367,61.40419006347656,1.433281660079956,0.0,0.08180366456508636,99
1670396442.77975702,84016055,0,22.988067626953125,24.573144912719727,19.384464263916016,61.94270706176758,1.4456610679626465,0.0,0.08177047222852707,99
1670396442.87972093,84116019,0,22.970504760742188,24.56296157836914,19.48805809020996,62.48389434814453,1.458092451095581,0.0,0.08171454071998596,99
1670396442.97973299,84216031,0,22.956716537475586,24.513641357421875,19.097387313842773,63.01448440551758,1.4702730178833008,0.0,0.08152557909488678,99
1670396443.07972193,84316020,0,23.013202667236328,24.576614379882812,19.168277740478516,63.54692077636719,1.4825260639190674,0.0,0.08156245946884155,99
1670396443.17978692,84416085,0,23.028234481811523,24.586734771728516,19.094318389892578,64.07769775390625,1.4947489500045776,0.0,0.08162117749452591,99
1670396443.27974892,84516047,0,23.02392578125,24.573097229003906,18.978620529174805,64.60472869873047,1.5068832635879517,0.0,0.08162718266248703,99
1670396443.37977791,84616076,0,22.969453811645508,24.52110481262207,19.009002685546875,65.13294982910156,1.5190162658691406,0.0,0.08162718266248703,99
1670396443.47975397,84716052,0,22.961217880249023,24.52764892578125,19.1900691986084,65.6659164428711,1.5312538146972656,0.0,0.08162718266248703,99
1670396443.57973289,84816031,0,23.015832901000977,24.577714920043945,19.12019920349121,66.19696044921875,1.5434763431549072,0.0,0.08168753236532211,99
1670396443.67972088,84916019,0,23.002866744995117,24.572050094604492,19.202342987060547,66.7303466796875,1.5557457208633423,0.0,0.08171828836202621,99
1670396443.77975893,85016057,0,23.012344360351562,24.5683650970459,19.038158416748047,67.25942993164062,1.5679211616516113,0.0,0.0817316398024559,99
1670396443.87977481,85116073,0,22.982376098632812,24.516849517822266,18.774539947509766,67.78106689453125,1.5799096822738647,0.0,0.0817316398024559,99
1670396443.97975183,85216050,0,22.980365753173828,24.525373458862305,18.903432846069336,68.30608367919922,1.5919747352600098,0.0,0.0817316398024559,99
1670396444.07977080,85316069,0,23.000377655029297,24.56587791442871,19.15416145324707,68.83828735351562,1.6042156219482422,0.0,0.0817316398024559,99
1670396444.17981982,85416118,0,22.996736526489258,24.56484603881836,19.186077117919922,69.37153625488281,1.616478681564331,0.0,0.0817316398024559,99
1670396444.27977991,85516078,0,22.994056701660156,24.553112030029297,19.077131271362305,69.90125274658203,1.6286590099334717,0.0,0.08172383159399033,99
1670396444.37974596,85616044,0,23.008895874023438,24.523456573486328,18.55388641357422,70.41653442382812,1.6405150890350342,0.0,0.08163032680749893,99
1670396444.47976995,85716068,0,22.994237899780273,24.500303268432617,18.449817657470703,70.92919158935547,1.6523033380508423,0.0,0.08163032680749893,99
1670396444.57973981,85816038,0,23.008514404296875,24.5493221282959,18.869369506835938,71.4532241821289,1.664360523223877,0.0,0.0816565752029419,99
1670396444.67973280,85916031,0,23.059062957763672,24.558576583862305,18.352872848510742,71.96302795410156,1.6761162281036377,0.0,0.0817045271396637,99
1670396444.77973294,86016031,0,23.05408477783203,24.542701721191406,18.221527099609375,72.46922302246094,1.6877861022949219,0.0,0.08169546723365784,99
1670396444.87973499,86116033,0,23.000185012817383,24.497325897216797,18.325868606567383,72.97832489013672,1.699495553970337,0.0,0.08169546723365784,99
1670396444.97979593,86216094,0,23.000280380249023,24.508953094482422,18.467037200927734,73.49164581298828,1.7113021612167358,0.0,0.08169546723365784,99
1670396445.07973480,86316033,0,23.069210052490234,24.551074981689453,18.126697540283203,73.9948959350586,1.7229118347167969,0.0,0.08175037056207657,99
1670396445.17978382,86416082,0,23.07045555114746,24.526641845703125,17.81888771057129,74.49015045166016,1.734337568283081,0.0,0.08172153681516647,99
1670396445.27975798,86516056,0,23.087879180908203,24.52893829345703,17.637210845947266,74.97998809814453,1.7456468343734741,0.0,0.08170558512210846,99
1670396445.37977886,86616077,0,22.891372680664062,24.471555709838867,19.291715621948242,75.51602172851562,1.7579172849655151,0.0,0.0819099023938179,99
1670396445.47978687,86716085,0,22.842695236206055,24.494794845581055,20.144184112548828,76.07567596435547,1.770701289176941,0.0,0.08201374858617783,99
1670396445.57974601,86816044,0,22.863853454589844,24.55661392211914,20.668659210205078,76.64961242675781,1.7838237285614014,0.0,0.08189990371465683,99
1670396445.67975903,86916057,0,22.85868263244629,24.56133270263672,20.819032669067383,77.22804260253906,1.7970458269119263,0.0,0.08178334683179855,99
1670396445.77981186,87016110,0,22.83905792236328,24.53927993774414,20.796937942504883,77.80609130859375,1.810247778892517,0.0,0.08175352215766907,99
1670396445.87981892,87116117,0,22.788124084472656,24.52045249938965,21.18024253845215,78.39442443847656,1.8236547708511353,0.0,0.08178984373807907,99
1670396445.97974396,87216042,0,22.76131820678711,24.493635177612305,21.148632049560547,78.98158264160156,1.8370192050933838,0.0,0.08191153407096863,99
1670396446.07981992,87316118,0,22.782381057739258,24.549928665161133,21.59975814819336,79.58204650878906,1.8506991863250732,0.0,0.08183178305625916,99
1670396446.17974186,87416040,0,22.779890060424805,24.550785064697266,21.66021728515625,80.18334197998047,1.864396572113037,0.0,0.08175799250602722,99
1670396446.27974391,87516042,0,22.763904571533203,24.533079147338867,21.64088249206543,80.78453826904297,1.8780821561813354,0.0,0.08175148814916611,99
1670396446.37982702,87616125,0,22.752700805664062,24.48415756225586,21.138813018798828,81.37226104736328,1.8914544582366943,0.0,0.08190887421369553,99
1670396446.47977996,87716078,0,22.753372192382812,24.487411499023438,21.13697052001953,81.9591293334961,1.904807686805725,0.0,0.08203823864459991,99
1670396446.57981181,87816110,0,22.741979598999023,24.570154190063477,22.32831382751465,82.57964324951172,1.9189194440841675,0.0,0.08187693357467651,99
1670396446.67974782,87916046,0,22.704736709594727,24.578140258789062,22.928586959838867,83.21619415283203,1.933372139930725,0.0,0.08170603960752487,99
1670396446.77978086,88016079,0,22.69133186340332,24.576133728027344,23.109346389770508,83.85839080810547,1.9479444026947021,0.0,0.08156018704175949,99
1670396446.87974882,88116047,0,22.722257614135742,24.56513023376465,22.62108612060547,84.48660278320312,1.9622187614440918,0.0,0.08146701008081436,98
1670396446.97983003,88216128,0,22.8823299407959,24.511024475097656,20.01314353942871,85.04301452636719,1.9749507904052734,0.0,0.08138120919466019,98
1670396447.07979894,88316097,0,22.606285095214844,24.470111846923828,22.84242057800293,85.67736053466797,1.9892910718917847,0.0,0.08159498125314713,98
1670396447.17976093,88416059,0,22.32063865661621,24.472375869750977,26.31111717224121,86.40802764892578,2.0055999755859375,0.0,0.0817805603146553,98
1670396447.27976990,88516068,0,22.551267623901367,24.460874557495117,23.292558670043945,87.05514526367188,2.020193338394165,0.0,0.08198358863592148,98
1670396447.37980199,88616100,0,22.698610305786133,24.441160202026367,21.310976028442383,87.6473617553711,2.0336358547210693,0.0,0.0817677229642868,98
1670396447.47976184,88716060,0,22.714405059814453,24.430477142333984,21.03845977783203,88.23157501220703,2.046905994415283,0.0,0.08156836032867432,98
1670396447.57980394,88816102,0,22.600955963134766,24.489213943481445,23.154766082763672,88.87508392333984,2.0614500045776367,0.0,0.08154942095279694,98
1670396447.67980289,88916101,0,22.673812866210938,24.498151779174805,22.3709716796875,89.49654388427734,2.075540781021118,0.0,0.08154942095279694,98
1670396447.77983880,89016137,0,22.782764434814453,24.501195907592773,21.061168670654297,90.08182525634766,2.0888750553131104,0.0,0.08159239590167999,98
1670396447.87975693,89116055,0,22.741701126098633,24.45181655883789,20.9877872467041,90.66439056396484,2.102123498916626,0.0,0.08148147910833359,98
1670396447.97974992,89216048,0,22.711915969848633,24.437625885009766,21.212465286254883,91.2536392211914,2.115506410598755,0.0,0.08135361224412918,98
1670396448.07976389,89316062,0,22.700523376464844,24.474334716796875,21.80169105529785,91.85936737060547,2.1292567253112793,0.0,0.08136115223169327,98
1670396448.17979288,89416091,0,22.716035842895508,24.44886016845703,21.315885543823242,92.45169067382812,2.142712116241455,0.0,0.08129261434078217,98
1670396448.27975392,89516052,0,22.71651268005371,24.467121124267578,21.534698486328125,93.04969787597656,2.156296730041504,0.0,0.08129249513149261,98
1670396448.37975287,89616051,0,22.711727142333984,24.420549392700195,21.055953979492188,93.6346206665039,2.169581413269043,0.0,0.08115623146295547,98
1670396448.47973895,89716037,0,22.746479034423828,24.429845809936523,20.7625675201416,94.2113265991211,2.18269944190979,0.0,0.08107699453830719,98
1670396448.57983899,89816137,0,22.820388793945312,24.480810165405273,20.45751953125,94.78020477294922,2.195681571960449,0.0,0.08116434514522552,98
1670396448.67974281,89916041,0,22.823740005493164,24.477375030517578,20.35931396484375,95.3452377319336,2.2085776329040527,0.0,0.08122251182794571,98
1670396448.77983093,90016129,0,22.8220157623291,24.457887649536133,20.143503189086914,95.90523529052734,2.221358060836792,0.0,0.08121085911989212,98
1670396448.87976098,90116059,0,22.782859802246094,24.429128646850586,20.29486846923828,96.46871948242188,2.2341957092285156,0.0,0.08111748099327087,98
1670396448.97979498,90216093,0,22.80133628845215,24.383798599243164,19.558027267456055,97.0122299194336,2.2465884685516357,0.0,0.08091117441654205,98
1670396449.07976890,90316067,0,22.865480422973633,24.425172805786133,19.286123275756836,97.54780578613281,2.2588346004486084,0.0,0.08087124675512314,98
1670396449.17977381,90416072,0,22.862226486206055,24.451356887817383,19.63904571533203,98.09345245361328,2.2713093757629395,0.0,0.08091689646244049,98
1670396449.27978992,90516088,0,22.82689666748047,24.446609497070312,20.011608123779297,98.64946746826172,2.284001350402832,0.0,0.08093869686126709,98
1670396449.37977886,90616077,0,22.803823471069336,24.35279655456543,19.19896697998047,99.18260955810547,2.296159029006958,0.0,0.08068003505468369,98
1670396449.47978687,90716085,0,22.83493995666504,24.40320587158203,19.451231002807617,99.72309112548828,2.3085010051727295,0.0,0.08062554150819778,98
1670396449.57976103,90816059,0,22.876693725585938,24.449941635131836,19.490169525146484,100.26445770263672,2.32088565826416,0.0,0.08072008192539215,98
1670396449.67983198,90916130,0,22.848533630371094,24.424497604370117,19.523962020874023,100.80721282958984,2.333286762237549,0.0,0.08071950823068619,98
1670396449.77981091,91016109,0,22.827184677124023,24.43765640258789,19.951459884643555,101.3611068725586,2.345930576324463,0.0,0.08071950823068619,98
1670396449.87975097,91116049,0,22.812728881835938,24.43415641784668,20.093242645263672,101.91920471191406,2.3586623668670654,0.0,0.08069512248039246,98
1670396449.97975588,91216054,0,22.853897094726562,24.420299530029297,19.41655158996582,102.45862579345703,2.37099027633667,0.0,0.08067355304956436,98
1670396450.07980680,91316105,0,22.780561447143555,24.37196922302246,19.726511001586914,103.00690460205078,2.3834805488586426,0.0,0.08067355304956436,98
1670396450.17986298,91416161,0,22.833026885986328,24.426044464111328,19.740013122558594,103.55558776855469,2.3960087299346924,0.0,0.08069996535778046,98
1670396450.27977085,91516069,0,22.79329490661621,24.42215919494629,20.186843872070312,104.11585998535156,2.4087791442871094,0.0,0.08068940788507462,98
1670396450.37980986,91616108,0,22.821632385253906,24.4046573638916,19.629226684570312,104.66136932373047,2.4212286472320557,0.0,0.08064629882574081,98
1670396450.47975302,91716051,0,22.78595542907715,24.374374389648438,19.696128845214844,105.20821380615234,2.4336891174316406,0.0,0.08064629882574081,98
1670396450.57984781,91816146,0,22.757104873657227,24.399051666259766,20.351335525512695,105.77410888671875,2.4465670585632324,0.0,0.08068009465932846,98
1670396450.67974997,91916048,0,22.853225708007812,24.41295051574707,19.328781127929688,106.31053924560547,2.4588260650634766,0.0,0.08069441467523575,98
1670396450.77979493,92016093,0,22.877830505371094,24.43185806274414,19.242238998413086,106.84523010253906,2.4710586071014404,0.0,0.08076122403144836,98
1670396450.87976599,92116064,0,22.772136688232422,24.37642478942871,19.833921432495117,107.39608764648438,2.48360276222229,0.0,0.08088606595993042,98
1670396450.97975397,92216052,0,22.75088119506836,24.366851806640625,19.943172454833984,107.95011138916016,2.4962074756622314,0.0,0.08102875202894211,98
1670396451.07975888,92316057,0,22.852842330932617,24.44453239440918,19.615415573120117,108.49498748779297,2.5086593627929688,0.0,0.08114484697580338,98
1670396451.17981482,92416113,0,22.728002548217773,24.416339874267578,20.80890655517578,109.07345581054688,2.5218069553375244,0.0,0.08113536238670349,98
1670396451.27986097,92516159,0,22.67117691040039,24.43450164794922,21.751667022705078,109.67798614501953,2.5355124473571777,0.0,0.08106622099876404,98
1670396451.37974787,92616046,0,22.590139389038086,24.397140502929688,22.27297019958496,110.29603576660156,2.5494742393493652,0.0,0.08112974464893341,98
1670396451.47977281,92716071,0,22.73259735107422,24.37660026550293,20.263872146606445,110.85891723632812,2.562269926071167,0.0,0.08112974464893341,98
1670396451.57975197,92816050,0,22.698705673217773,24.433677673339844,21.4079532623291,111.45370483398438,2.575770854949951,0.0,0.0810433179140091,98
1670396451.67989397,92916192,0,22.66567611694336,24.444955825805664,21.985824584960938,112.0653305053711,2.5896337032318115,0.0,0.0809284970164299,98
1670396451.77981400,93016112,0,22.614742279052734,24.42649269104004,22.398283004760742,112.68706512451172,2.603693962097168,0.0,0.08088789880275726,98
1670396451.87973285,93116031,0,22.587648391723633,24.368417739868164,21.972322463989258,113.29695892333984,2.6174700260162354,0.0,0.08104598522186279,98
1670396451.97986889,93216167,0,22.6063175201416,24.34726905822754,21.425138473510742,113.89295959472656,2.6309432983398438,0.0,0.08125738054513931,98
1670396452.07978392,93316082,0,22.588605880737305,24.419952392578125,22.552648544311523,114.51893615722656,2.64508318901062,0.0,0.08120320737361908,98
1670396452.17985487,93416153,0,22.58001136779785,24.432233810424805,22.834918975830078,115.15374755859375,2.659417152404785,0.0,0.08111360669136047,98
1670396452.27975702,93516055,0,22.589181900024414,24.43065071105957,22.72327995300293,115.78437805175781,2.6736626625061035,0.0,0.08103889226913452,98
1670396452.37980294,93616101,0,22.496505737304688,24.370304107666016,23.083566665649414,116.4259262084961,2.6880953311920166,0.0,0.08117459714412689,98
1670396452.47974300,93716041,0,22.496124267578125,24.389766693115234,23.311893463134766,117.07315063476562,2.70265531539917,0.0,0.08123071491718292,98
1670396452.57975698,93816055,0,22.45744514465332,24.44626808166504,24.525943756103516,117.75457763671875,2.717958450317383,0.0,0.08109056204557419,98
1670396452.67974997,93916048,0,22.486358642578125,24.42205047607422,23.88362693786621,118.41801452636719,2.732876777648926,0.0,0.08104677498340607,98
1670396452.77973080,94016029,0,22.477169036865234,24.420637130737305,23.989809036254883,119.0843276977539,2.7478537559509277,0.0,0.08101224899291992,98
1670396452.87983203,94116130,0,22.581905364990234,24.41715431213379,22.64931869506836,119.71415710449219,2.7620763778686523,0.0,0.08102889358997345,98
1670396452.97976589,94216064,0,22.48086929321289,24.359262466430664,23.130556106567383,120.3563003540039,2.776512384414673,0.0,0.08120834082365036,98
1670396453.07976198,94316060,0,22.553470611572266,24.377771377563477,22.488201141357422,120.98100280761719,2.7906017303466797,0.0,0.08112253993749619,98
1670396453.17978191,94416080,0,22.610435485839844,24.41010093688965,22.177017211914062,121.59719848632812,2.8045341968536377,0.0,0.08114998042583466,98
1670396453.27985096,94516149,0,22.615413665771484,24.41014862060547,22.110422134399414,122.21185302734375,2.818434953689575,0.0,0.08117146790027618,98
1670396453.37982893,94616127,0,22.620677947998047,24.387590408325195,21.780824661254883,122.8165283203125,2.832113265991211,0.0,0.08112237602472305,98
1670396453.47974682,94716045,0,22.599040985107422,24.361658096313477,21.758420944213867,123.42073822021484,2.8457679748535156,0.0,0.08100850880146027,98
1670396453.57977080,94816069,0,22.621349334716797,24.40174102783203,21.970172882080078,124.03121948242188,2.8595778942108154,0.0,0.08103679120540619,98
1670396453.67973089,94916029,0,22.66184425354004,24.387056350708008,21.29471206665039,124.6225357055664,2.8729782104492188,0.0,0.08101595938205719,98
1670396453.77986598,95016164,0,22.661081314086914,24.40478515625,21.51352310180664,125.22100830078125,2.886540174484253,0.0,0.08105150610208511,98
1670396453.87976503,95116063,0,22.571075439453125,24.308069229125977,21.43073081970215,125.81575012207031,2.8999640941619873,0.0,0.08105150610208511,98
1670396453.97983098,95216129,0,22.58650016784668,24.341371536254883,21.651317596435547,126.41761779785156,2.913558006286621,0.0,0.08105150610208511,98
1670396454.07975292,95316051,0,22.66251564025879,24.411394119262695,21.548507690429688,127.0157699584961,2.9271135330200195,0.0,0.08116011321544647,98
1670396454.17993498,95416233,0,22.655622482299805,24.38873291015625,21.349336624145508,127.60993194580078,2.9405746459960938,0.0,0.081178680062294,98
1670396454.27973294,95516031,0,22.71488380432129,24.386234283447266,20.586719512939453,128.18051147460938,2.953535318374634,0.0,0.08118587732315063,98
1670396454.37978601,95616084,0,22.655241012573242,24.341793060302734,20.805837631225586,128.75897216796875,2.9666404724121094,0.0,0.081061452627182,98
1670396454.47974992,95716048,0,22.641454696655273,24.356674194335938,21.173490524291992,129.34695434570312,2.9799532890319824,0.0,0.08100790530443192,98
1670396454.57973003,95816028,0,22.680133819580078,24.394256591796875,21.142187118530273,129.93417358398438,2.993271589279175,0.0,0.08107592165470123,98
1670396454.67975593,95916054,0,22.689044952392578,24.394432067871094,21.020523071289062,130.51828002929688,3.0065243244171143,0.0,0.08112958818674088,98
1670396454.77990103,96016199,0,22.668834686279297,24.378835678100586,21.078353881835938,131.1046905517578,3.019817352294922,0.0,0.08112591505050659,98
1670396454.87979698,96116095,0,22.605838775634766,24.326595306396484,21.21092987060547,131.6933135986328,3.033123731613159,0.0,0.08112591505050659,98
1670396454.97975898,96216057,0,22.574052810668945,24.321884155273438,21.501249313354492,132.29039001464844,3.046602249145508,0.0,0.08128975331783295,98
1670396455.07976198,96316060,0,22.617998123168945,24.3955020904541,21.893144607543945,132.8986053466797,3.060358762741089,0.0,0.08119001984596252,98
1670396455.17973399,96416032,0,22.611297607421875,24.380504608154297,21.80138397216797,133.5040740966797,3.074049234390259,0.0,0.08115115016698837,98
1670396455.27979183,96516090,0,22.64059066772461,24.385665893554688,21.504009246826172,134.10169982910156,3.0875799655914307,0.0,0.08115115016698837,98
1670396455.37973380,96616032,0,22.622976303100586,24.38520050048828,21.726503372192383,134.70501708984375,3.101228713989258,0.0,0.0811094269156456,98
1670396455.47973990,96716038,0,22.540332794189453,24.307748794555664,21.731143951416016,135.30873107910156,3.1148366928100586,0.0,0.08133099228143692,98
1670396455.57974601,96816044,0,22.576927185058594,24.32442283630371,21.486209869384766,135.90565490722656,3.1283135414123535,0.0,0.08133099228143692,98
1670396455.67976880,96916067,0,22.609188079833984,24.373580932617188,21.693973541259766,136.50845336914062,3.141942262649536,0.0,0.08133099228143692,98
1670396455.77980781,97016106,0,22.582670211791992,24.3952579498291,22.316957473754883,137.128662109375,3.1559481620788574,0.0,0.08122018724679947,98
1670396455.87986898,97116167,0,22.55854606628418,24.366395950317383,22.25926399230957,137.74740600585938,3.1699061393737793,0.0,0.08121783286333084,98
1670396455.97981691,97216115,0,22.534133911132812,24.29796600341797,21.717296600341797,138.35040283203125,3.1834940910339355,0.0,0.08121783286333084,98
1670396456.07975602,97316054,0,22.609188079833984,24.355806350708008,21.504316329956055,138.9474334716797,3.1969923973083496,0.0,0.08122173696756363,98
1670396456.17975187,97416050,0,22.62738037109375,24.39139747619629,21.689985275268555,139.54995727539062,3.2106258869171143,0.0,0.08132865279912949,98
1670396456.27975798,97516056,0,22.587745666503906,24.365283966064453,21.85846710205078,140.1572265625,3.2243425846099854,0.0,0.08132036030292511,98
1670396456.37979198,97616090,0,22.588735580444336,24.334373474121094,21.46619415283203,140.75375366210938,3.2378175258636475,0.0,0.08132036030292511,98
1670396456.47975183,97716050,0,22.570512771606445,24.30228042602539,21.295631408691406,141.34510803222656,3.251164674758911,0.0,0.08132036030292511,98
1670396456.57973981,97816038,0,22.61598777770996,24.363466262817383,21.477617263793945,141.94168090820312,3.2646567821502686,0.0,0.08136273175477982,98
1670396456.67980003,97916098,0,22.625179290771484,24.371658325195312,21.45030403137207,142.5379180908203,3.278146743774414,0.0,0.08141974359750748,98
1670396456.77974486,98016043,0,22.643463134765625,24.39567756652832,21.490507125854492,143.1345977783203,3.2916576862335205,0.0,0.08153438568115234,98
1670396456.87976003,98116058,0,22.60928726196289,24.38559913635254,21.786039352416992,143.73989868164062,3.3053431510925293,0.0,0.08153438568115234,98
1670396456.97974181,98216040,0,22.568500518798828,24.318639755249023,21.46503448486328,144.3361053466797,3.318798542022705,0.0,0.08153438568115234,98
1670396457.07979083,98316089,0,22.580371856689453,24.357128143310547,21.788803100585938,144.9416961669922,3.332473039627075,0.0,0.08154448121786118,98
1670396457.17974687,98416045,0,22.59128761291504,24.369918823242188,21.82082176208496,145.547607421875,3.346161365509033,0.0,0.0815107524394989,98
1670396457.27973580,98516034,0,22.59454345703125,24.370771408081055,21.800159454345703,146.1531524658203,3.3598432540893555,0.0,0.08147776871919632,98
1670396457.37978983,98616088,0,22.569746017456055,24.32282066345215,21.51597785949707,146.7511749267578,3.373340606689453,0.0,0.08147776871919632,98
1670396457.47978902,98716087,0,22.5938720703125,24.334165573120117,21.375423431396484,147.34498596191406,3.3867571353912354,0.0,0.08141564577817917,98
1670396457.57985687,98816155,0,22.63800811767578,24.37784194946289,21.349031448364258,147.93846130371094,3.4001922607421875,0.0,0.08149473369121552,98
1670396457.67972994,98916028,0,22.64604949951172,24.376693725585938,21.221057891845703,148.52723693847656,3.4135255813598633,0.0,0.0815531462430954,98
1670396457.77976584,99016064,0,22.6879825592041,24.36817169189453,20.597152709960938,149.09962463378906,3.4265120029449463,0.0,0.08157388865947723,98
1670396457.87977195,99116070,0,22.622690200805664,24.298673629760742,20.592857360839844,149.67172241210938,3.4394545555114746,0.0,0.08138661086559296,98
1670396457.97990680,99216205,0,22.603349685668945,24.29596710205078,20.797245025634766,150.250244140625,3.452531099319458,0.0,0.08138661086559296,98
1670396458.07973099,99316029,0,22.669048309326172,24.340110778808594,20.532230377197266,150.8196258544922,3.4654383659362793,0.0,0.08138731867074966,98
1670396458.17975593,99416054,0,22.67793083190918,24.352380752563477,20.56462287902832,151.39105224609375,3.4783973693847656,0.0,0.0814237892627716,98
1670396458.27975583,99516054,0,22.654090881347656,24.362146377563477,20.962657928466797,151.973388671875,3.4915897846221924,0.0,0.08148083090782166,98
1670396458.37976003,99616058,0,22.563140869140625,24.284669876098633,21.074365615844727,152.55885314941406,3.5047998428344727,0.0,0.0816882997751236,98
1670396458.47979689,99716095,0,22.591575622558594,24.37407684326172,21.85110092163086,153.1660919189453,3.5185184478759766,0.0,0.08157486468553543,98
1670396458.57973480,99816033,0,22.61005210876465,24.3550968170166,21.40181541442871,153.76026916503906,3.5319528579711914,0.0,0.08153720945119858,98
1670396458.67977095,99916069,0,22.590139389038086,24.321134567260742,21.208782196044922,154.3496551513672,3.545267343521118,0.0,0.08161693811416626,98
1670396458.77974391,100016042,0,22.623647689819336,24.36326026916504,21.31435203552246,154.9416046142578,3.558659553527832,0.0,0.08161693811416626,98
1670396458.87974691,100116045,0,22.60213851928711,24.36648941040039,21.635665893554688,155.54266357421875,3.572244644165039,0.0,0.08154825121164322,98
1670396458.97977090,100216069,0,22.52513313293457,24.311485290527344,21.872583389282227,156.1503448486328,3.585932970046997,0.0,0.08167081326246262,98
1670396459.07978892,100316087,0,22.62421989440918,24.354808807373047,21.18177604675293,156.73895263671875,3.599249839782715,0.0,0.08170180767774582,98
1670396459.17973995,100416038,0,22.60775375366211,24.376930236816406,21.654077529907227,157.3402099609375,3.6128427982330322,0.0,0.08170180767774582,98
1670396459.27972794,100516026,0,22.58247947692871,24.349618911743164,21.627378463745117,157.94094848632812,3.626408815383911,0.0,0.0817084014415741,98
1670396459.37979889,100616097,0,22.597414016723633,24.313499450683594,21.002553939819336,158.52481079101562,3.6396024227142334,0.0,0.0817084014415741,98
1670396459.47976685,100716065,0,22.587553024291992,24.27557945251465,20.65914535522461,159.09854125976562,3.652561664581299,0.0,0.0817084014415741,98
1670396459.57985783,100816156,0,22.662708282470703,24.368865966796875,20.854633331298828,159.67840576171875,3.665703058242798,0.0,0.08181189745664597,98
1670396459.67976785,100916066,0,22.627668380737305,24.338077545166016,20.908952713012695,160.25872802734375,3.6788344383239746,0.0,0.08180271089076996,98
1670396459.77986789,101016166,0,22.6251163482666,24.361221313476562,21.22307014465332,160.84884643554688,3.692186117172241,0.0,0.08180271089076996,98
1670396459.87974286,101116041,0,22.601627349853516,24.351959228515625,21.403963088989258,161.4427490234375,3.7056093215942383,0.0,0.08177607506513596,98
1670396459.97979093,101216089,0,22.554428100585938,24.26970100402832,20.97524070739746,162.0257110595703,3.7187578678131104,0.0,0.08177607506513596,98
1670396460.07983184,101316130,0,22.589946746826172,24.350631713867188,21.546667098999023,162.62452697753906,3.7322850227355957,0.0,0.0817149206995964,98
1670396460.17984796,101416146,0,22.617616653442383,24.3714542388916,21.462888717651367,163.22085571289062,3.74577260017395,0.0,0.0817149206995964,98
1670396460.27977681,101516075,0,22.610435485839844,24.33991241455078,21.165205001831055,163.80841064453125,3.7590575218200684,0.0,0.0817132443189621,98
1670396460.37983680,101616135,0,22.583627700805664,24.32242774963379,21.263715744018555,164.3994598388672,3.7724056243896484,0.0,0.08177308738231659,98
1670396460.47974992,101716048,0,22.5539493560791,24.288909912109375,21.216760635375977,164.9883575439453,3.7856874465942383,0.0,0.08177308738231659,98
1670396460.57978487,101816083,0,22.590116500854492,24.314857482910156,21.09178924560547,165.57449340820312,3.7989282608032227,0.0,0.08177308738231659,98
1670396460.67977381,101916072,0,22.586788177490234,24.366683959960938,21.801076889038086,166.18006896972656,3.8126063346862793,0.0,0.08164253830909729,98
1670396460.77980185,102016100,0,22.54255485534668,24.341856002807617,22.04781723022461,166.7925567626953,3.826413154602051,0.0,0.08160899579524994,98
1670396460.87974787,102116046,0,22.528675079345703,24.28488540649414,21.477617263793945,167.38905334472656,3.8398513793945312,0.0,0.08176933228969574,98
1670396460.97977901,102216077,0,22.542747497558594,24.298471450805664,21.446008682250977,167.98500061035156,3.853285789489746,0.0,0.08186713606119156,98
1670396461.07976985,102316068,0,22.567642211914062,24.35466194152832,21.855091094970703,168.59202575683594,3.8669850826263428,0.0,0.08176673948764801,97
1670396461.17987394,102416172,0,22.569652557373047,24.34773826599121,21.745838165283203,169.19677734375,3.880634307861328,0.0,0.08176673948764801,97
1670396461.27975202,102516050,0,22.579988479614258,24.345050811767578,21.586563110351562,169.79574584960938,3.8941588401794434,0.0,0.08176673948764801,97
1670396461.37992692,102616225,0,22.57615852355957,24.353416442871094,21.7357120513916,170.40061950683594,3.9078145027160645,0.0,0.08176673948764801,97
1670396461.47973490,102716033,0,22.510547637939453,24.257850646972656,21.369354248046875,170.99313354492188,3.921152114868164,0.0,0.08176673948764801,97
1670396461.57984090,102816139,0,22.535568237304688,24.318471908569336,21.800159454345703,171.599365234375,3.934813976287842,0.0,0.08178401738405228,97
1670396461.67977381,102916072,0,22.571659088134766,24.35210418701172,21.770082473754883,172.20375061035156,3.948455810546875,0.0,0.08178401738405228,97
1670396461.77990103,103016199,0,22.570798873901367,24.33360481262207,21.5500431060791,172.80313110351562,3.961984395980835,0.0,0.08180059492588043,97
1670396461.87973499,103116033,0,22.57280921936035,24.310827255249023,21.260953903198242,173.392822265625,3.975295305252075,0.0,0.08174698799848557,97
1670396461.97974181,103216040,0,22.509719848632812,24.257070541381836,21.3751163482666,173.9866485595703,3.9886622428894043,0.0,0.08174698799848557,97
1670396462.07979894,103316097,0,22.537290573120117,24.330692291259766,21.953603744506836,174.5968780517578,4.002415180206299,0.0,0.08169052004814148,97
1670396462.17988801,103416186,0,22.582958221435547,24.357982635498047,21.72865104675293,175.20103454589844,4.016058921813965,0.0,0.08169052004814148,97
1670396462.27979088,103516089,0,22.53054428100586,24.331501007080078,22.054058074951172,175.8131103515625,4.029849052429199,0.0,0.08166098594665527,97
1670396462.37971401,103616012,0,22.470178604125977,24.296066284179688,22.334144592285156,176.43307495117188,4.0437798500061035,0.0,0.08175322413444519,97
1670396462.47974181,103716040,0,22.40670394897461,24.27581787109375,22.820871353149414,177.0672149658203,4.05798864364624,0.0,0.08190371841192245,97
1670396462.57976389,103816062,0,22.4940185546875,24.366044998168945,22.903423309326172,177.70361328125,4.072303771972656,0.0,0.08173563331365585,97
1670396462.67978382,103916082,0,22.49009132385254,24.336618423461914,22.605741500854492,178.33172607421875,4.086430072784424,0.0,0.08168401569128036,97
1670396462.77975798,104016056,0,22.523887634277344,24.3411865234375,22.247907638549805,178.94961547851562,4.100347518920898,0.0,0.08168401569128036,97
1670396462.87976885,104116067,0,22.45342445373535,24.27220916748047,22.217220306396484,179.56687927246094,4.1142072677612305,0.0,0.08186370879411697,97
1670396462.97980690,104216105,0,22.524940490722656,24.293254852294922,21.621549606323242,180.16775512695312,4.127741813659668,0.0,0.08178485184907913,97
1670396463.07973480,104316033,0,22.568523406982422,24.350526809692383,21.760807037353516,180.77183532714844,4.1413750648498535,0.0,0.0818905234336853,97
1670396463.17976284,104416061,0,22.532886505126953,24.350557327270508,22.196352005004883,181.3886260986328,4.1552734375,0.0,0.0818905234336853,97
1670396463.27975392,104516052,0,22.551651000976562,24.334701538085938,21.767627716064453,181.99327087402344,4.168909072875977,0.0,0.08191298693418503,97
1670396463.37973785,104616036,0,22.582765579223633,24.292781829833984,20.902814865112305,182.5738525390625,4.18202018737793,0.0,0.08180791884660721,97
1670396463.47972584,104716024,0,22.616945266723633,24.245237350463867,19.957902908325195,183.1282196044922,4.194558143615723,0.0,0.0815863236784935,97
1670396463.57974195,104816040,0,22.614551544189453,24.289588928222656,20.54160499572754,183.69895935058594,4.207465171813965,0.0,0.08154365420341492,97
1670396463.67977881,104916077,0,22.57970428466797,24.323009490966797,21.378799438476562,184.29298400878906,4.2208781242370605,0.0,0.08154365420341492,97
1670396463.77980399,105016102,0,22.570415496826172,24.305063247680664,21.272308349609375,184.88417053222656,4.234221458435059,0.0,0.081544890999794,97
1670396463.87976694,105116065,0,22.51310157775879,24.24954605102539,21.294336318969727,185.4755096435547,4.247534275054932,0.0,0.081544890999794,97
1670396463.97975302,105216051,0,22.522930145263672,24.246116638183594,21.131752014160156,186.0624542236328,4.260754108428955,0.0,0.081544890999794,97
1670396464.07976103,105316059,0,22.561798095703125,24.31741714477539,21.529481887817383,186.6605987548828,4.274249076843262,0.0,0.081544890999794,97
1670396464.17984891,105416147,0,22.59789276123047,24.321210861206055,21.11149787902832,187.24758911132812,4.287513732910156,0.0,0.08162934333086014,97
1670396464.27975488,105516053,0,22.557491302490234,24.30187225341797,21.37235450744629,187.84075927734375,4.300894260406494,0.0,0.08161855489015579,97
1670396464.37988496,105616183,0,22.53987693786621,24.244056701660156,20.879798889160156,188.4215545654297,4.313985347747803,0.0,0.08161855489015579,97
1670396464.47975397,105716052,0,22.553375244140625,24.2762393951416,21.108736038208008,189.00718688964844,4.327193260192871,0.0,0.08161855489015579,97
1670396464.57975888,105816057,0,22.583148956298828,24.31553077697754,21.225353240966797,189.59678649902344,4.340507984161377,0.0,0.08161855489015579,97
1670396464.67978191,105916080,0,22.57137107849121,24.318105697631836,21.401203155517578,190.1915283203125,4.353931903839111,0.0,0.08161855489015579,97
1670396464.77977586,106016074,0,22.573204040527344,24.297529220581055,21.125886917114258,190.7783660888672,4.367178440093994,0.0,0.0816214382648468,97
1670396464.87978196,106116080,0,22.58966064453125,24.290966033935547,20.848188400268555,191.35757446289062,4.38026237487793,0.0,0.0816044881939888,97
1670396464.97977781,106216076,0,22.570512771606445,24.257841110229492,20.704870223999023,191.93263244628906,4.393241882324219,0.0,0.0814942866563797,97
1670396465.07973385,106316032,0,22.596363067626953,24.295310974121094,20.84143829345703,192.51144409179688,4.406321048736572,0.0,0.081517793238163,97
1670396465.17974591,106416044,0,22.583053588867188,24.33306121826172,21.467796325683594,193.10789489746094,4.419790744781494,0.0,0.081517793238163,97
1670396465.27972198,106516020,0,22.54791831970215,24.30944061279297,21.620628356933594,193.7083740234375,4.433330059051514,0.0,0.08147412538528442,97
1670396465.37971401,106616012,0,22.549928665161133,24.27664566040039,21.193437576293945,194.2970733642578,4.446605205535889,0.0,0.08147412538528442,97
1670396465.47975492,106716053,0,22.5325984954834,24.267303466796875,21.26801300048828,194.88815307617188,4.45992374420166,0.0,0.08156406879425049,97
1670396465.57974195,106816040,0,22.563949584960938,24.328920364379883,21.639076232910156,195.4892120361328,4.473485946655273,0.0,0.08156406879425049,97
1670396465.67978001,106916078,0,22.556821823120117,24.32384490966797,21.687528610229492,196.0919189453125,4.487081050872803,0.0,0.08147644251585007,97
1670396465.77990794,107016206,0,22.540929794311523,24.308795928955078,21.70532989501953,196.69566345214844,4.50068998336792,0.0,0.0814485102891922,97
1670396465.87976694,107116065,0,22.54073715209961,24.25493812561035,21.04644012451172,197.27951049804688,4.513850212097168,0.0,0.0814485102891922,97
1670396465.97977686,107216075,0,22.55222511291504,24.28807258605957,21.312204360961914,197.8716278076172,4.527203559875488,0.0,0.0814485102891922,97
1670396466.07975984,107316058,0,22.56275749206543,24.33399772644043,21.74675941467285,198.47557067871094,4.540830135345459,0.0,0.0814485102891922,97
1670396466.17974401,107416042,0,22.577117919921875,24.325862884521484,21.47056007385254,199.07200622558594,4.554296016693115,0.0,0.0814485102891922,97
1670396466.27973199,107516030,0,22.593393325805664,24.32022476196289,21.18914222717285,199.6605682373047,4.567593574523926,0.0,0.08149606734514236,97
1670396466.37984896,107616147,0,22.549692153930664,24.286624908447266,21.313091278076172,200.25332641601562,4.580960273742676,0.0,0.08149606734514236,97
1670396466.47973394,107716032,0,22.51134490966797,24.27912139892578,21.669422149658203,200.8546142578125,4.594496250152588,0.0,0.0815792977809906,97
1670396466.57978487,107816083,0,22.528963088989258,24.300926208496094,21.720367431640625,201.45831298828125,4.608097076416016,0.0,0.0815807580947876,97
1670396466.67974496,107916043,0,22.554332733154297,24.332857131958008,21.800771713256836,202.06370544433594,4.621751308441162,0.0,0.0815807580947876,97
1670396466.77982283,108016121,0,22.56103515625,24.322683334350586,21.59392738342285,202.66404724121094,4.635295867919922,0.0,0.0815807580947876,97
1670396466.87976980,108116068,0,22.512399673461914,24.263208389282227,21.46104621887207,203.25991821289062,4.648710250854492,0.0,0.0815807580947876,97
1670396466.97974801,108216046,0,22.521589279174805,24.266389846801758,21.387392044067383,203.8539276123047,4.662088394165039,0.0,0.0815807580947876,97
1670396467.07972097,108316019,0,22.564672470092773,24.313060760498047,21.418081283569336,204.44876098632812,4.675510406494141,0.0,0.08163139969110489,97
1670396467.17977190,108416070,0,22.5393009185791,24.30229377746582,21.59945297241211,205.04910278320312,4.689041614532471,0.0,0.08162213116884232,97
1670396467.27979183,108516090,0,22.54150390625,24.295040130615234,21.483585357666016,205.6460418701172,4.702497482299805,0.0,0.08162213116884232,97
1670396467.37982988,108616128,0,22.5393009185791,24.246360778808594,20.914169311523438,206.22726440429688,4.715597629547119,0.0,0.08162213116884232,97
1670396467.47976398,108716062,0,22.52503776550293,24.248252868652344,21.112112045288086,206.81333923339844,4.728798866271973,0.0,0.08162213116884232,97
1670396467.57974792,108816046,0,22.542747497558594,24.298601150512695,21.51198959350586,207.410888671875,4.742269039154053,0.0,0.08162213116884232,97
1670396467.67975688,108916055,0,22.585926055908203,24.31072998046875,21.11272621154785,207.99737548828125,4.7555155754089355,0.0,0.08169499039649963,97
1670396467.77975392,109016052,0,22.573957443237305,24.29241371154785,21.034162521362305,208.58175659179688,4.768707752227783,0.0,0.08169837296009064,97
1670396467.87974501,109116043,0,22.56610679626465,24.260223388671875,20.759496688842773,209.1584014892578,4.7817206382751465,0.0,0.08160681277513504,97
1670396467.97974586,109216044,0,22.5504093170166,24.25609588623047,20.901281356811523,209.73904418945312,4.794814586639404,0.0,0.08160681277513504,97
1670396468.07974601,109316044,0,22.579320907592773,24.297990798950195,21.04674530029297,210.32371520996094,4.808016300201416,0.0,0.08165967464447021,97
1670396468.17973089,109416029,0,22.551504135131836,24.28876304626465,21.278650283813477,210.9147491455078,4.82134485244751,0.0,0.08164329826831818,97
