timestamp,TimeUS,Instance,Volt,VoltR,Curr,CurrTot,EnrgTot,Temp,Res,RemPct
1670397902.67948389,65714062,0,24.921995162963867,25.010765075683594,0.732032299041748,12.842732429504395,0.3199397623538971,0.0,0.12126459181308746,99
1670397902.77946997,65814048,0,24.89388084411621,24.977018356323242,0.6855897307395935,12.861775398254395,0.32041382789611816,0.0,0.12126459181308746,99
1670397902.87949681,65914075,0,24.882488250732422,24.961606979370117,0.6524457335472107,12.879905700683594,0.3208649456501007,0.0,0.12126459181308746,99
1670397902.97947598,66014054,0,24.863054275512695,24.9373722076416,0.6128571033477783,12.89692497253418,0.3212881088256836,0.0,0.12126459181308746,99
1670397903.07949996,66114078,0,24.911113739013672,24.99827003479004,0.7187337279319763,12.916898727416992,0.32178568840026855,0.0,0.12126459181308746,99
1670397903.17943501,66214013,0,24.907665252685547,24.995529174804688,0.7245646119117737,12.93701457977295,0.3222867250442505,0.0,0.12126459181308746,99
1670397903.27947092,66314049,0,24.912826538085938,25.0001163482666,0.7198249101638794,12.957018852233887,0.32278507947921753,0.0,0.12126459181308746,99
1670397903.37947392,66414052,0,24.921165466308594,25.010704040527344,0.7383745908737183,12.977531433105469,0.32329627871513367,0.0,0.12126459181308746,99
1670397903.47943401,66514012,0,24.867170333862305,24.94454002380371,0.6380218863487244,12.995248794555664,0.32373684644699097,0.0,0.12126459181308746,99
1670397903.57949185,66614070,0,24.877222061157227,24.955076217651367,0.6420115232467651,13.01308536529541,0.32418057322502136,0.0,0.12126459181308746,99
1670397903.67939281,66713971,0,24.906518936157227,24.99241065979004,0.7082995176315308,13.03275203704834,0.3246704041957855,0.0,0.12126459181308746,99
1670397903.77947187,66814050,0,24.91341209411621,25.001686096191406,0.7279403805732727,13.052989959716797,0.32517459988594055,0.0,0.12126459181308746,99
1670397903.87947893,66914057,0,24.902305603027344,24.986858367919922,0.6972514390945435,13.07236099243164,0.3256569802761078,0.0,0.12126459181308746,99
1670397903.97949290,67014071,0,24.86276626586914,24.937604904174805,0.617153525352478,13.089508056640625,0.32608330249786377,0.0,0.12126459181308746,99
1670397904.07953286,67114111,0,24.902210235595703,24.987096786499023,0.7000135183334351,13.108962059020996,0.32656773924827576,0.0,0.12126459181308746,99
1670397904.17940998,67213988,0,24.916017532348633,25.004423141479492,0.7290315628051758,13.129189491271973,0.3270717263221741,0.0,0.12126459181308746,99
1670397904.27945280,67314031,0,24.913795471191406,25.002180099487305,0.7288610935211182,13.149445533752441,0.3275763988494873,0.0,0.12126459181308746,99
1670397904.37947297,67414051,0,24.892637252807617,24.974212646484375,0.6727004051208496,13.168137550354004,0.328041672706604,0.0,0.12126459181308746,99
1670397904.47947502,67514053,0,24.86602020263672,24.942607879638672,0.6315773129463196,13.185683250427246,0.3284779489040375,0.0,0.12126459181308746,99
1670397904.57950401,67614082,0,24.91274070739746,25.000865936279297,0.7267128229141235,13.205877304077148,0.32898104190826416,0.0,0.12126459181308746,99
1670397904.67948294,67714061,0,24.907665252685547,24.994821548461914,0.7187337279319763,13.225839614868164,0.32947826385498047,0.0,0.12126459181308746,99
1670397904.77947283,67814051,0,24.911497116088867,24.999509811401367,0.7257921695709229,13.246000289916992,0.3299804925918579,0.0,0.12126459181308746,99
1670397904.87950301,67914081,0,24.823894500732422,25.05064582824707,1.9113038778305054,13.299112319946289,0.33129894733428955,0.0,0.11863692849874496,99
1670397904.97945499,68014033,0,24.47817611694336,25.0899658203125,5.245412349700928,13.444758415222168,0.3348641097545624,0.0,0.11663328111171722,99
1670397905.07948399,68114062,0,24.633283615112305,25.05630111694336,3.6568875312805176,13.546377182006836,0.33736732602119446,0.0,0.11567696183919907,99
1670397905.17946696,68214045,0,24.74979591369629,25.03333854675293,2.458486557006836,13.614662170410156,0.3390573561191559,0.0,0.11533249914646149,99
1670397905.27948999,68314068,0,24.759368896484375,25.044248580932617,2.481196641921997,13.683605194091797,0.3407643437385559,0.0,0.11481571942567825,99
1670397905.37945199,68414030,0,24.74912452697754,25.019392013549805,2.352917194366455,13.748945236206055,0.34238144755363464,0.0,0.11486472934484482,99
1670397905.47945786,68514036,0,24.72356414794922,24.975040435791016,2.1718523502349854,13.809276580810547,0.3438730537891388,0.0,0.11578918248414993,99
1670397905.57940984,68613988,0,24.768943786621094,25.02276611328125,2.1921072006225586,13.870150566101074,0.34538084268569946,0.0,0.11578918248414993,99
1670397905.67942786,68714006,0,24.775453567504883,25.025651931762695,2.157735586166382,13.930103302001953,0.3468661904335022,0.0,0.1159539595246315,99
1670397905.77953386,68814112,0,24.78091049194336,25.030033111572266,2.1445393562316895,13.989731788635254,0.3483438491821289,0.0,0.116165891289711,99
1670397905.87947583,68914054,0,24.791982650756836,25.04081153869629,2.1352646350860596,14.04902458190918,0.3498138189315796,0.0,0.11653298139572144,99
1670397905.97947097,69014049,0,24.757265090942383,24.99802017211914,2.0659759044647217,14.106414794921875,0.35123464465141296,0.0,0.11653298139572144,99
1670397906.07947683,69114055,0,24.730838775634766,24.9659423828125,2.0174875259399414,14.162457466125488,0.3526206314563751,0.0,0.11653298139572144,99
1670397906.17946386,69214042,0,24.775070190429688,25.022762298583984,2.12551212310791,14.221503257751465,0.35408350825309753,0.0,0.11653298139572144,99
1670397906.27947187,69314050,0,24.790197372436523,25.039499282836914,2.139322280883789,14.280939102172852,0.3555569350719452,0.0,0.11653298139572144,99
1670397906.37948585,69414064,0,24.790485382080078,25.040000915527344,2.1411635875701904,14.340429306030273,0.3570317029953003,0.0,0.11653298139572144,99
1670397906.47945881,69514037,0,24.732465744018555,24.96628189086914,2.006439447402954,14.396153450012207,0.3584098815917969,0.0,0.11653298139572144,99
1670397906.57946491,69614043,0,24.75917625427246,25.00168228149414,2.0810134410858154,14.453967094421387,0.3598412871360779,0.0,0.11653298139572144,99
1670397906.67951989,69714098,0,24.76751708984375,25.01300811767578,2.106621503829956,14.512521743774414,0.3612915277481079,0.0,0.11653298139572144,99
1670397906.77941990,69813998,0,24.78186798095703,25.031742095947266,2.1442325115203857,14.572028160095215,0.36276620626449585,0.0,0.11653298139572144,99
1670397906.87945580,69914034,0,24.771528244018555,25.017038345336914,2.1058714389801025,14.630550384521484,0.3642158806324005,0.0,0.1165834292769432,99
1670397906.97950983,70014088,0,24.73036003112793,24.96735382080078,2.032832145690918,14.687052726745605,0.3656132221221924,0.0,0.1165834292769432,99
1670397907.07944894,70114027,0,24.76540184020996,25.01194953918457,2.1147711277008057,14.74576473236084,0.36706724762916565,0.0,0.1165834292769432,99
1670397907.17948985,70214068,0,24.75735855102539,25.002756118774414,2.103109359741211,14.804214477539062,0.3685142993927002,0.0,0.11668286472558975,99
1670397907.27950597,70314084,0,24.766164779663086,25.013566970825195,2.120295286178589,14.86312484741211,0.3699733018875122,0.0,0.11668286472558975,99
1670397907.37950087,70414079,0,24.75084686279297,24.99366569519043,2.0810134410858154,14.92093276977539,0.37140411138534546,0.0,0.11668286472558975,99
1670397907.47948980,70514068,0,24.737838745117188,24.97723960876465,2.051722526550293,14.977923393249512,0.3728139400482178,0.0,0.11668286472558975,99
1670397907.57952785,70614106,0,24.738117218017578,24.977140426635742,2.04848313331604,15.034852027893066,0.3742222487926483,0.0,0.11668286472558975,99
1670397907.67951393,70714092,0,24.75889015197754,25.00299835205078,2.0920615196228027,15.0929594039917,0.3756609261035919,0.0,0.11668286472558975,99
1670397907.77952194,70814100,0,24.77851676940918,25.030323028564453,2.1580426692962646,15.152915954589844,0.37714657187461853,0.0,0.11668286472558975,99
1670397907.87951183,70914090,0,24.712936401367188,25.061931610107422,3.02162766456604,15.236848831176758,0.37922078371047974,0.0,0.11549900472164154,99
1670397907.97952580,71014104,0,24.116870880126953,25.079252243041992,9.448494911193848,15.499364852905273,0.3855518400669098,0.0,0.10185560584068298,99
1670397908.07949400,71114072,0,23.031587600708008,25.06863784790039,22.892988204956055,16.135128021240234,0.4001944959163666,0.0,0.08898142725229263,99
1670397908.17950296,71214081,0,22.46950912475586,25.066375732421875,30.113162994384766,16.97174644470215,0.41899290680885315,0.0,0.08623691648244858,99
1670397908.27952290,71314101,0,22.108577728271484,25.064979553222656,34.96875762939453,17.94337272644043,0.44047418236732483,0.0,0.0845440998673439,99
1670397908.37952089,71414099,0,22.588520050048828,24.932588577270508,27.685129165649414,18.71245002746582,0.4578464925289154,0.0,0.08466885983943939,99
1670397908.47955990,71514138,0,22.87907600402832,24.877647399902344,23.52794075012207,19.366304397583008,0.47280609607696533,0.0,0.08494462072849274,99
1670397908.57956600,71614144,0,23.195106506347656,24.906726837158203,20.11410903930664,19.924896240234375,0.48576268553733826,0.0,0.08509554713964462,99
1670397908.67951798,71714096,0,23.192138671875,24.911991119384766,20.18316078186035,20.48553466796875,0.49876508116722107,0.0,0.08521222323179245,99
1670397908.77943993,71814018,0,23.096689224243164,24.926830291748047,21.462888717651367,21.081308364868164,0.5125254988670349,0.0,0.08527004718780518,99
1670397908.87946391,71914042,0,22.972803115844727,24.933914184570312,22.990886688232422,21.72014808654785,0.5272014737129211,0.0,0.0852995216846466,99
1670397908.97963095,72014209,0,22.917085647583008,24.867090225219727,22.79907989501953,22.354564666748047,0.5417404174804688,0.0,0.08552993834018707,99
1670397909.07954597,72114124,0,22.902530670166016,24.868104934692383,22.927358627319336,22.990875244140625,0.5563135147094727,0.0,0.08573052287101746,99
1670397909.17952490,72214103,0,22.89372444152832,24.908306121826172,23.48405647277832,23.643190383911133,0.5712474584579468,0.0,0.08578510582447052,99
1670397909.27951980,72314098,0,22.881053924560547,24.91136932373047,23.65669822692871,24.30034065246582,0.5862837433815002,0.0,0.08582411706447601,99
1670397909.37956691,72414145,0,22.932401657104492,24.899776458740234,22.90464973449707,24.93693733215332,0.6008824110031128,0.0,0.0858941301703453,99
1670397909.47952199,72514100,0,22.86012077331543,24.82508087158203,22.799386978149414,25.57001304626465,0.615354597568512,0.0,0.08618481457233429,99
1670397909.57956600,72614144,0,22.82182502746582,24.85996437072754,23.606813430786133,26.226104736328125,0.6303278207778931,0.0,0.08633687347173691,99
1670397909.67951584,72714094,0,22.788219451904297,24.865922927856445,24.032466888427734,26.89339256286621,0.6455341577529907,0.0,0.08645401149988174,99
1670397909.77950692,72814085,0,22.781326293945312,24.87383270263672,24.18130874633789,27.565088272094727,0.6608362793922424,0.0,0.0865340381860733,99
1670397909.87951803,72914096,0,22.742074966430664,24.84657859802246,24.276445388793945,28.23956298828125,0.6761752367019653,0.0,0.08668912202119827,99
1670397909.97953296,73014111,0,22.69611930847168,24.800378799438477,24.195425033569336,28.911806106567383,0.691432535648346,0.0,0.08696932345628738,99
1670397910.07955480,73114133,0,22.737340927124023,24.863800048828125,24.43517303466797,29.590770721435547,0.7068703770637512,0.0,0.08702455461025238,99
1670397910.17951488,73214093,0,22.74025535583496,24.851837158203125,24.240232467651367,30.26389503479004,0.7221773862838745,0.0,0.08711060881614685,99
1670397910.27952790,73314106,0,22.686738967895508,24.872468948364258,25.08755111694336,30.96091079711914,0.7379903793334961,0.0,0.08712412416934967,99
1670397910.37953687,73414115,0,22.62556266784668,24.865772247314453,25.703170776367188,31.675016403198242,0.7541474103927612,0.0,0.08715690672397614,99
1670397910.47960687,73514185,0,22.540929794311523,24.820911407470703,26.10918426513672,32.40076446533203,0.7705064415931702,0.0,0.08732490986585617,99
1670397910.57951593,73614094,0,22.52034568786621,24.803112030029297,26.079721450805664,33.124664306640625,0.7868089079856873,0.0,0.08753034472465515,99
1670397910.67953086,73714109,0,22.635995864868164,24.80118751525879,24.736469268798828,33.811954498291016,0.8023663759231567,0.0,0.08753034472465515,99
1670397910.77952099,73814099,0,22.746862411499023,24.825910568237305,23.771610260009766,34.47226333618164,0.8173863291740417,0.0,0.0874592736363411,99
1670397910.87954783,73914126,0,22.799253463745117,24.804683685302734,22.959379196166992,35.11024856567383,0.8319318890571594,0.0,0.0873468890786171,99
1670397910.97952294,74014101,0,22.748106002807617,24.70460319519043,22.490964889526367,35.734886169433594,0.8461411595344543,0.0,0.08699039369821548,99
1670397911.07953382,74114112,0,22.762466430664062,24.749292373657227,22.881019592285156,36.37059783935547,0.8606114983558655,0.0,0.08683295547962189,99
1670397911.17953181,74214110,0,22.818185806274414,24.76657485961914,22.458127975463867,36.99446487426758,0.8748470544815063,0.0,0.08675650507211685,99
1670397911.27950597,74314084,0,22.835037231445312,24.786426544189453,22.494340896606445,37.61920166015625,0.8891129493713379,0.0,0.08675021678209305,99
1670397911.37953401,74414112,0,22.822206497192383,24.736438751220703,22.10152244567871,38.23335266113281,0.9031292796134949,0.0,0.08661084622144699,99
1670397911.47951388,74514092,0,22.791473388671875,24.698949813842773,22.07697105407715,38.846527099609375,0.9171044826507568,0.0,0.08640117198228836,99
1670397911.57954788,74614126,0,22.79999542236328,24.720552444458008,22.25558090209961,39.464996337890625,0.9312056303024292,0.0,0.08629549294710159,99
1670397911.67956495,74714143,0,22.804494857788086,24.73692512512207,22.403194427490234,40.08746337890625,0.9454006552696228,0.0,0.08625691384077072,99
1670397911.77952194,74814100,0,22.835100173950195,24.749244689941406,22.190452575683594,40.70364761352539,0.9594713449478149,0.0,0.08625984936952591,99
1670397911.87953186,74914110,0,22.839725494384766,24.76084327697754,22.262638092041016,41.322166442871094,0.9735981225967407,0.0,0.08629332482814789,99
1670397911.97951102,75014089,0,22.81196403503418,24.69655418395996,21.876571655273438,41.92972183227539,0.9874576330184937,0.0,0.0861465260386467,99
1670397912.07960701,75114185,0,22.805166244506836,24.685680389404297,21.86583137512207,42.53778076171875,1.0013245344161987,0.0,0.08600236475467682,99
1670397912.17951298,75214091,0,22.77711296081543,24.709789276123047,22.458127975463867,43.16108703613281,1.0155216455459595,0.0,0.08605683594942093,99
1670397912.27955389,75314132,0,22.795400619506836,24.720258712768555,22.367286682128906,43.78269958496094,1.0296915769577026,0.0,0.08605683594942093,99
1670397912.37954187,75414120,0,22.769933700561523,24.712562561035156,22.56400489807129,44.40943908691406,1.0439623594284058,0.0,0.08609411865472794,99
1670397912.47955203,75514130,0,22.738340377807617,24.66878890991211,22.422527313232422,45.03241729736328,1.0581278800964355,0.0,0.08609411865472794,99
1670397912.57966185,75614240,0,22.75872230529785,24.696430206298828,22.49256706237793,45.6579475402832,1.0723642110824585,0.0,0.08614879101514816,99
1670397912.67950296,75714081,0,22.765338897705078,24.71499252319336,22.63336181640625,46.28569793701172,1.0866551399230957,0.0,0.08614073693752289,99
1670397912.77956080,75814139,0,22.768592834472656,24.718008041381836,22.63489532470703,46.914859771728516,1.100980281829834,0.0,0.08612434566020966,99
1670397912.87951398,75914092,0,22.74015998840332,24.684648513793945,22.554798126220703,47.54114532470703,1.1152220964431763,0.0,0.08621173352003098,99
1670397912.97953391,76014112,0,22.72005271911621,24.63736915588379,22.239622116088867,48.15908432006836,1.1292617321014404,0.0,0.08621173352003098,99
1670397913.07951593,76114094,0,22.811580657958984,24.68181037902832,21.704408645629883,48.761924743652344,1.1430134773254395,0.0,0.08616816997528076,99
1670397913.17950201,76214080,0,22.868545532226562,24.677520751953125,21.004701614379883,49.34535217285156,1.156355619430542,0.0,0.08612243086099625,99
1670397913.27952099,76314099,0,22.916893005371094,24.66453742980957,20.309289932250977,49.90965270996094,1.1692875623703003,0.0,0.08605144917964935,99
1670397913.37954593,76414124,0,22.902437210083008,24.678428649902344,20.643049240112305,50.48326110839844,1.182424545288086,0.0,0.086033396422863,99
1670397913.47951698,76514095,0,22.848342895507812,24.62346839904785,20.672033309936523,51.05736541748047,1.1955418586730957,0.0,0.08587083220481873,99
1670397913.57954502,76614123,0,22.842695236206055,24.60973358154297,20.617408752441406,51.63024139404297,1.2086279392242432,0.0,0.08570615947246552,99
1670397913.67950892,76714087,0,22.911338806152344,24.6390438079834,20.170270919799805,52.19038009643555,1.221461534500122,0.0,0.08565597981214523,99
1670397913.77952385,76814102,0,22.935274124145508,24.64875602722168,20.007312774658203,52.74628829956055,1.2342114448547363,0.0,0.08564282208681107,99
1670397913.87955999,76914138,0,22.88788604736328,24.637210845947266,20.43572998046875,53.3141975402832,1.2472096681594849,0.0,0.08560130000114441,99
1670397913.97958493,77014163,0,22.864713668823242,24.660799026489258,20.981992721557617,53.89722442626953,1.2605403661727905,0.0,0.08560130000114441,99
1670397914.07953596,77114114,0,22.805356979370117,24.586599349975586,20.8085994720459,54.47500228881836,1.2737168073654175,0.0,0.08560130000114441,99
1670397914.17953992,77214118,0,22.867225646972656,24.62701416015625,20.566669464111328,55.04636764526367,1.2867823839187622,0.0,0.08556503057479858,99
1670397914.27951503,77314093,0,22.863758087158203,24.647871017456055,20.850950241088867,55.625457763671875,1.3000224828720093,0.0,0.08556503057479858,99
1670397914.37951803,77414096,0,22.806217193603516,24.587467193603516,20.8174991607666,56.203792572021484,1.3132120370864868,0.0,0.08556503057479858,99
1670397914.47952485,77514103,0,22.805644989013672,24.574474334716797,20.67234230041504,56.77811050415039,1.3263096809387207,0.0,0.08556503057479858,99
1670397914.57959700,77614175,0,22.825557708740234,24.617795944213867,20.943323135375977,57.36033630371094,1.3395992517471313,0.0,0.0855756551027298,99
1670397914.67947197,77714050,0,22.81598472595215,24.642087936401367,21.35516929626465,57.952842712402344,1.353117823600769,0.0,0.08551110327243805,99
1670397914.77964783,77814226,0,22.86107635498047,24.61722183227539,20.540990829467773,58.524436950683594,1.3661850690841675,0.0,0.08549466729164124,99
1670397914.87952495,77914103,0,22.925029754638672,24.620346069335938,19.83054542541504,59.074684143066406,1.378799557685852,0.0,0.08549017459154129,99
1670397914.97958493,78014163,0,22.90291404724121,24.559627532958984,19.417165756225586,59.61442184448242,1.3911610841751099,0.0,0.08532213419675827,99
1670397915.07944489,78114023,0,22.884138107299805,24.553199768066406,19.59621810913086,60.158042907714844,1.4036014080047607,0.0,0.08517260104417801,99
1670397915.17951298,78214091,0,22.89037322998047,24.594846725463867,20.01314353942871,60.71432113647461,1.4163347482681274,0.0,0.08516768366098404,99
1670397915.27956986,78314148,0,22.918903350830078,24.61005401611328,19.848037719726562,61.26604080200195,1.428979516029358,0.0,0.08520495891571045,99
1670397915.37966394,78414242,0,22.936805725097656,24.59739875793457,19.490510940551758,61.80803298950195,1.4414111375808716,0.0,0.08520006388425827,99
1670397915.47955894,78514137,0,22.903966903686523,24.52389907836914,19.058717727661133,62.3367805480957,1.453521490097046,0.0,0.08499687910079956,99
1670397915.57960892,78614187,0,22.932113647460938,24.5632266998291,19.202342987060547,62.870635986328125,1.4657639265060425,0.0,0.08494345098733902,99
1670397915.67956185,78714140,0,22.952411651611328,24.5665225982666,19.00961685180664,63.398475646972656,1.4778790473937988,0.0,0.08491024374961853,99
1670397915.77954888,78814127,0,22.97816276550293,24.58498764038086,18.91847038269043,63.9239616394043,1.4899537563323975,0.0,0.08493413776159286,99
1670397915.87953401,78914112,0,22.996152877807617,24.559005737304688,18.411968231201172,64.43537139892578,1.5017141103744507,0.0,0.08488243073225021,99
1670397915.97956395,79014142,0,22.971364974975586,24.55287742614746,18.644418716430664,64.95346069335938,1.513615369796753,0.0,0.08482501655817032,99
1670397916.07952380,79114102,0,22.915264129638672,24.519556045532227,18.912946701049805,65.47865295410156,1.5256502628326416,0.0,0.08482501655817032,99
1670397916.17958999,79214168,0,22.956144332885742,24.559513092041016,18.903125762939453,66.00413513183594,1.5377132892608643,0.0,0.08482033759355545,99
1670397916.27952600,79314104,0,22.97586441040039,24.59343719482422,19.05074119567871,66.53302001953125,1.5498648881912231,0.0,0.0849086344242096,99
1670397916.37951398,79414092,0,22.929338455200195,24.547483444213867,19.057491302490234,67.0623779296875,1.5620027780532837,0.0,0.0849086344242096,99
1670397916.47951293,79514091,0,22.936805725097656,24.524463653564453,18.69843292236328,67.5818099975586,1.5739169120788574,0.0,0.0849086344242096,99
1670397916.57954383,79614122,0,22.925601959228516,24.54652976989746,19.082656860351562,68.11209869384766,1.5860739946365356,0.0,0.08494241535663605,99
1670397916.67954397,79714122,0,22.937091827392578,24.564556121826172,19.165210723876953,68.6445083618164,1.5982859134674072,0.0,0.08491764962673187,99
1670397916.77958083,79814159,0,22.94317626953125,24.57596778869629,19.227951049804688,69.1788558959961,1.6105455160140991,0.0,0.08491764962673187,99
1670397916.87951994,79914098,0,22.97337532043457,24.56983757019043,18.79448890686035,69.70065307617188,1.6225329637527466,0.0,0.08494313061237335,99
1670397916.97952700,80014105,0,22.931730270385742,24.509920120239258,18.57935905456543,70.21675872802734,1.6343681812286377,0.0,0.08494313061237335,99
1670397917.07953286,80114111,0,22.94944190979004,24.557382583618164,18.927371978759766,70.7426528930664,1.646437168121338,0.0,0.0849531963467598,99
1670397917.17951488,80214093,0,22.97692108154297,24.55048370361328,18.525039672851562,71.25718688964844,1.6582595109939575,0.0,0.08494242280721664,99
1670397917.27953386,80314112,0,23.07677459716797,24.560302734375,17.461362838745117,71.74235534667969,1.669455647468567,0.0,0.08496062457561493,99
1670397917.37963080,80414209,0,23.0230655670166,24.526302337646484,17.709636688232422,72.23445892333984,1.6807852983474731,0.0,0.0848824605345726,99
1670397917.47958803,80514166,0,22.886350631713867,24.518484115600586,19.20725440979004,72.7681884765625,1.693000316619873,0.0,0.08497486263513565,99
1670397917.57956886,80614147,0,22.83116340637207,24.553726196289062,20.277511596679688,73.33129119873047,1.7058566808700562,0.0,0.08494944870471954,99
1670397917.67956781,80714146,0,22.814546585083008,24.585575103759766,20.877344131469727,73.9113540649414,1.719090461730957,0.0,0.08483017235994339,99
1670397917.77951980,80814098,0,22.78113555908203,24.551851272583008,20.8742733001709,74.490966796875,1.7322945594787598,0.0,0.08482763171195984,99
1670397917.87955785,80914136,0,22.801048278808594,24.575519561767578,20.936880111694336,75.07281494140625,1.7455612421035767,0.0,0.08475339412689209,99
1670397917.97953892,81014117,0,22.766965866088867,24.52140235900879,20.67633056640625,75.64710235595703,1.7586359977722168,0.0,0.08485240489244461,99
1670397918.07954192,81114120,0,22.735946655273438,24.5157527923584,20.949460983276367,76.22908782958984,1.7718678712844849,0.0,0.08495712280273438,99
1670397918.17953491,81214113,0,22.731447219848633,24.559940338134766,21.53316307067871,76.82723999023438,1.7854647636413574,0.0,0.08491518348455429,99
1670397918.27960992,81314188,0,22.715938568115234,24.56450653076172,21.782665252685547,77.43281555175781,1.7992210388183594,0.0,0.08486414700746536,99
1670397918.37962580,81414204,0,22.673431396484375,24.53569793701172,21.933040618896484,78.04222106933594,1.8130383491516113,0.0,0.08490686118602753,99
1670397918.47952390,81514102,0,22.635112762451172,24.490875244140625,21.811616897583008,78.64752960205078,1.8267395496368408,0.0,0.08508137613534927,99
1670397918.57962203,81614200,0,22.664430618286133,24.5083065032959,21.646099090576172,79.24918365478516,1.8403756618499756,0.0,0.08518281579017639,99
1670397918.67956591,81714144,0,22.674867630004883,24.555850982666016,22.095998764038086,79.8629379272461,1.854292392730713,0.0,0.08512774109840393,99
1670397918.77953291,81814111,0,22.645090103149414,24.597492218017578,22.98259925842285,80.50115966796875,1.868744969367981,0.0,0.08495129644870758,99
1670397918.87954593,81914124,0,22.493061065673828,24.589431762695312,24.715909957885742,81.18787384033203,1.8841913938522339,0.0,0.08481866866350174,99
1670397918.97955394,82014132,0,22.537004470825195,24.537527084350586,23.574281692504883,81.84282684326172,1.8989520072937012,0.0,0.08486039191484451,99
1670397919.07952690,82114105,0,22.691429138183594,24.576658248901367,22.196657180786133,82.45928192138672,1.912940263748169,0.0,0.08493305742740631,99
1670397919.17951798,82214096,0,23.164566040039062,24.487754821777344,15.61327838897705,82.89298248291016,1.9229867458343506,0.0,0.08474762737751007,99
1670397919.27959991,82314178,0,22.64638900756836,24.458240509033203,21.316158294677734,83.48558807373047,1.936407208442688,0.0,0.08499892801046371,99
1670397919.37954402,82414122,0,22.313838958740234,24.46938133239746,25.30268096923828,84.18814849853516,1.9520840644836426,0.0,0.08519024401903152,98
1670397919.47958803,82514166,0,22.463476181030273,24.438119888305664,23.10750389099121,84.83036041259766,1.96651029586792,0.0,0.08545467257499695,98
1670397919.57958388,82614162,0,22.66156005859375,24.44451332092285,20.91079330444336,85.41106414794922,1.9796699285507202,0.0,0.08526472002267838,98
1670397919.67953897,82714117,0,22.65437889099121,24.501548767089844,21.662670135498047,86.01276397705078,1.9933010339736938,0.0,0.0852697491645813,98
1670397919.77953792,82814116,0,22.648826599121094,24.555086135864258,22.355627059936523,86.63338470458984,2.007357358932495,0.0,0.0852697491645813,98
1670397919.87959695,82914175,0,22.705310821533203,24.52860450744629,21.369590759277344,87.22777557373047,2.020853042602539,0.0,0.08532191067934036,98
1670397919.97952580,83014104,0,22.849109649658203,24.46361541748047,18.95253562927246,87.75390625,2.032874584197998,0.0,0.08518677204847336,98
1670397920.07961988,83114198,0,22.887117385864258,24.480690002441406,18.719913482666016,88.27412414550781,2.044780969619751,0.0,0.08512710779905319,98
1670397920.17959785,83214176,0,22.865734100341797,24.482942581176758,19.006650924682617,88.80233001708984,2.056858777999878,0.0,0.0850864127278328,98
1670397920.27953100,83314109,0,22.83580207824707,24.485797882080078,19.397525787353516,89.34083557128906,2.0691559314727783,0.0,0.08506219834089279,98
1670397920.37956882,83414147,0,22.812347412109375,24.448627471923828,19.26341438293457,89.87617492675781,2.0813682079315186,0.0,0.08494238555431366,98
1670397920.47951984,83514098,0,22.84317398071289,24.421146392822266,18.614038467407227,90.39302825927734,2.093174695968628,0.0,0.08477327972650528,98
1670397920.57959199,83614170,0,22.84777069091797,24.463428497314453,19.062707901000977,90.92296600341797,2.1052825450897217,0.0,0.08475491404533386,98
1670397920.67951703,83714095,0,22.82182502746582,24.48748207092285,19.640888214111328,91.46818542480469,2.117725372314453,0.0,0.08480557799339294,98
1670397920.77951002,83814088,0,22.895065307617188,24.485891342163086,18.75060272216797,91.98904418945312,2.129650354385376,0.0,0.08484131097793579,98
1670397920.87953281,83914111,0,22.91411590576172,24.495319366455078,18.625391006469727,92.50657653808594,2.1415090560913086,0.0,0.08489509671926498,98
1670397920.97955894,84014137,0,22.912860870361328,24.472368240356445,18.374116897583008,93.01689910888672,2.1532020568847656,0.0,0.0848752036690712,98
1670397921.07959986,84114178,0,22.8073673248291,24.451101303100586,19.347808837890625,93.55485534667969,2.165471315383911,0.0,0.08495708554983139,98
1670397921.17960787,84214186,0,22.783432006835938,24.428009033203125,19.32540512084961,94.09176635742188,2.177703857421875,0.0,0.08509919792413712,98
1670397921.27954197,84314120,0,22.836376190185547,24.498476028442383,19.531328201293945,94.63397979736328,2.1900861263275146,0.0,0.08509919792413712,98
1670397921.37968397,84414262,0,22.9085636138916,24.47888946533203,18.450159072875977,95.14725494384766,2.2018444538116455,0.0,0.08511177450418472,98
1670397921.47959995,84514178,0,22.890180587768555,24.41646957397461,17.966501235961914,95.64594268798828,2.21325945854187,0.0,0.08495193719863892,98
1670397921.57963991,84614218,0,22.971750259399414,24.428817749023438,17.170433044433594,96.12313079833984,2.2242212295532227,0.0,0.08485907316207886,98
1670397921.67955399,84714132,0,23.05398941040039,24.448871612548828,16.441265106201172,96.57948303222656,2.2347419261932373,0.0,0.0848403126001358,98
1670397921.77959490,84814173,0,23.058488845825195,24.465517044067383,16.57844352722168,97.04022216796875,2.245365858078003,0.0,0.08487092703580856,98
1670397921.87952995,84914108,0,23.030193328857422,24.43327522277832,16.54437828063965,97.49952697753906,2.255943775177002,0.0,0.0848071277141571,98
1670397921.97958589,85014164,0,22.970409393310547,24.391199111938477,16.785900115966797,97.96609497070312,2.2666611671447754,0.0,0.08464179933071136,98
1670397922.07957792,85114156,0,22.974048614501953,24.432279586791992,17.23211669921875,98.44476318359375,2.277658224105835,0.0,0.0846228152513504,98
1670397922.17958188,85214160,0,23.035320281982422,24.4442138671875,16.64565086364746,98.9072036743164,2.2883107662200928,0.0,0.08464030921459198,98
1670397922.27953982,85314118,0,23.093048095703125,24.464109420776367,16.185625076293945,99.35665130615234,2.298689842224121,0.0,0.08470858633518219,98
1670397922.37964487,85414223,0,23.127229690551758,24.44861602783203,15.597012519836426,99.79039001464844,2.3087210655212402,0.0,0.0847204402089119,98
1670397922.47953296,85514111,0,23.05810546875,24.390932083129883,15.759662628173828,100.22770690917969,2.3188047409057617,0.0,0.08457200974225998,98
1670397922.57957101,85614149,0,23.078975677490234,24.407846450805664,15.726212501525879,100.66474914550781,2.3288912773132324,0.0,0.08450032025575638,98
1670397922.67958283,85714161,0,23.098167419433594,24.436674118041992,15.83614730834961,101.10472869873047,2.3390541076660156,0.0,0.08452219516038895,98
1670397922.77951384,85814092,0,23.081464767456055,24.44244384765625,16.095706939697266,101.55155944824219,2.349367618560791,0.0,0.08455535769462585,98
1670397922.87956500,85914143,0,23.06279754638672,24.437694549560547,16.25774574279785,102.00338745117188,2.359787940979004,0.0,0.08456876128911972,98
1670397922.97956896,86014147,0,22.97816276550293,24.394285202026367,16.721759796142578,102.46797943115234,2.3704636096954346,0.0,0.08468741178512573,98
1670397923.07960296,86114181,0,23.0784969329834,24.442134857177734,16.0950927734375,102.91524505615234,2.3807859420776367,0.0,0.08472379297018051,98
1670397923.17954397,86214122,0,23.100997924804688,24.439390182495117,15.793115615844727,103.35366821289062,2.390913963317871,0.0,0.08474526554346085,98
1670397923.27956891,86314147,0,23.068635940551758,24.460966110229492,16.429603576660156,103.81024932861328,2.40144681930542,0.0,0.08474526554346085,98
1670397923.37955499,86414133,0,23.078880310058594,24.40475082397461,15.66207218170166,104.24527740478516,2.411486864089966,0.0,0.08465485274791718,98
1670397923.47955894,86514137,0,23.11458969116211,24.3867244720459,15.048909187316895,104.66336059570312,2.4211506843566895,0.0,0.08453331887722015,98
1670397923.57954502,86614123,0,23.077529907226562,24.40610122680664,15.72464370727539,105.10012817382812,2.431230306625366,0.0,0.08448974788188934,98
1670397923.67963195,86714210,0,23.055042266845703,24.44133758544922,16.421009063720703,105.55669403076172,2.4417564868927,0.0,0.08442208915948868,98
1670397923.77954292,86814121,0,23.04010772705078,24.427513122558594,16.43758201599121,106.01293182373047,2.452268123626709,0.0,0.08440449088811874,98
1670397923.87952399,86914102,0,23.083284378051758,24.462635040283203,16.342140197753906,106.46682739257812,2.4627456665039062,0.0,0.08440449088811874,98
1670397923.97957993,87014158,0,22.87189483642578,24.379955291748047,17.83576774597168,106.96258544921875,2.4740846157073975,0.0,0.0845525860786438,98
1670397924.07958889,87114167,0,22.83838653564453,24.406131744384766,18.53056526184082,107.47708892822266,2.485835075378418,0.0,0.08460322767496109,98
1670397924.17955780,87214136,0,22.735946655273438,24.437013626098633,20.118101119995117,108.03614044189453,2.4985456466674805,0.0,0.0845540314912796,98
1670397924.27950191,87314080,0,22.67888641357422,24.465896606445312,21.1673526763916,108.62384033203125,2.511873960494995,0.0,0.08442290127277374,98
1670397924.37954903,87414127,0,22.607030868530273,24.43531608581543,21.66192054748535,109.22589111328125,2.525484561920166,0.0,0.08440090715885162,98
1670397924.47953987,87514118,0,22.620677947998047,24.393821716308594,20.981992721557617,109.8087158203125,2.538668394088745,0.0,0.08450785279273987,98
1670397924.57960200,87614180,0,22.54073715209961,24.435213088989258,22.426210403442383,110.4321060180664,2.552720069885254,0.0,0.08447595685720444,98
1670397924.67963195,87714210,0,22.532217025756836,24.452123641967773,22.748750686645508,111.06425476074219,2.5669639110565186,0.0,0.08439609408378601,98
1670397924.77954197,87814120,0,22.465486526489258,24.4725284576416,23.818872451782227,111.725341796875,2.581815481185913,0.0,0.08426270633935928,98
1670397924.87960386,87914182,0,22.462520599365234,24.41345977783203,23.1357364654541,112.36845397949219,2.596261501312256,0.0,0.08432582765817642,98
1670397924.97955489,88014133,0,22.49152946472168,24.41576385498047,22.805831909179688,113.0016860961914,2.610503911972046,0.0,0.08437466621398926,98
1670397925.07955694,88114135,0,22.508283615112305,24.450294494628906,23.033544540405273,113.64154815673828,2.624906301498413,0.0,0.0843123197555542,98
1670397925.17956185,88214140,0,22.51690101623535,24.451889038085938,22.966644287109375,114.27960968017578,2.6392734050750732,0.0,0.08425209671258926,98
1670397925.27953291,88314111,0,22.521503448486328,24.46390724182129,23.07940673828125,114.92057037353516,2.6537086963653564,0.0,0.08416176587343216,98
1670397925.37951684,88414095,0,22.529726028442383,24.44700813293457,22.788646697998047,115.55353546142578,2.667969226837158,0.0,0.08413321524858475,98
1670397925.47951889,88514097,0,22.472572326660156,24.369998931884766,22.496488571166992,116.17849731445312,2.682013750076294,0.0,0.08434320241212845,98
1670397925.57961488,88614193,0,22.532503128051758,24.41141700744629,22.261104583740234,116.7975082397461,2.6959617137908936,0.0,0.08440344035625458,98
1670397925.67957687,88714155,0,22.539779663085938,24.432903289794922,22.432655334472656,117.42044067382812,2.7100024223327637,0.0,0.08439142256975174,98
1670397925.77957797,88814156,0,22.58333969116211,24.44231605529785,22.018970489501953,118.03214263916016,2.7238168716430664,0.0,0.0844261646270752,98
1670397925.87950897,88914087,0,22.56026840209961,24.425506591796875,22.097841262817383,118.64559936523438,2.737656593322754,0.0,0.08440815657377243,98
1670397925.97954488,89014123,0,22.49564552307129,24.383289337158203,22.32493782043457,119.26600646972656,2.751613140106201,0.0,0.08455313742160797,98
1670397926.07958984,89114168,0,22.58139419555664,24.421905517578125,21.7700138092041,119.87104797363281,2.7652759552001953,0.0,0.0845433846116066,98
1670397926.17959881,89214177,0,22.574628829956055,24.41857147216797,21.81488800048828,120.47711181640625,2.7789576053619385,0.0,0.08452676981687546,98
1670397926.27955580,89314134,0,22.618572235107422,24.439393997192383,21.53040313720703,121.07496643066406,2.792480230331421,0.0,0.08456983417272568,98
1670397926.37968397,89414262,0,22.585926055908203,24.447330474853516,21.995952606201172,121.68679809570312,2.8062989711761475,0.0,0.08462489396333694,98
1670397926.47960591,89514184,0,22.556438446044922,24.404312133789062,21.836061477661133,122.29293823242188,2.8199713230133057,0.0,0.08462489396333694,98
1670397926.57962799,89614206,0,22.566970825195312,24.377187728881836,21.39107322692871,122.88731384277344,2.8333845138549805,0.0,0.08462489396333694,98
1670397926.67956495,89714143,0,22.63149642944336,24.39238166809082,20.825477600097656,123.46548461914062,2.8464694023132324,0.0,0.08455432951450348,98
1670397926.77960896,89814187,0,22.638965606689453,24.425065994262695,21.115489959716797,124.05232238769531,2.859754800796509,0.0,0.08458718657493591,98
1670397926.87955189,89914130,0,22.62266731262207,24.42945671081543,21.35059928894043,124.64510345458984,2.8731651306152344,0.0,0.08462478220462799,98
1670397926.97958589,90014164,0,22.582765579223633,24.36776351928711,21.09308624267578,125.23126983642578,2.8864023685455322,0.0,0.08462478220462799,98
1670397927.07953382,90114112,0,22.60536003112793,24.377395629882812,20.96173858642578,125.81328582763672,2.8995590209960938,0.0,0.08453667908906937,98
1670397927.17956185,90214140,0,22.615413665771484,24.4010066986084,21.12346839904785,126.4002685546875,2.9128339290618896,0.0,0.08453121781349182,98
1670397927.27956295,90314141,0,22.61598777770996,24.423370361328125,21.381254196166992,126.9942398071289,2.926267147064209,0.0,0.08453121781349182,98
1670397927.37970901,90414287,0,22.602680206298828,24.40012550354004,21.2677059173584,127.58592224121094,2.939640760421753,0.0,0.08451522141695023,98
1670397927.47952485,90514103,0,22.55729866027832,24.349504470825195,21.205713272094727,128.17391967773438,2.952904462814331,0.0,0.08451522141695023,98
1670397927.57954192,90614120,0,22.598852157592773,24.404830932617188,21.36867332458496,128.76763916015625,2.9663219451904297,0.0,0.08451522141695023,98
1670397927.67958188,90714160,0,22.60788345336914,24.39733123779297,21.172945022583008,129.35606384277344,2.9796249866485596,0.0,0.08451580256223679,98
1670397927.77959490,90814173,0,22.626041412353516,24.40938377380371,21.092472076416016,129.94175720214844,2.9928767681121826,0.0,0.08454875648021698,98
1670397927.87956500,90914143,0,22.626230239868164,24.420045852661133,21.20264434814453,130.5309295654297,3.0062074661254883,0.0,0.08460337668657303,98
1670397927.97967696,91014255,0,22.60593605041504,24.369142532348633,20.864147186279297,131.11119079589844,3.019324779510498,0.0,0.08450894802808762,98
1670397928.07953596,91114114,0,22.588224411010742,24.35332489013672,20.88654899597168,131.6905975341797,3.032412528991699,0.0,0.08450894802808762,98
1670397928.17952991,91214108,0,22.584108352661133,24.393863677978516,21.41838836669922,132.2855682373047,3.045849323272705,0.0,0.08449538797140121,98
1670397928.27959299,91314171,0,22.648921966552734,24.419700622558594,20.93718719482422,132.86756896972656,3.0590310096740723,0.0,0.08457574993371964,98
1670397928.37955999,91414138,0,22.659643173217773,24.410585403442383,20.69321060180664,133.44224548339844,3.0720529556274414,0.0,0.08461432158946991,98
1670397928.47954798,91514126,0,22.623550415039062,24.328697204589844,20.19758415222168,134.00326538085938,3.084745168685913,0.0,0.08442328125238419,98
1670397928.57956386,91614142,0,22.593523025512695,24.37742042541504,21.125205993652344,134.5901641845703,3.0980050563812256,0.0,0.08444400131702423,98
1670397928.67952394,91714102,0,22.612924575805664,24.395706176757812,21.121318817138672,135.17672729492188,3.111268997192383,0.0,0.08440671861171722,98
1670397928.77954984,91814128,0,22.641645431518555,24.40985679626465,20.931970596313477,135.7583770751953,3.124438524246216,0.0,0.08447419852018356,98
1670397928.87955999,91914138,0,22.589181900024414,24.383516311645508,21.236095428466797,136.34837341308594,3.137765884399414,0.0,0.08449453860521317,98
1670397928.97952580,92014104,0,22.52915382385254,24.344913482666016,21.455215454101562,136.94419860839844,3.1511893272399902,0.0,0.08463019132614136,98
1670397929.07951999,92114098,0,22.562950134277344,24.384031295776367,21.517820358276367,137.54193115234375,3.1646759510040283,0.0,0.0846312940120697,98
1670397929.17956591,92214144,0,22.588224411010742,24.406211853027344,21.498178482055664,138.13941955566406,3.1781721115112305,0.0,0.0845646858215332,98
1670397929.27959585,92314174,0,22.585351943969727,24.399011611938477,21.45644187927246,138.73565673828125,3.191638469696045,0.0,0.08452753722667694,98
1670397929.37959981,92414178,0,22.577247619628906,24.401897430419922,21.59713363647461,139.33538818359375,3.205178737640381,0.0,0.08448577672243118,98
1670397929.47957802,92514156,0,22.555097579956055,24.37587547302246,21.540529251098633,139.93386840820312,3.218677520751953,0.0,0.08452802896499634,98
1670397929.57954288,92614121,0,22.52781105041504,24.32892608642578,21.30790901184082,140.525634765625,3.232008695602417,0.0,0.08452802896499634,98
1670397929.67951798,92714096,0,22.58736228942871,24.380950927734375,21.217069625854492,141.11489868164062,3.245318651199341,0.0,0.0845351591706276,98
1670397929.77952194,92814100,0,22.592626571655273,24.392854690551758,21.28611946105957,141.70623779296875,3.258678674697876,0.0,0.08457284420728683,98
1670397929.87954402,92914122,0,22.604690551757812,24.40345573425293,21.25420379638672,142.2967987060547,3.2720282077789307,0.0,0.08463102579116821,98
1670397929.97965097,93014229,0,22.52838706970215,24.313724517822266,21.09554100036621,142.8834686279297,3.285244941711426,0.0,0.08463102579116821,98
1670397930.07953882,93114117,0,22.533557891845703,24.36506462097168,21.63382339477539,143.48377990722656,3.298772096633911,0.0,0.08465941250324249,98
1670397930.17951798,93214096,0,22.536237716674805,24.37206268310547,21.683847427368164,144.08602905273438,3.312344551086426,0.0,0.0846632644534111,98
1670397930.27958703,93314165,0,22.563949584960938,24.39425277709961,21.618616104125977,144.68699645996094,3.3259048461914062,0.0,0.0846632644534111,98
1670397930.37962484,93414203,0,22.56543731689453,24.376075744628906,21.386777877807617,145.28135681152344,3.3393168449401855,0.0,0.08466159552335739,98
1670397930.47952390,93514102,0,22.525800704956055,24.335010528564453,21.369897842407227,145.87442016601562,3.3526759147644043,0.0,0.08466159552335739,98
1670397930.57962489,93614203,0,22.556726455688477,24.393798828125,21.717910766601562,146.4783477783203,3.3662986755371094,0.0,0.0845879316329956,98
1670397930.67952991,93714108,0,22.569171905517578,24.406219482421875,21.71760368347168,147.08108520507812,3.3799021244049072,0.0,0.0845879316329956,98
1670397930.77962184,93814200,0,22.604021072387695,24.385665893554688,21.057485580444336,147.66659545898438,3.393137216567993,0.0,0.08460861444473267,98
1670397930.87958884,93914167,0,22.62249755859375,24.409337997436523,21.09891700744629,148.252197265625,3.4063849449157715,0.0,0.0846886858344078,98
1670397930.97969985,94014278,0,22.559118270874023,24.33829116821289,21.008384704589844,148.83673095703125,3.4195713996887207,0.0,0.0846886858344078,98
1670397931.07959390,94114172,0,22.54692840576172,24.328514099121094,21.036890029907227,149.4205780029297,3.4327352046966553,0.0,0.0846886858344078,98
1670397931.17963099,94214209,0,22.589468002319336,24.36771583557129,20.998870849609375,150.004150390625,3.445917844772339,0.0,0.08468303084373474,98
1670397931.27951384,94314092,0,22.602584838867188,24.391170501708984,21.106281280517578,150.5897979736328,3.4591550827026367,0.0,0.08474184572696686,98
1670397931.37965298,94414231,0,22.60966682434082,24.400623321533203,21.11640739440918,151.17721557617188,3.4724364280700684,0.0,0.08481354266405106,98
1670397931.47951603,94514094,0,22.539493560791016,24.324594497680664,21.0473575592041,151.7611083984375,3.4855971336364746,0.0,0.08481354266405106,98
1670397931.57952094,94614099,0,22.588031768798828,24.346954345703125,20.7542781829834,152.3376922607422,3.4986209869384766,0.0,0.08474985510110855,98
1670397931.67951703,94714095,0,22.615795135498047,24.373611450195312,20.73586654663086,152.91371154785156,3.511648178100586,0.0,0.0847717821598053,98
1670397931.77951097,94814089,0,22.640018463134766,24.375804901123047,20.470407485961914,153.4823455810547,3.524522066116333,0.0,0.08479494601488113,98
1670397931.87956595,94914144,0,22.614168167114258,24.339946746826172,20.37128448486328,154.04856872558594,3.5373268127441406,0.0,0.08471625298261642,98
1670397931.97957587,95014154,0,22.59096908569336,24.318885803222656,20.396516799926758,154.615234375,3.550128221511841,0.0,0.08471625298261642,98
1670397932.07954192,95114120,0,22.607465744018555,24.36075782775879,20.692596435546875,155.1898956298828,3.563119649887085,0.0,0.08473040163516998,98
1670397932.17956400,95214142,0,22.58726692199707,24.362276077270508,20.953144073486328,155.7720947265625,3.57627010345459,0.0,0.08471324294805527,98
1670397932.27953196,95314110,0,22.606510162353516,24.373849868774414,20.862613677978516,156.35147094726562,3.5893678665161133,0.0,0.08471324294805527,98
1670397932.37974596,95414324,0,22.630538940429688,24.386709213256836,20.713157653808594,156.9281005859375,3.602417469024658,0.0,0.08478523790836334,98
1670397932.47951794,95514096,0,22.57596778869629,24.331226348876953,20.702415466308594,157.5019073486328,3.6153717041015625,0.0,0.08478523790836334,98
1670397932.57969999,95614278,0,22.5401611328125,24.30763053894043,20.807373046875,158.0809783935547,3.6284239292144775,0.0,0.08494441956281662,98
1670397932.67956495,95714143,0,22.56266212463379,24.377065658569336,21.37757110595703,158.67405700683594,3.641805410385132,0.0,0.08487420529127121,98
1670397932.77954888,95814127,0,22.554162979125977,24.369003295898438,21.392200469970703,159.26824951171875,3.6552066802978516,0.0,0.08483655005693436,98
1670397932.87953591,95914114,0,22.59722137451172,24.3916072845459,21.151086807250977,159.85574340820312,3.668482542037964,0.0,0.08483655005693436,98
1670397932.97955894,96014137,0,22.533655166625977,24.29252815246582,20.732492446899414,160.43182373046875,3.6814639568328857,0.0,0.08483655005693436,98
1670397933.07955480,96114133,0,22.5490665435791,24.345521926879883,21.170726776123047,161.01986694335938,3.694723606109619,0.0,0.08485563099384308,98
1670397933.17954803,96214126,0,22.556438446044922,24.362957000732422,21.29839515686035,161.6114959716797,3.708068609237671,0.0,0.08481945842504501,98
1670397933.27951598,96314094,0,22.58669090270996,24.372854232788086,21.058406829833984,162.1963653564453,3.7212789058685303,0.0,0.08481945842504501,98
1670397933.37953591,96414114,0,22.545717239379883,24.335329055786133,21.083572387695312,162.7821807861328,3.7344865798950195,0.0,0.08488184958696365,98
1670397933.47952199,96514100,0,22.51144027709961,24.295921325683594,21.023115158081055,163.36611938476562,3.7476320266723633,0.0,0.08488184958696365,98
1670397933.57957602,96614154,0,22.54086685180664,24.358827590942383,21.429025650024414,163.9617156982422,3.7610573768615723,0.0,0.08483640104532242,98
1670397933.67955494,96714133,0,22.571182250976562,24.382305145263672,21.348417282104492,164.55465698242188,3.7744407653808594,0.0,0.08483640104532242,98
1670397933.77953100,96814109,0,22.531452178955078,24.347118377685547,21.398441314697266,165.14874267578125,3.7878262996673584,0.0,0.08485041558742523,98
1670397933.87957692,96914155,0,22.575490951538086,24.376235961914062,21.222593307495117,165.73880004882812,3.801146984100342,0.0,0.08485041558742523,98
1670397933.97961187,97014190,0,22.534133911132812,24.31227684020996,20.956214904785156,166.32118225097656,3.814270496368408,0.0,0.08485041558742523,98
1670397934.07951784,97114096,0,22.504642486572266,24.30668830871582,21.206327438354492,166.9097442626953,3.8275158405303955,0.0,0.08497676253318787,98
1670397934.17971087,97214289,0,22.565532684326172,24.36885643005371,21.221364974975586,167.5004119873047,3.8408446311950684,0.0,0.08497676253318787,98
1670397934.27952290,97314101,0,22.55777931213379,24.377765655517578,21.41746711730957,168.09426879882812,3.854240655899048,0.0,0.08497676253318787,97
1670397934.37953281,97414111,0,22.551555633544922,24.36298942565918,21.316808700561523,168.68650817871094,3.8675966262817383,0.0,0.08497676253318787,97
1670397934.47951388,97514092,0,22.49905776977539,24.279083251953125,20.94721031188965,169.268310546875,3.8806867599487305,0.0,0.08497676253318787,97
1670397934.57957387,97614152,0,22.554140090942383,24.33266258239746,20.935651779174805,169.85023498535156,3.8938117027282715,0.0,0.08495187759399414,97
1670397934.67951488,97714093,0,22.54629135131836,24.34520149230957,21.17563819885254,170.4381561279297,3.90706729888916,0.0,0.08495187759399414,97
1670397934.77962685,97814205,0,22.567354202270508,24.362024307250977,21.11149787902832,171.0251922607422,3.9203150272369385,0.0,0.0850091353058815,97
1670397934.87952280,97914101,0,22.54380226135254,24.33077621459961,21.020967483520508,171.608642578125,3.9334681034088135,0.0,0.0850091353058815,97
1670397934.97955799,98014136,0,22.501005172729492,24.30380630493164,21.177480697631836,172.1970672607422,3.9467082023620605,0.0,0.08512818813323975,97
1670397935.07960200,98114180,0,22.55959701538086,24.351593017578125,21.041833877563477,172.78196716308594,3.9599032402038574,0.0,0.08516351878643036,97
1670397935.17957592,98214154,0,22.569171905517578,24.3612003326416,21.028945922851562,173.36598205566406,3.9730842113494873,0.0,0.0852171927690506,97
1670397935.27951980,98314098,0,22.57330894470215,24.35457992553711,20.896745681762695,173.94618225097656,3.9861812591552734,0.0,0.08524151891469955,97
1670397935.37955999,98414138,0,22.557491302490234,24.368839263916016,21.24959945678711,174.53672790527344,3.999502420425415,0.0,0.08524151891469955,97
1670397935.47961092,98514189,0,22.516708374023438,24.30744171142578,21.007770538330078,175.12062072753906,4.012650012969971,0.0,0.08524151891469955,97
1670397935.57961488,98614193,0,22.52503776550293,24.29589080810547,20.774534225463867,175.69776916503906,4.0256500244140625,0.0,0.08524151891469955,97
1670397935.67954302,98714121,0,22.53671646118164,24.33881950378418,21.143415451049805,176.2847137451172,4.038877964019775,0.0,0.08523233979940414,97
1670397935.77957988,98814158,0,22.555097579956055,24.35508155822754,21.11855697631836,176.87159729003906,4.052115440368652,0.0,0.08523233979940414,97
1670397935.87952185,98914100,0,22.563140869140625,24.348859786987305,20.94485855102539,177.45310974121094,4.0652360916137695,0.0,0.0852581262588501,97
1670397935.97954988,99014128,0,22.508378982543945,24.268064498901367,20.63950538635254,178.02662658691406,4.0781450271606445,0.0,0.0852581262588501,97
1670397936.07953691,99114115,0,22.526077270507812,24.324121475219727,21.085651397705078,178.6123046875,4.091338157653809,0.0,0.085273377597332,97
1670397936.17960382,99214182,0,22.535856246948242,24.351667404174805,21.31159019470215,179.20474243164062,4.104689121246338,0.0,0.08520302921533585,97
1670397936.27953196,99314110,0,22.551267623901367,24.369876861572266,21.34442710876465,179.79725646972656,4.118051052093506,0.0,0.08520302921533585,97
1670397936.37959385,99414172,0,22.50560188293457,24.332693099975586,21.440176010131836,180.3932342529297,4.131464004516602,0.0,0.08521808683872223,97
1670397936.47951102,99514089,0,22.501962661743164,24.303058624267578,21.135129928588867,180.97987365722656,4.144664764404297,0.0,0.08521808683872223,97
1670397936.57960296,99614181,0,22.5339412689209,24.329349517822266,21.06976318359375,181.56573486328125,4.157866477966309,0.0,0.08521252870559692,97
1670397936.67959285,99714171,0,22.553279876708984,24.361291885375977,21.217681884765625,182.15509033203125,4.171158313751221,0.0,0.08521252870559692,97
1670397936.77951598,99814094,0,22.52436637878418,24.33493423461914,21.246835708618164,182.74485778808594,4.184442520141602,0.0,0.08521584421396255,97
1670397936.87952781,99914106,0,22.561416625976562,24.359352111816406,21.082958221435547,183.3306427001953,4.197658538818359,0.0,0.08527909964323044,97
1670397936.97956896,100014147,0,22.48320960998535,24.278844833374023,21.055988311767578,183.9158172607422,4.210814952850342,0.0,0.08527909964323044,97
1670397937.07951283,100114091,0,22.49248504638672,24.292226791381836,21.10413360595703,184.5017547607422,4.223994255065918,0.0,0.08527909964323044,97
1670397937.17952681,100214105,0,22.537099838256836,24.337188720703125,21.099529266357422,185.08798217773438,4.23720645904541,0.0,0.08531416207551956,97
1670397937.27956581,100314144,0,22.545717239379883,24.366621017456055,21.343507766723633,185.68113708496094,4.250579357147217,0.0,0.08531416207551956,97
1670397937.37959480,100414173,0,22.532119750976562,24.34896469116211,21.29593849182129,186.27291870117188,4.263913154602051,0.0,0.08531416207551956,97
1670397937.47953486,100514113,0,22.49028205871582,24.302173614501953,21.212158203125,186.86183166503906,4.277157783508301,0.0,0.08541759103536606,97
1670397937.57956100,100614139,0,22.510961532592773,24.324535369873047,21.225967407226562,187.45164489746094,4.290434837341309,0.0,0.08544126152992249,97
1670397937.67953181,100714110,0,22.528675079345703,24.340438842773438,21.20479393005371,188.04054260253906,4.303701877593994,0.0,0.08544126152992249,97
1670397937.77951789,100814096,0,22.52320671081543,24.342620849609375,21.294336318969727,188.63201904296875,4.317023754119873,0.0,0.08544126152992249,97
1670397937.87952089,100914099,0,22.501197814941406,24.32075309753418,21.285503387451172,189.2233428955078,4.330329418182373,0.0,0.08548328280448914,97
1670397937.97954488,101014123,0,22.482145309448242,24.28325843811035,21.06976318359375,189.80880737304688,4.343491554260254,0.0,0.08548328280448914,97
1670397938.07955694,101114135,0,22.498231887817383,24.336406707763672,21.512296676635742,190.4063720703125,4.356935977935791,0.0,0.08544763177633286,97
1670397938.17956591,101214144,0,22.531164169311523,24.351821899414062,21.307294845581055,190.9984588623047,4.37027645111084,0.0,0.08544763177633286,97
1670397938.27952695,101314105,0,22.556533813476562,24.338834762573242,20.852792739868164,191.57752990722656,4.38333797454834,0.0,0.08547059446573257,97
1670397938.37952995,101414108,0,22.532695770263672,24.345815658569336,21.21338653564453,192.16685485839844,4.3966169357299805,0.0,0.08547059446573257,97
1670397938.47950888,101514087,0,22.489709854125977,24.309606552124023,21.27384376525879,192.75772094726562,4.409905433654785,0.0,0.08554618060588837,97
1670397938.57960296,101614181,0,22.45821189880371,24.259521484375,21.056564331054688,193.3432159423828,4.4230546951293945,0.0,0.08554618060588837,97
1670397938.67951703,101714095,0,22.531503677368164,24.320812225341797,20.915498733520508,193.9237518310547,4.436135292053223,0.0,0.08554942160844803,97
1670397938.77955699,101814135,0,22.581233978271484,24.36294937133789,20.798471450805664,194.5016326904297,4.449184417724609,0.0,0.08566570281982422,97
1670397938.87954187,101914120,0,22.546480178833008,24.350326538085938,21.042755126953125,195.08624267578125,4.462365627288818,0.0,0.08572296053171158,97
1670397938.97953081,102014109,0,22.492197036743164,24.260740280151367,20.630910873413086,195.6593017578125,4.475255012512207,0.0,0.08572296053171158,97
1670397939.07955980,102114138,0,22.526376724243164,24.31633186340332,20.88409423828125,196.2396240234375,4.488327503204346,0.0,0.08570903539657593,97
1670397939.17954683,102214125,0,22.54140853881836,24.338518142700195,20.955598831176758,196.8217010498047,4.501448154449463,0.0,0.08575794100761414,97
1670397939.27957082,102314149,0,22.543323516845703,24.365198135375977,21.244382858276367,197.41201782226562,4.514755725860596,0.0,0.08575794100761414,97
1670397939.37952781,102414106,0,22.515748977661133,24.327930450439453,21.128992080688477,197.99871826171875,4.527966022491455,0.0,0.08576755225658417,97
1670397939.47951388,102514092,0,22.49139976501465,24.294336318969727,21.021203994750977,198.58261108398438,4.541098594665527,0.0,0.08576755225658417,97
1670397939.57952690,102614105,0,22.55548095703125,24.34833526611328,20.88808250427246,199.1629638671875,4.5541887283325195,0.0,0.085831418633461,97
1670397939.67953086,102714109,0,22.556915283203125,24.36172866821289,21.02741050720215,199.74713134765625,4.567365646362305,0.0,0.085831418633461,97
1670397939.77955699,102814135,0,22.54638671875,24.3552303314209,21.074365615844727,200.3327178955078,4.580568790435791,0.0,0.085831418633461,97
1670397939.87954283,102914121,0,22.537099838256836,24.357479095458984,21.208782196044922,200.92181396484375,4.593845367431641,0.0,0.085831418633461,97
1670397939.97955585,103014134,0,22.49267578125,24.309907913208008,21.148326873779297,201.5093536376953,4.60706090927124,0.0,0.08592789620161057,97
1670397940.07953382,103114112,0,22.514026641845703,24.311452865600586,20.9178524017334,202.09036254882812,4.620141506195068,0.0,0.08592789620161057,97
1670397940.17957497,103214153,0,22.522546768188477,24.33662986755371,21.113954544067383,202.67710876464844,4.63335657119751,0.0,0.08591864258050919,97
1670397940.27953100,103314109,0,22.559789657592773,24.36517333984375,20.99211883544922,203.2600555419922,4.646507740020752,0.0,0.08600292354822159,97
1670397940.37963295,103414211,0,22.549589157104492,24.34971809387207,20.925045013427734,203.84194946289062,4.6596293449401855,0.0,0.08602747321128845,97
1670397940.47963095,103514209,0,22.501962661743164,24.293790817260742,20.82854652404785,204.42054748535156,4.672648906707764,0.0,0.08602747321128845,97
1670397940.57963300,103614211,0,22.521493911743164,24.317729949951172,20.879798889160156,205.0006103515625,4.685712814331055,0.0,0.08602747321128845,97
1670397940.67951703,103714095,0,22.557588577270508,24.34238624572754,20.739856719970703,205.5760955810547,4.698694229125977,0.0,0.08605644851922989,97
1670397940.77959490,103814173,0,22.557395935058594,24.35088539123535,20.829774856567383,206.1551971435547,4.711757183074951,0.0,0.08610215783119202,97
1670397940.87958193,103914160,0,22.498804092407227,24.302230834960938,20.919078826904297,206.7362518310547,4.724830150604248,0.0,0.08620965480804443,97
1670397940.97960281,104014181,0,22.47917938232422,24.293052673339844,21.01022720336914,207.32003784179688,4.737953186035156,0.0,0.08633287996053696,97
1670397941.07956386,104114142,0,22.520919799804688,24.340341567993164,21.082958221435547,207.90548706054688,4.751138210296631,0.0,0.08629821985960007,97
1670397941.17963696,104214215,0,22.534164428710938,24.36729621887207,21.241825103759766,208.4960174560547,4.7644453048706055,0.0,0.08629821985960007,97
1670397941.27954483,104314123,0,22.512304306030273,24.34974479675293,21.30177116394043,209.0872344970703,4.777754783630371,0.0,0.08625765144824982,97
1670397941.37955403,104414132,0,22.520824432373047,24.348777770996094,21.19988441467285,209.6760711669922,4.791015625,0.0,0.08622464537620544,97
1670397941.47954082,104514119,0,22.499473571777344,24.293846130371094,20.810441970825195,210.25425720214844,4.804024696350098,0.0,0.08622464537620544,97
1670397941.57971883,104614297,0,22.475921630859375,24.278974533081055,20.911100387573242,210.83621215820312,4.817104339599609,0.0,0.08622464537620544,97
1670397941.67954588,104714124,0,22.50674819946289,24.338403701782227,21.25450897216797,211.42564392089844,4.8303704261779785,0.0,0.08617725223302841,97
1670397941.77961898,104814197,0,22.53097152709961,24.35403060913086,21.154769897460938,212.0137481689453,4.843620777130127,0.0,0.08617725223302841,97
1670397941.87954092,104914119,0,22.511249542236328,24.341917037963867,21.252361297607422,212.6036834716797,4.856900691986084,0.0,0.08613947778940201,97
1670397941.97959280,105014171,0,22.516132354736328,24.3448429107666,21.229652404785156,213.19374084472656,4.8701863288879395,0.0,0.08613947778940201,97
1670397942.07953191,105114110,0,22.460338592529297,24.273942947387695,21.05428123474121,213.77828979492188,4.883315563201904,0.0,0.08613947778940201,97
1670397942.17952085,105214099,0,22.49497413635254,24.321752548217773,21.20602035522461,214.36734008789062,4.896565914154053,0.0,0.086144357919693,97
1670397942.27951503,105314093,0,22.522546768188477,24.349563598632812,21.208782196044922,214.95648193359375,4.909834861755371,0.0,0.086144357919693,97
