timestamp,TimeUS,Instance,Volt,VoltR,Curr,CurrTot,EnrgTot,Temp,Res,RemPct
1670829426.47949314,101818152,0,24.76581573486328,24.85626792907715,0.5575147867202759,16.682294845581055,0.41357770562171936,0.0,0.16224199533462524,99
1670829426.57950115,101918160,0,24.766740798950195,24.85845375061035,0.5652892589569092,16.697999954223633,0.41396665573120117,0.0,0.16224199533462524,99
1670829426.67943621,102018095,0,24.78751564025879,24.88689613342285,0.6125501990318298,16.71500587463379,0.41438817977905273,0.0,0.16224199533462524,99
1670829426.77949929,102118158,0,24.726531982421875,24.804553985595703,0.4808948338031769,16.72837257385254,0.41471871733665466,0.0,0.16224199533462524,99
1670829426.87949419,102218153,0,24.783592224121094,24.882675170898438,0.6107088923454285,16.745336532592773,0.41513916850090027,0.0,0.16224199533462524,99
1670829426.97948623,102318145,0,24.739742279052734,24.82254409790039,0.5103561878204346,16.75951385498047,0.41548988223075867,0.0,0.16224199533462524,99
1670829427.07947612,102418135,0,24.787899017333984,24.887977600097656,0.6168466210365295,16.776647567749023,0.4159145951271057,0.0,0.16224199533462524,99
1670829427.17946720,102518126,0,24.783367156982422,24.881399154663086,0.6042301058769226,16.793432235717773,0.4163305461406708,0.0,0.16224199533462524,99
1670829427.27941322,102618072,0,24.777751922607422,24.873598098754883,0.5907610654830933,16.809833526611328,0.416736900806427,0.0,0.16224199533462524,99
1670829427.37940621,102718065,0,24.72873306274414,24.80839729309082,0.4910221993923187,16.823474884033203,0.4170742332935333,0.0,0.16224199533462524,99
1670829427.47950816,102818167,0,24.760326385498047,24.851791381835938,0.5637547969818115,16.839153289794922,0.41746240854263306,0.0,0.16224199533462524,99
1670829427.57941914,102918078,0,24.776123046875,24.871471405029297,0.5876922011375427,16.855464935302734,0.4178665280342102,0.0,0.16224199533462524,99
1670829427.67949510,103018154,0,24.792015075683594,24.894084930419922,0.6291221976280212,16.872955322265625,0.41830015182495117,0.0,0.16224199533462524,99
1670829427.77947330,103118132,0,24.746538162231445,24.830982208251953,0.5204834938049316,16.887409210205078,0.4186578691005707,0.0,0.16224199533462524,99
1670829427.87943721,103218096,0,24.738784790039062,24.820640563964844,0.5045252442359924,16.90142059326172,0.41900449991226196,0.0,0.16224199533462524,99
1670829427.97949529,103318154,0,24.776132583618164,24.872615814208984,0.5946823954582214,16.917949676513672,0.4194140136241913,0.0,0.16224199533462524,99
1670829428.07947707,103418136,0,24.784547805786133,24.883729934692383,0.6113226413726807,16.9349308013916,0.4198348820209503,0.0,0.16224199533462524,99
1670829428.17948818,103518147,0,24.787994384765625,24.888521194458008,0.6196085810661316,16.952144622802734,0.42026159167289734,0.0,0.16224199533462524,99
1670829428.27950525,103618164,0,24.730167388916016,24.807889938354492,0.4790535271167755,16.9654541015625,0.42059075832366943,0.0,0.16224199533462524,99
1670829428.37950230,103718161,0,24.753049850463867,24.841726303100586,0.5465691089630127,16.980636596679688,0.42096659541130066,0.0,0.16224199533462524,99
1670829428.47949529,103818154,0,24.787899017333984,24.887928009033203,0.616539716720581,16.99776268005371,0.4213911294937134,0.0,0.16224199533462524,99
1670829428.57948613,103918145,0,24.775358200073242,24.87090492248535,0.5889196991920471,17.014122009277344,0.42179641127586365,0.0,0.16224199533462524,99
1670829428.67948222,104018141,0,24.691682815551758,24.960412979125977,1.7084503173828125,17.061580657958984,0.4229682385921478,0.0,0.1572941541671753,99
1670829428.77947617,104118135,0,24.293317794799805,24.983909606933594,5.189490795135498,17.20573616027832,0.42647024989128113,0.0,0.13307496905326843,99
1670829428.87949514,104218154,0,24.493173599243164,24.913667678833008,3.1773228645324707,17.29401969909668,0.42863258719444275,0.0,0.1323423981666565,99
1670829428.97941828,104318077,0,24.542810440063477,24.820932388305664,2.0819339752197266,17.3518123626709,0.43005096912384033,0.0,0.13358864188194275,99
1670829429.07946110,104418120,0,24.592018127441406,24.88214683532715,2.1743075847625732,17.41223907470703,0.431537002325058,0.0,0.13343511521816254,99
1670829429.17947125,104518130,0,24.60637855529785,24.891756057739258,2.143925666809082,17.471803665161133,0.43300268054008484,0.0,0.133109450340271,99
1670829429.27950120,104618160,0,24.57813835144043,24.8397159576416,1.9539614915847778,17.526100158691406,0.43433719873428345,0.0,0.13387084007263184,99
1670829429.37942123,104718080,0,24.5799560546875,24.83278465270996,1.888594150543213,17.578523635864258,0.43562576174736023,0.0,0.13387084007263184,99
1670829429.47944927,104818108,0,24.608388900756836,24.861894607543945,1.894731879234314,17.631174087524414,0.4369214177131653,0.0,0.13379471004009247,99
1670829429.57946730,104918126,0,24.631750106811523,24.889484405517578,1.9263414144515991,17.6846923828125,0.4382396638393402,0.0,0.13379471004009247,99
1670829429.67947912,105018138,0,24.63146209716797,24.88652229309082,1.9017903804779053,17.73753547668457,0.4395412802696228,0.0,0.1341160535812378,99
1670829429.77948809,105118147,0,24.5677433013916,24.805091857910156,1.7697257995605469,17.78670310974121,0.4407491981983185,0.0,0.1341160535812378,99
1670829429.87944126,105218100,0,24.60053825378418,24.84889030456543,1.8517675399780273,17.83812141418457,0.44201409816741943,0.0,0.1341160535812378,99
1670829429.97952628,105318185,0,24.629642486572266,24.887996673583984,1.9263414144515991,17.891681671142578,0.4433332681655884,0.0,0.1341160535812378,99
1670829430.07947826,105418137,0,24.619112014770508,24.874420166015625,1.9036316871643066,17.94454002380371,0.4446345865726471,0.0,0.1341160535812378,99
1670829430.17950630,105518165,0,24.621122360229492,24.877294540405273,1.9100764989852905,17.997615814208984,0.44594138860702515,0.0,0.1341160535812378,99
1670829430.27946329,105618122,0,24.616912841796875,24.871488571166992,1.8971871137619019,18.050296783447266,0.4472382366657257,0.0,0.13418614864349365,99
1670829430.37949109,105718150,0,24.57660484313965,24.817386627197266,1.7943792343139648,18.10015869140625,0.44846367835998535,0.0,0.13418614864349365,99
1670829430.47947621,105818135,0,24.60417938232422,24.855915069580078,1.876011610031128,18.152265548706055,0.4497457444667816,0.0,0.13418614864349365,99
1670829430.57939625,105918055,0,24.625932693481445,24.883079528808594,1.9163506031036377,18.205459594726562,0.4510556757450104,0.0,0.13418614864349365,99
1670829430.67947030,106018129,0,24.617389678955078,24.87328338623047,1.9070075750350952,18.25847053527832,0.45236068964004517,0.0,0.13418614864349365,99
1670829430.77948308,106118142,0,24.593168258666992,24.84025001525879,1.841333270072937,18.309633255004883,0.45361894369125366,0.0,0.13418614864349365,99
1670829430.87940121,106218060,0,24.57746696472168,24.820554733276367,1.8115650415420532,18.35991096496582,0.4548546373844147,0.0,0.13418614864349365,99
1670829430.97941828,106318077,0,24.627344131469727,24.88677978515625,1.9333999156951904,18.413631439208984,0.45617762207984924,0.0,0.13418614864349365,99
1670829431.07947326,106418132,0,24.614421844482422,24.869985580444336,1.9045522212982178,18.46657371520996,0.4574807584285736,0.0,0.13418614864349365,99
1670829431.17950225,106518161,0,24.628591537475586,24.887863159179688,1.9321722984313965,18.520265579223633,0.45880308747291565,0.0,0.13418614864349365,99
1670829431.27956009,106618219,0,24.5595645904541,24.799150466918945,1.7854794263839722,18.569889068603516,0.46002182364463806,0.0,0.13418614864349365,99
1670829431.37952423,106718183,0,24.574403762817383,24.816667556762695,1.805427074432373,18.620031356811523,0.4612540304660797,0.0,0.13418614864349365,99
1670829431.47950220,106818161,0,24.61933708190918,24.8756160736084,1.9098716974258423,18.673076629638672,0.46255993843078613,0.0,0.13418614864349365,99
1670829431.57949519,106918154,0,24.601016998291016,24.852357864379883,1.8729428052902222,18.7251033782959,0.4638398587703705,0.0,0.13419602811336517,99
1670829431.67951512,107018174,0,24.619495391845703,24.87746810913086,1.9223519563674927,18.77851676940918,0.46515488624572754,0.0,0.13419602811336517,99
1670829431.77951527,107118174,0,24.601016998291016,24.852523803710938,1.8741704225540161,18.830581665039062,0.4664357304573059,0.0,0.13419602811336517,99
1670829431.87948322,107218142,0,24.577274322509766,24.8216552734375,1.8210786581039429,18.881155014038086,0.4676786959171295,0.0,0.13419602811336517,99
1670829431.97952914,107318188,0,24.603410720825195,24.854957580566406,1.8744771480560303,18.933252334594727,0.4689604640007019,0.0,0.13419602811336517,99
1670829432.07948017,107418139,0,24.61518669128418,24.871675491333008,1.9113038778305054,18.9863224029541,0.47026678919792175,0.0,0.13419602811336517,99
1670829432.17965317,107518312,0,24.62744140625,24.88788414001465,1.940765380859375,19.04033088684082,0.4715968668460846,0.0,0.13419602811336517,99
1670829432.27954316,107618202,0,24.57823371887207,24.824098587036133,1.832126498222351,19.091171264648438,0.47284644842147827,0.0,0.13419602811336517,99
1670829432.37966728,107718326,0,24.570829391479492,24.81477165222168,1.8178050518035889,19.141733169555664,0.47408878803253174,0.0,0.13419602811336517,99
1670829432.47949719,107818156,0,24.61662483215332,24.875173568725586,1.9266483783721924,19.19516372680664,0.4754040837287903,0.0,0.13419602811336517,99
1670829432.57960224,107918261,0,24.611263275146484,24.867834091186523,1.9119175672531128,19.248332977294922,0.4767126441001892,0.0,0.13419602811336517,99
1670829432.67952323,108018182,0,24.618635177612305,24.877553939819336,1.9294103384017944,19.3018798828125,0.4780309200286865,0.0,0.13419602811336517,99
1670829432.77970815,108118367,0,24.560712814331055,24.80682373046875,1.833967685699463,19.352930068969727,0.47928476333618164,0.0,0.13419602811336517,99
1670829432.87952423,108218183,0,24.450517654418945,24.877779006958008,3.1974751949310303,19.441593170166016,0.481452614068985,0.0,0.13362470269203186,99
1670829432.97963715,108318296,0,23.498117446899414,24.976037979125977,12.190239906311035,19.780616760253906,0.48941904306411743,0.0,0.12123795598745346,99
1670829433.07953024,108418189,0,22.624507904052734,24.97003173828125,20.903427124023438,20.360675811767578,0.5025425553321838,0.0,0.11220762133598328,99
1670829433.17970920,108518368,0,21.922746658325195,24.960405349731445,31.08108901977539,21.225603103637695,0.5215041041374207,0.0,0.09773336350917816,99
1670829433.27952409,108618183,0,21.44402503967285,24.958494186401367,37.050010681152344,22.2530517578125,0.5435367226600647,0.0,0.09485741704702377,99
1670829433.37964129,108718300,0,22.004701614379883,24.596826553344727,27.168256759643555,23.0086612701416,0.560163676738739,0.0,0.0954100489616394,99
1670829433.47951818,108818177,0,22.835609436035156,24.773744583129883,20.320953369140625,23.57248878479004,0.5730389952659607,0.0,0.09537620842456818,99
1670829433.57964230,108918301,0,22.991662979125977,24.765260696411133,18.596851348876953,24.089750289916992,0.5849316716194153,0.0,0.09537088871002197,99
1670829433.67952919,109018188,0,22.822782516479492,24.784738540649414,20.58487892150879,24.660934448242188,0.5979676842689514,0.0,0.09531054645776749,99
1670829433.77968121,109118340,0,22.684345245361328,24.74102020263672,21.562320709228516,25.2608585357666,0.6115765571594238,0.0,0.09538283944129944,99
1670829433.87954426,109218203,0,22.559118270874023,24.65518569946289,21.904193878173828,25.86852264404297,0.6252849698066711,0.0,0.09569253772497177,99
1670829433.97975421,109318413,0,22.47439193725586,24.614347457885742,22.272153854370117,26.488548278808594,0.6392197012901306,0.0,0.09608211368322372,99
1670829434.07952213,109418181,0,22.594266891479492,24.7238826751709,22.158058166503906,27.102670669555664,0.6530953645706177,0.0,0.09611023217439651,99
1670829434.17973018,109518389,0,22.6209659576416,24.738821029663086,22.039836883544922,27.716205596923828,0.6669741272926331,0.0,0.0960921198129654,99
1670829434.27956128,109618220,0,22.52283477783203,24.655733108520508,22.145099639892578,28.33036231994629,0.6808066964149475,0.0,0.09631466120481491,99
1670829434.37970328,109718362,0,22.500526428222656,24.66148567199707,22.394601821899414,28.953367233276367,0.6948246359825134,0.0,0.0964946523308754,99
1670829434.47950912,109818168,0,22.492197036743164,24.658342361450195,22.409332275390625,29.574689865112305,0.7087995409965515,0.0,0.09666264057159424,99
1670829434.57966614,109918325,0,22.413118362426758,24.607080459594727,22.627836227416992,30.20427894592285,0.7229105830192566,0.0,0.09695854783058167,99
1670829434.67955327,110018212,0,22.420011520385742,24.645278930664062,22.914777755737305,30.840131759643555,0.7371664047241211,0.0,0.09711054712533951,99
1670829434.77969718,110118356,0,22.37980079650879,24.602903366088867,22.832225799560547,31.475324630737305,0.7513818740844727,0.0,0.09736689925193787,99
1670829434.87953830,110218197,0,22.406991958618164,24.58045768737793,22.255887985229492,32.09260940551758,0.7652133703231812,0.0,0.09765797108411789,99
1670829434.97965622,110318315,0,22.483848571777344,24.662757873535156,22.30672836303711,32.71302032470703,0.7791626453399658,0.0,0.09767947345972061,99
1670829435.07953620,110418195,0,22.40670394897461,24.635761260986328,22.797548294067383,33.345577239990234,0.7933361530303955,0.0,0.09777619689702988,99
1670829435.17964530,110518304,0,22.404216766357422,24.671018600463867,23.18729591369629,33.990421295166016,0.8077834248542786,0.0,0.09776049107313156,99
1670829435.27952814,110618187,0,22.32657241821289,24.610044479370117,23.319257736206055,34.637474060058594,0.8222298622131348,0.0,0.0979221910238266,99
1670829435.37963629,110718295,0,22.32034683227539,24.578718185424805,23.008071899414062,35.27732849121094,0.8365116119384766,0.0,0.09815562516450882,99
1670829435.47951412,110818173,0,22.316614151000977,24.637853622436523,23.639650344848633,35.93323516845703,0.8511492609977722,0.0,0.09819263964891434,99
1670829435.57969213,110918351,0,22.320539474487305,24.63226318359375,23.5310115814209,36.58808898925781,0.8657659888267517,0.0,0.09824159741401672,99
1670829435.67953515,111018194,0,22.476211547851562,24.641216278076172,22.041065216064453,37.19942855834961,0.8795065879821777,0.0,0.09822598099708557,99
1670829435.77976418,111118423,0,22.445383071899414,24.46968650817871,20.703643798828125,37.77588653564453,0.89244544506073,0.0,0.09777521342039108,99
1670829435.87959313,111218252,0,22.315776824951172,24.408103942871094,21.39936065673828,38.36916732788086,0.9056849479675293,0.0,0.09777521342039108,99
1670829435.97967815,111318337,0,22.435331344604492,24.631059646606445,22.456899642944336,38.993743896484375,0.9196975231170654,0.0,0.09777521342039108,99
1670829436.07985115,111418510,0,22.48271942138672,24.629236221313477,21.927824020385742,39.60395431518555,0.9334166646003723,0.0,0.09789010882377625,99
1670829436.17999816,111518657,0,22.560556411743164,24.636947631835938,21.187606811523438,40.19341278076172,0.9467151165008545,0.0,0.09800027310848236,99
1670829436.27986526,111618524,0,22.468935012817383,24.55031394958496,21.2677059173584,40.783443450927734,0.9599725008010864,0.0,0.09786571562290192,99
1670829436.37998819,111718647,0,22.349166870117188,24.484607696533203,21.820106506347656,41.39034652709961,0.9735362529754639,0.0,0.09786571562290192,99
1670829436.47984409,111818503,0,22.373292922973633,24.522480010986328,21.92751693725586,41.99862289428711,0.9871453642845154,0.0,0.09801327437162399,99
1670829436.57998610,111918645,0,22.396268844604492,24.52169418334961,21.685075759887695,42.601890563964844,1.000656247138977,0.0,0.09801327437162399,99
1670829436.67992020,112018579,0,22.44395637512207,24.559444427490234,21.58417510986328,43.20109558105469,1.0141048431396484,0.0,0.0980110615491867,99
1670829436.77992916,112118588,0,22.427669525146484,24.57819175720215,21.941633224487305,43.81069564819336,1.0277767181396484,0.0,0.0980110615491867,99
1670829436.87978816,112218447,0,22.390907287597656,24.501094818115234,21.53009605407715,44.40795135498047,1.0411498546600342,0.0,0.0980110615491867,99
1670829436.98015428,112318813,0,22.44691276550293,24.629589080810547,22.269697189331055,45.028873443603516,1.055087685585022,0.0,0.0980110615491867,99
1670829437.07976913,112418428,0,22.425851821899414,24.637224197387695,22.562469482421875,45.65324020385742,1.069089651107788,0.0,0.0980110615491867,99
1670829437.17997217,112518631,0,22.430255889892578,24.570171356201172,21.837596893310547,46.2611083984375,1.0827243328094482,0.0,0.09799229353666306,99
1670829437.27983713,112618496,0,22.400863647460938,24.510677337646484,21.53040313720703,46.8583984375,1.0961041450500488,0.0,0.09799229353666306,99
1670829437.37997127,112718630,0,22.354814529418945,24.510868072509766,21.9674129486084,47.46950149536133,1.1097652912139893,0.0,0.09814785420894623,99
1670829437.47979021,112818449,0,22.3454532623291,24.58870506286621,22.875837326049805,48.103843688964844,1.123939871788025,0.0,0.09806207567453384,99
1670829437.58000827,112918667,0,22.330307006835938,24.547067642211914,22.595611572265625,48.73291778564453,1.1379872560501099,0.0,0.09810583293437958,99
1670829437.67985821,113018517,0,22.42470359802246,24.60846710205078,22.25926399230957,49.35035705566406,1.151833176612854,0.0,0.09810583293437958,99
1670829437.77998424,113118643,0,22.38621711730957,24.54806137084961,22.035846710205078,49.96328353881836,1.1655542850494385,0.0,0.09810583293437958,99
1670829437.87982130,113218480,0,22.361995697021484,24.526700973510742,22.06500244140625,50.57517623901367,1.1792374849319458,0.0,0.09810583293437958,99
1670829437.98000312,113318662,0,22.397228240966797,24.523048400878906,21.688756942749023,51.178646087646484,1.192753553390503,0.0,0.09801486134529114,99
1670829438.07980514,113418464,0,22.540929794311523,24.589731216430664,20.881946563720703,51.75779342651367,1.205808162689209,0.0,0.09811355918645859,99
1670829438.18000412,113518663,0,22.61186981201172,24.61640739440918,20.40043830871582,52.325645446777344,1.2186483144760132,0.0,0.09825950115919113,99
1670829438.27980709,113618466,0,22.557588577270508,24.50827407836914,19.88517189025879,52.87697219848633,1.231084942817688,0.0,0.09809748083353043,99
1670829438.37992525,113718584,0,22.52044105529785,24.414539337158203,19.381053924560547,53.416011810302734,1.2432243824005127,0.0,0.09772935509681702,99
1670829438.47981524,113818474,0,22.415416717529297,24.389163970947266,20.196048736572266,53.9764404296875,1.255786657333374,0.0,0.09772935509681702,99
1670829438.58000517,113918664,0,22.42719078063965,24.40273666381836,20.214462280273438,54.539066314697266,1.2684047222137451,0.0,0.09772935509681702,99
1670829438.67981720,114018476,0,22.479463577270508,24.427053451538086,19.960050582885742,55.09251022338867,1.2808457612991333,0.0,0.097574383020401,99
1670829438.77993417,114118593,0,22.518142700195312,24.497386932373047,20.272464752197266,55.65634536743164,1.2935422658920288,0.0,0.09763218462467194,99
1670829438.87977719,114218436,0,22.457063674926758,24.388608932495117,19.783897399902344,56.205074310302734,1.3058650493621826,0.0,0.09763218462467194,99
1670829438.97997522,114318634,0,22.574724197387695,24.515869140625,19.855403900146484,56.757755279541016,1.318341612815857,0.0,0.0977640375494957,99
1670829439.07993031,114418589,0,22.662322998046875,24.55133819580078,19.28367042541504,57.293212890625,1.3304764032363892,0.0,0.09795930981636047,99
1670829439.17998624,114518645,0,22.654762268066406,24.498809814453125,18.820878982543945,57.816349029541016,1.3423279523849487,0.0,0.09797880053520203,99
1670829439.27984619,114618505,0,22.62373161315918,24.4760799407959,18.913902282714844,58.341041564941406,1.3541984558105469,0.0,0.09793582558631897,99
1670829439.38003421,114718693,0,22.57280921936035,24.448387145996094,19.171653747558594,58.874629974365234,1.3662431240081787,0.0,0.09783080220222473,99
1670829439.47980428,114818463,0,22.613595962524414,24.50815773010254,19.351797103881836,59.41092300415039,1.3783706426620483,0.0,0.09790107607841492,99
1670829439.57998228,114918641,0,22.635995864868164,24.506954193115234,19.10045623779297,59.942543029785156,1.3904043436050415,0.0,0.09795363247394562,99
1670829439.67981315,115018472,0,22.707321166992188,24.535640716552734,18.643192291259766,60.459571838378906,1.4021446704864502,0.0,0.09806898236274719,99
1670829439.77993011,115118589,0,22.625179290771484,24.450963973999023,18.64134979248047,60.9780387878418,1.4138751029968262,0.0,0.09794268757104874,99
1670829439.87976408,115218423,0,22.60603141784668,24.446931838989258,18.816890716552734,61.49990463256836,1.4256724119186401,0.0,0.09783236682415009,99
1670829439.97997022,115318629,0,22.65093421936035,24.50908851623535,18.97923469543457,62.028228759765625,1.4376394748687744,0.0,0.09790460765361786,99
1670829440.07981014,115418469,0,22.683195114135742,24.514236450195312,18.6888484954834,62.546573638916016,1.4493972063064575,0.0,0.09797510504722595,99
1670829440.18001509,115518674,0,22.734031677246094,24.556467056274414,18.56984519958496,63.063507080078125,1.4611492156982422,0.0,0.09813952445983887,99
1670829440.27986026,115618519,0,22.681758880615234,24.477914810180664,18.3154354095459,63.5715217590332,1.4726718664169312,0.0,0.09806787222623825,99
1670829440.37988830,115718547,0,22.704545974731445,24.467662811279297,17.99381446838379,64.071533203125,1.4840242862701416,0.0,0.09798464924097061,99
1670829440.47980022,115818459,0,22.749446868896484,24.541627883911133,18.267253875732422,64.57855224609375,1.4955586194992065,0.0,0.09810896217823029,99
1670829440.57998109,115918640,0,22.72723388671875,24.48736572265625,17.948087692260742,65.07805633544922,1.5069109201431274,0.0,0.09806795418262482,99
1670829440.67983007,116018489,0,22.767732620239258,24.460716247558594,17.281219482421875,65.55740356445312,1.5178245306015015,0.0,0.09796664118766785,99
1670829440.77998018,116118639,0,22.743797302246094,24.42343521118164,17.17595672607422,66.03526306152344,1.5286928415298462,0.0,0.09779005497694016,99
1670829440.87985611,116218515,0,22.683673858642578,24.3817081451416,17.36408042907715,66.51704406738281,1.539621353149414,0.0,0.09779005497694016,99
1670829440.98001313,116318672,0,22.740638732910156,24.476844787597656,17.74738311767578,67.0108413696289,1.5508506298065186,0.0,0.09782886505126953,99
1670829441.07980108,116418460,0,22.68721580505371,24.436481475830078,17.880878448486328,67.50651550292969,1.5620962381362915,0.0,0.09782886505126953,99
1670829441.18011522,116518774,0,22.71306610107422,24.45258903503418,17.78482437133789,68.00212097167969,1.5733530521392822,0.0,0.09780941903591156,99
1670829441.27974224,116618401,0,22.693058013916016,24.438915252685547,17.849576950073242,68.49613952636719,1.5845638513565063,0.0,0.09780941903591156,99
1670829441.37991524,116718574,0,22.691621780395508,24.42727279663086,17.745235443115234,68.98995208740234,1.5957692861557007,0.0,0.09780941903591156,99
1670829441.47976017,116818419,0,22.730968475341797,24.448827743530273,17.56416893005371,69.47712707519531,1.6068432331085205,0.0,0.09780475497245789,99
1670829441.57988024,116918539,0,22.752126693725586,24.46642303466797,17.52028465270996,69.96441650390625,1.6179301738739014,0.0,0.0978463888168335,99
1670829441.67980528,117018464,0,22.739871978759766,24.444198608398438,17.42269515991211,70.44805908203125,1.6289281845092773,0.0,0.09782220423221588,99
1670829441.77993608,117118595,0,22.78520965576172,24.459117889404297,17.10837173461914,70.9239501953125,1.6397714614868164,0.0,0.09784144908189774,99
1670829441.87986922,117218528,0,22.74178695678711,24.406597137451172,17.03632164001465,71.39689636230469,1.6505271196365356,0.0,0.09772122651338577,99
1670829441.97993708,117318596,0,22.760839462280273,24.43924903869629,17.177490234375,71.8744125366211,1.6613959074020386,0.0,0.09770985692739487,99
1670829442.07993817,117418597,0,22.781421661376953,24.366519927978516,16.25528907775879,72.32598114013672,1.6716833114624023,0.0,0.09751272946596146,99
1670829442.17999411,117518653,0,22.956144332885742,24.616178512573242,16.939037322998047,72.79681396484375,1.6824917793273926,0.0,0.09800053387880325,99
1670829442.27982521,117618484,0,22.9116268157959,24.46623992919922,15.86308479309082,73.23674774169922,1.6925714015960693,0.0,0.09800192713737488,99
1670829442.37998009,117718639,0,22.695449829101562,24.555469512939453,19.02895164489746,73.76618957519531,1.7045873403549194,0.0,0.0977468341588974,99
1670829442.47993112,117818590,0,22.57855224609375,24.450719833374023,19.13850975036621,74.29759979248047,1.7165857553482056,0.0,0.09782204031944275,99
1670829442.58000922,117918668,0,22.5765438079834,24.511659622192383,19.80384635925293,74.84818267822266,1.7290159463882446,0.0,0.09771416336297989,99
1670829442.67983818,118018497,0,22.612564086914062,24.564151763916016,20.02245330810547,75.40345764160156,1.7415721416473389,0.0,0.09746991842985153,99
1670829442.78002119,118118680,0,22.4571590423584,24.433347702026367,20.241775512695312,75.966796875,1.754223108291626,0.0,0.09762924909591675,99
1670829442.87980127,118218460,0,22.445478439331055,24.535179138183594,21.43772315979004,76.56095886230469,1.767559289932251,0.0,0.09747772663831711,99
1670829442.98004007,118318699,0,22.41876983642578,24.473773956298828,21.07252311706543,77.1478271484375,1.7807161808013916,0.0,0.09752058237791061,99
1670829443.07977009,118418429,0,22.493730545043945,24.52249526977539,20.825170516967773,77.72478485107422,1.7936941385269165,0.0,0.0974188894033432,99
1670829443.18001223,118518671,0,22.446434020996094,24.529674530029297,21.408567428588867,78.32095336914062,1.8070759773254395,0.0,0.09730872511863708,99
1670829443.27991223,118618571,0,22.472381591796875,24.50386619567871,20.88163948059082,78.90045928955078,1.820098876953125,0.0,0.09728571027517319,99
1670829443.37994719,118718606,0,22.45572280883789,24.44072914123535,20.370363235473633,79.466552734375,1.832810878753662,0.0,0.09744580090045929,99
1670829443.47980213,118818461,0,22.522781372070312,24.597097396850586,21.3540096282959,80.05890655517578,1.8461523056030273,0.0,0.09713941067457199,99
1670829443.57999730,118918656,0,22.474008560180664,24.689105987548828,22.9298152923584,80.69713592529297,1.8604958057403564,0.0,0.0966033935546875,99
1670829443.67991114,119018570,0,22.50713348388672,24.793668746948242,23.860916137695312,81.35942077636719,1.8754019737243652,0.0,0.09582763910293579,99
1670829443.77999115,119118650,0,22.502824783325195,24.794599533081055,24.088626861572266,82.02914428710938,1.890472650527954,0.0,0.0951392874121666,99
1670829443.87993813,119218597,0,22.50225067138672,24.758743286132812,23.844345092773438,82.69119262695312,1.9053701162338257,0.0,0.09463426470756531,99
1670829443.97998619,119318645,0,22.567354202270508,24.66086196899414,22.12208366394043,83.30603790283203,1.9192456007003784,0.0,0.09463426470756531,99
1670829444.07986712,119418526,0,22.540067672729492,24.75209617614746,23.374496459960938,83.95460510253906,1.9338644742965698,0.0,0.09463426470756531,99
1670829444.18001509,119518674,0,22.60536003112793,24.7417049407959,22.574745178222656,84.58265686035156,1.9480618238449097,0.0,0.09463426470756531,98
1670829444.27981210,119618471,0,22.684152603149414,24.60718536376953,20.346389770507812,85.146728515625,1.9608573913574219,0.0,0.09451467543840408,98
1670829444.38001919,119718678,0,22.832738876342773,24.516897201538086,17.880878448486328,85.64448547363281,1.9722225666046143,0.0,0.0941876471042633,98
1670829444.48007822,119818737,0,22.485689163208008,24.382993698120117,20.143877029418945,86.20439147949219,1.9848123788833618,0.0,0.0941876471042633,98
1670829444.58001924,119918678,0,22.168508529663086,24.360891342163086,23.123462677001953,86.8461685180664,1.999039649963379,0.0,0.09481201320886612,98
1670829444.67979527,120018454,0,22.2840633392334,24.426992416381836,22.516128540039062,87.47049713134766,2.0129523277282715,0.0,0.09517306834459305,98
1670829444.78007507,120118734,0,22.3754940032959,24.356233596801758,20.811975479125977,88.0502700805664,2.0259251594543457,0.0,0.09517306834459305,98
1670829444.87981820,120218477,0,22.173295974731445,24.107187271118164,20.319726943969727,88.6133041381836,2.038409471511841,0.0,0.09517306834459305,98
1670829444.97994113,120318600,0,22.168603897094727,24.235183715820312,21.58011817932129,89.21353912353516,2.051715850830078,0.0,0.09576310217380524,98
1670829445.07984710,120418506,0,22.14103126525879,24.23179054260254,21.712080001831055,89.81613159179688,2.0650579929351807,0.0,0.09629474580287933,98
1670829445.18001914,120518678,0,22.272584915161133,24.217191696166992,20.194311141967773,90.37809753417969,2.0775742530822754,0.0,0.09629474580287933,98
1670829445.28008723,120618746,0,22.21120834350586,24.12040138244629,19.826555252075195,90.92924499511719,2.089816093444824,0.0,0.09629474580287933,98
1670829445.38011408,120718773,0,22.19818687438965,24.09821891784668,19.731420516967773,91.47753143310547,2.10198712348938,0.0,0.09629474580287933,98
1670829445.47988009,120818539,0,22.20067596435547,24.08847427368164,19.604368209838867,92.02086639404297,2.1140494346618652,0.0,0.09629474580287933,98
1670829445.57998919,120918648,0,22.415224075317383,24.341657638549805,19.95913314819336,92.57594299316406,2.1264915466308594,0.0,0.09651889652013779,98
1670829445.67997909,121018638,0,22.442222595214844,24.329660415649414,19.525497436523438,93.11830139160156,2.1386632919311523,0.0,0.09666528552770615,98
1670829445.78000522,121118664,0,22.48846435546875,24.36719512939453,19.392921447753906,93.65718078613281,2.1507818698883057,0.0,0.09687718003988266,98
1670829445.87983227,121218491,0,22.545717239379883,24.40955924987793,19.18454360961914,94.189208984375,2.1627767086029053,0.0,0.09715335816144943,98
1670829445.97997808,121318637,0,22.548206329345703,24.34832763671875,18.516992568969727,94.70436096191406,2.1743924617767334,0.0,0.09721457213163376,98
1670829446.07977009,121418429,0,22.568883895874023,24.327634811401367,18.092327117919922,95.20591735839844,2.1857120990753174,0.0,0.09720975905656815,98
1670829446.17999315,121518652,0,22.630538940429688,24.401193618774414,18.180095672607422,95.71208953857422,2.197166919708252,0.0,0.09739520400762558,98
1670829446.27981830,121618477,0,22.57252311706543,24.341814041137695,18.167207717895508,96.21588897705078,2.2085390090942383,0.0,0.09738922119140625,98
1670829446.38004827,121718707,0,22.534133911132812,24.285484313964844,18.010692596435547,96.7173843383789,2.2198398113250732,0.0,0.09723948687314987,98
1670829446.47982216,121818481,0,22.57606315612793,24.330997467041016,18.047826766967773,97.21762084960938,2.231133222579956,0.0,0.09723798930644989,98
1670829446.57997823,121918637,0,22.621444702148438,24.3348445892334,17.619104385375977,97.70783996582031,2.242222785949707,0.0,0.09724670648574829,98
1670829446.67987514,122018534,0,22.774242401123047,24.344144821166992,16.13836669921875,98.15570068359375,2.252422332763672,0.0,0.0972777009010315,98
1670829446.78002214,122118681,0,22.671037673950195,24.260025024414062,16.36699867248535,98.61096954345703,2.2627437114715576,0.0,0.09708483517169952,98
1670829446.87988615,122218545,0,22.485124588012695,24.213787078857422,17.805692672729492,99.10498046875,2.2738516330718994,0.0,0.09708483517169952,98
1670829446.97998810,122318647,0,22.550600051879883,24.36387825012207,18.711320877075195,99.62533569335938,2.285585880279541,0.0,0.0969080999493599,98
1670829447.07987714,122418536,0,22.580087661743164,24.3404598236084,18.165367126464844,100.12943267822266,2.296968460083008,0.0,0.0969080999493599,98
1670829447.18003130,122518690,0,22.682716369628906,24.36441993713379,17.33062744140625,100.61162567138672,2.307905912399292,0.0,0.09703654050827026,98
1670829447.27992415,122618583,0,22.63494300842285,24.309221267700195,17.26127052307129,101.09062957763672,2.3187482357025146,0.0,0.09699627012014389,98
1670829447.38000607,122718665,0,22.549449920654297,24.28233528137207,17.844974517822266,101.5867691040039,2.3299360275268555,0.0,0.09710770845413208,98
1670829447.48002315,122818682,0,22.547725677490234,24.35813331604004,18.66590118408203,102.10504150390625,2.3416218757629395,0.0,0.09699006378650665,98
1670829447.57999229,122918651,0,22.57577896118164,24.357337951660156,18.38755226135254,102.61604309082031,2.3531579971313477,0.0,0.09688939899206161,98
1670829447.67988110,123018540,0,22.645431518554688,24.37600326538086,17.837745666503906,103.1109390258789,2.3643651008605957,0.0,0.09701739996671677,98
1670829447.77996421,123118623,0,22.62556266784668,24.336593627929688,17.636289596557617,103.60136413574219,2.3754613399505615,0.0,0.09701763838529587,98
1670829447.87980914,123218468,0,22.660409927368164,24.36661148071289,17.57245635986328,104.0887680053711,2.3865060806274414,0.0,0.09709516912698746,98
1670829447.97997427,123318633,0,22.581809997558594,24.189739227294922,16.560338973999023,104.5495376586914,2.396911144256592,0.0,0.09709516912698746,98
1670829448.07983112,123418490,0,22.58669090270996,24.2783203125,17.422388076782227,105.03287506103516,2.4078280925750732,0.0,0.09709516912698746,98
1670829448.18007231,123518731,0,22.546003341674805,24.338924407958984,18.48084831237793,105.54734802246094,2.4194273948669434,0.0,0.09701505303382874,98
1670829448.27985525,123618514,0,22.59626579284668,24.36563491821289,18.23809814453125,106.05306243896484,2.4308547973632812,0.0,0.09701505303382874,98
1670829448.38006616,123718725,0,22.521108627319336,24.226675033569336,17.58043670654297,106.54248046875,2.4418768882751465,0.0,0.09701505303382874,98
1670829448.47984219,123818501,0,22.561607360839844,24.318496704101562,18.115650177001953,107.04460144042969,2.4532055854797363,0.0,0.09698183834552765,98
1670829448.58000231,123918661,0,22.617328643798828,24.379337310791016,18.16843605041504,107.55013275146484,2.46463942527771,0.0,0.09698183834552765,98
1670829448.67989111,124018550,0,22.595979690551758,24.330644607543945,17.881494522094727,108.04632568359375,2.475851535797119,0.0,0.09700899571180344,98
1670829448.77999425,124118653,0,22.586978912353516,24.335994720458984,18.029415130615234,108.54769897460938,2.487175941467285,0.0,0.09700899571180344,98
1670829448.87983823,124218497,0,22.602584838867188,24.360740661621094,18.12363052368164,109.05038452148438,2.498538017272949,0.0,0.09700899571180344,98
1670829448.98000312,124318662,0,22.5277156829834,24.288597106933594,18.129459381103516,109.55485534667969,2.5099024772644043,0.0,0.09712815284729004,98
1670829449.07986617,124418525,0,22.519771575927734,24.288715362548828,18.1929874420166,110.05956268310547,2.521268367767334,0.0,0.09723220020532608,98
1670829449.18001723,124518676,0,22.54629135131836,24.319000244140625,18.23073387145996,110.566650390625,2.532701253890991,0.0,0.09723737090826035,98
1670829449.27994227,124618601,0,22.561128616333008,24.333101272583008,18.229812622070312,111.07281494140625,2.544121026992798,0.0,0.0972018763422966,98
1670829449.37996221,124718621,0,22.37906837463379,24.162885665893555,18.266706466674805,111.58036804199219,2.5554795265197754,0.0,0.09765402972698212,98
1670829449.47982621,124818485,0,22.384876251220703,24.30283546447754,19.640581130981445,112.125244140625,2.567676544189453,0.0,0.0976528450846672,98
1670829449.58011127,124918770,0,22.193016052246094,24.163223266601562,20.093854904174805,112.68504333496094,2.5801000595092773,0.0,0.09805023670196533,98
1670829449.67980027,125018459,0,22.137584686279297,24.249330520629883,21.514751434326172,113.2808609008789,2.593290090560913,0.0,0.09815343469381332,98
1670829449.77995420,125118613,0,22.04960060119629,24.091751098632812,20.691675186157227,113.85655975341797,2.6059839725494385,0.0,0.09869429469108582,98
1670829449.87989426,125218553,0,21.968990325927734,24.034027099609375,20.788650512695312,114.43372344970703,2.6186635494232178,0.0,0.09933485835790634,98
1670829449.98000813,125318667,0,21.933279037475586,24.03910255432129,21.082651138305664,115.02006530761719,2.631524085998535,0.0,0.09988421201705933,98
1670829450.07985020,125418509,0,22.02260398864746,24.074907302856445,20.468873977661133,115.58778381347656,2.644026756286621,0.0,0.10026459395885468,98
1670829450.18010521,125518764,0,22.026113510131836,24.094284057617188,20.56973648071289,116.16067504882812,2.6566452980041504,0.0,0.10054429620504379,98
1670829450.27987814,125618537,0,22.142658233642578,24.258115768432617,21.086641311645508,116.74513244628906,2.669586658477783,0.0,0.1003221645951271,98
1670829450.38000512,125718664,0,22.129161834716797,24.324254989624023,21.964956283569336,117.35608673095703,2.6831066608428955,0.0,0.09993617236614227,98
1670829450.47982216,125818481,0,22.255056381225586,24.514341354370117,22.607275009155273,117.98297119140625,2.6970579624176025,0.0,0.09993617236614227,98
1670829450.58003926,125918698,0,22.242801666259766,24.350793838500977,21.09339141845703,118.57022094726562,2.7101199626922607,0.0,0.09993617236614227,98
1670829450.67985821,126018517,0,22.332027435302734,24.385902404785156,20.492504119873047,119.13846588134766,2.7228100299835205,0.0,0.10022567957639694,98
1670829450.77994514,126118604,0,22.30953025817871,24.286197662353516,19.72743034362793,119.68697357177734,2.7350471019744873,0.0,0.10019897669553757,98
1670829450.87981319,126218472,0,22.287031173706055,24.268407821655273,19.787578582763672,120.23594665527344,2.747282028198242,0.0,0.10013233125209808,98
1670829450.97998428,126318643,0,22.306276321411133,24.204078674316406,18.994272232055664,120.7645034790039,2.7590723037719727,0.0,0.09991446882486343,98
1670829451.07989621,126418555,0,22.363752365112305,24.281248092651367,19.186349868774414,121.29676818847656,2.7709755897521973,0.0,0.09994059056043625,98
1670829451.18003130,126518690,0,22.323890686035156,24.241676330566406,19.20479965209961,121.83126831054688,2.782907724380493,0.0,0.09985967725515366,98
1670829451.27979231,126618451,0,22.289424896240234,24.231088638305664,19.4616641998291,122.37061309814453,2.7949295043945312,0.0,0.09976860880851746,98
1670829451.37996316,126718622,0,22.271331787109375,24.21541404724121,19.48590850830078,122.91285705566406,2.8070061206817627,0.0,0.09976860880851746,98
1670829451.47984719,126818506,0,22.32647705078125,24.263288497924805,19.407344818115234,123.45133209228516,2.819028377532959,0.0,0.09979787468910217,98
1670829451.57998419,126918643,0,22.296703338623047,24.228595733642578,19.370824813842773,123.99022674560547,2.8310439586639404,0.0,0.09973203390836716,98
1670829451.67998815,127018647,0,22.348878860473633,24.295269012451172,19.49296760559082,124.53150177001953,2.8431408405303955,0.0,0.09985092282295227,98
1670829451.78004122,127118700,0,22.247203826904297,24.195648193359375,19.513526916503906,125.07413482666016,2.855212926864624,0.0,0.09985092282295227,98
1670829451.87987018,127218529,0,22.22673797607422,24.200162887573242,19.736705780029297,125.6214828491211,2.8673787117004395,0.0,0.09998756647109985,98
1670829451.98006010,127318719,0,22.385164260864258,24.524097442626953,21.391996383666992,126.21688079833984,2.880706787109375,0.0,0.09998756647109985,98
1670829452.07986617,127418525,0,22.445478439331055,24.602209091186523,21.569992065429688,126.8149185180664,2.894129991531372,0.0,0.09998756647109985,98
1670829452.18005013,127518709,0,22.533845901489258,24.684715270996094,21.511375427246094,127.41361999511719,2.907621145248413,0.0,0.09998756647109985,98
1670829452.27979231,127618451,0,22.612348556518555,24.69911766052246,20.870285034179688,127.99189758300781,2.9206974506378174,0.0,0.09998756647109985,98
1670829452.37993622,127718595,0,22.588510513305664,24.644378662109375,20.561246871948242,128.5639190673828,2.9336183071136475,0.0,0.09998756647109985,98
1670829452.47981715,127818476,0,22.57606315612793,24.612152099609375,20.295480728149414,129.12705993652344,2.946331739425659,0.0,0.10032228380441666,98
1670829452.58001614,127918675,0,22.54973602294922,24.662824630737305,21.06300926208496,129.7133331298828,2.959552049636841,0.0,0.10032228380441666,98
1670829452.67988229,128018541,0,22.409385681152344,24.550094604492188,21.34780502319336,130.30560302734375,2.9728245735168457,0.0,0.10027769953012466,98
1670829452.77993512,128118594,0,22.28024673461914,24.392560958862305,20.978580474853516,130.88868713378906,2.98581600189209,0.0,0.1006891131401062,98
1670829452.87986016,128218519,0,22.1518497467041,24.222360610961914,20.563396453857422,131.45950317382812,2.9984607696533203,0.0,0.1006891131401062,98
1670829452.97996712,128318626,0,22.07324981689453,24.202817916870117,20.990585327148438,132.04324340820312,3.011345863342285,0.0,0.10145347565412521,98
1670829453.07987523,128418534,0,22.158742904663086,24.2965030670166,20.98720932006836,132.625732421875,3.0242531299591064,0.0,0.1018601506948471,98
1670829453.18002224,128518681,0,22.228727340698242,24.341510772705078,20.74200439453125,133.20278930664062,3.0370805263519287,0.0,0.1018601506948471,98
1670829453.27986813,128618527,0,22.230449676513672,24.287185668945312,20.191753387451172,133.76284790039062,3.0495309829711914,0.0,0.1018601506948471,98
1670829453.37998819,128718647,0,22.323604583740234,24.35529899597168,19.962507247924805,134.3180694580078,3.0619256496429443,0.0,0.10177551954984665,98
1670829453.47990608,128818565,0,22.32513427734375,24.35293960571289,19.938570022583008,134.8715057373047,3.0742812156677246,0.0,0.10170268267393112,98
1670829453.58002329,128918682,0,22.35672950744629,24.366283416748047,19.763643264770508,135.4211883544922,3.0865702629089355,0.0,0.10167934745550156,98
1670829453.67985010,129018509,0,22.314315795898438,24.366674423217773,20.18807029724121,135.98104858398438,3.099062919616699,0.0,0.10166193544864655,98
1670829453.78014326,129118802,0,22.28923225402832,24.36390495300293,20.402891159057617,136.54949951171875,3.1117331981658936,0.0,0.10168520361185074,98
1670829453.87979507,129218454,0,22.276596069335938,24.29547119140625,19.854175567626953,137.09913635253906,3.1239771842956543,0.0,0.10168520361185074,98
1670829453.97996831,129318627,0,22.27267074584961,24.272323608398438,19.665132522583008,137.64637756347656,3.1361656188964844,0.0,0.10168520361185074,98
1670829454.07978415,129418443,0,22.304935455322266,24.319305419921875,19.82225799560547,138.19590759277344,3.1484227180480957,0.0,0.10162162035703659,98
1670829454.18003011,129518689,0,22.365154266357422,24.372358322143555,19.735103607177734,138.74562072753906,3.160717010498047,0.0,0.10170730948448181,98
1670829454.27983117,129618490,0,22.313264846801758,24.27657699584961,19.33737564086914,139.2816925048828,3.1726784706115723,0.0,0.10152941197156906,98
1670829454.37997913,129718638,0,22.255672454833984,24.260290145874023,19.74420738220215,139.8310546875,3.1849048137664795,0.0,0.10152941197156906,98
1670829454.47990823,129818567,0,22.282245635986328,24.341941833496094,20.299470901489258,140.3945770263672,3.1974613666534424,0.0,0.10146547853946686,98
1670829454.57998013,129918639,0,22.245288848876953,24.281293869018555,20.042911529541016,140.9517822265625,3.2098565101623535,0.0,0.10158226639032364,98
1670829454.67994523,130018604,0,22.29804039001465,24.342182159423828,20.123010635375977,141.51060485839844,3.2223169803619385,0.0,0.10158226639032364,98
1670829454.77999020,130118649,0,22.27190589904785,24.333730697631836,20.304075241088867,142.0749053955078,3.2348849773406982,0.0,0.10154730081558228,98
1670829454.87990427,130218563,0,22.262042999267578,24.316774368286133,20.230728149414062,142.63644409179688,3.2473857402801514,0.0,0.1015649139881134,98
1670829454.97999811,130318657,0,22.319007873535156,24.360036849975586,20.076669692993164,143.19468688964844,3.25984525680542,0.0,0.10166175663471222,98
1670829455.07989812,130418557,0,22.32398796081543,24.37353515625,20.160449981689453,143.7541961669922,3.2723355293273926,0.0,0.10166175663471222,98
1670829455.18000412,130518663,0,22.282798767089844,24.350879669189453,20.350482940673828,144.32012939453125,3.2849462032318115,0.0,0.10162317752838135,98
1670829455.27984023,130618499,0,22.27448844909668,24.356063842773438,20.493118286132812,144.88844299316406,3.297605037689209,0.0,0.1015743613243103,98
1670829455.38001823,130718677,0,22.196941375732422,24.268367767333984,20.351642608642578,145.4548797607422,3.31017804145813,0.0,0.10178180783987045,98
1670829455.47977924,130818438,0,22.23916244506836,24.31485939025879,20.38355827331543,146.019775390625,3.3227410316467285,0.0,0.10183188319206238,98
1670829455.57998729,130918646,0,22.26769256591797,24.321138381958008,20.16505241394043,146.5811309814453,3.3352410793304443,0.0,0.10183188319206238,98
1670829455.67981219,131018471,0,22.299955368041992,24.35540008544922,20.17119026184082,147.1405029296875,3.347715139389038,0.0,0.10190000385046005,98
1670829455.78006029,131118719,0,22.21867561340332,24.271244049072266,20.142959594726562,147.7014617919922,3.3601789474487305,0.0,0.10190000385046005,98
1670829455.87990212,131218561,0,22.2383975982666,24.249216079711914,19.733261108398438,148.248779296875,3.3723504543304443,0.0,0.10190000385046005,98
1670829455.97997117,131318630,0,22.329538345336914,24.302778244018555,19.368677139282227,148.78721618652344,3.384373426437378,0.0,0.101877860724926,98
1670829456.07985830,131418517,0,22.372577667236328,24.36792755126953,19.557003021240234,149.32986450195312,3.3965139389038086,0.0,0.10202739387750626,98
1670829456.18004513,131518704,0,22.323509216308594,24.28110694885254,19.20663833618164,149.8644561767578,3.4084479808807373,0.0,0.10192292928695679,98
1670829456.27990627,131618565,0,22.37166404724121,24.264102935791016,18.59040641784668,150.3801727294922,3.41998553276062,0.0,0.10179649293422699,98
1670829456.38002014,131718679,0,22.384492874145508,24.28647804260254,18.691986083984375,150.9000244140625,3.431622266769409,0.0,0.10175401717424393,98
1670829456.47994924,131818608,0,22.439254760742188,24.308794021606445,18.368833541870117,151.40994262695312,3.4430646896362305,0.0,0.10177776217460632,98
1670829456.57999825,131918657,0,22.391862869262695,24.318742752075195,18.923994064331055,151.9359130859375,3.4548420906066895,0.0,0.10182207077741623,98
1670829456.67984509,132018504,0,22.425371170043945,24.32820701599121,18.67694854736328,152.45396423339844,3.4664595127105713,0.0,0.10188151150941849,98
1670829456.77999210,132118651,0,22.446147918701172,24.344676971435547,18.61833381652832,152.97193908691406,3.478086233139038,0.0,0.10197092592716217,98
1670829456.87981820,132218477,0,22.377046585083008,24.309188842773438,18.951751708984375,153.49749755859375,3.489846706390381,0.0,0.10195059329271317,98
1670829456.97994018,132318599,0,22.34284782409668,24.287891387939453,19.063629150390625,154.02774047851562,3.5016937255859375,0.0,0.10202905535697937,98
1670829457.07977128,132418430,0,22.34122085571289,24.34800148010254,19.68845558166504,154.57376098632812,3.513892412185669,0.0,0.1019267588853836,98
1670829457.18006825,132518727,0,22.43858528137207,24.34918975830078,18.729427337646484,155.09561157226562,3.525601863861084,0.0,0.1020108088850975,98
1670829457.27983022,132618489,0,22.435426712036133,24.332509994506836,18.592554092407227,155.6108856201172,3.5371623039245605,0.0,0.1020345613360405,98
1670829457.38005924,132718718,0,22.368886947631836,24.354820251464844,19.479463577270508,156.15325927734375,3.5492947101593018,0.0,0.10195013880729675,98
1670829457.47979212,132818451,0,22.332984924316406,24.345333099365234,19.747684478759766,156.70037841796875,3.561513662338257,0.0,0.10190296918153763,98
1670829457.57996130,132918620,0,22.326953887939453,24.333816528320312,19.695512771606445,157.24844360351562,3.5737504959106445,0.0,0.10189436376094818,98
1670829457.67988229,133018541,0,22.382675170898438,24.367523193359375,19.479463577270508,157.78915405273438,3.585853099822998,0.0,0.10189436376094818,98
1670829457.77999711,133118656,0,22.361623764038086,24.36497688293457,19.676349639892578,158.33639526367188,3.598090171813965,0.0,0.10181526094675064,98
1670829457.87984014,133218499,0,22.30455207824707,24.304706573486328,19.62523651123047,158.88067626953125,3.610229969024658,0.0,0.10191749781370163,98
1670829457.98013115,133318790,0,22.31862449645996,24.363182067871094,20.0760555267334,159.4400634765625,3.6227147579193115,0.0,0.10184064507484436,98
1670829458.07993722,133418596,0,22.372047424316406,24.334768295288086,19.274770736694336,159.97447204589844,3.6346707344055176,0.0,0.10182851552963257,98
1670829458.18002009,133518679,0,22.328487396240234,24.31664276123047,19.512609481811523,160.51698303222656,3.6467840671539307,0.0,0.10189082473516464,98
1670829458.27993917,133618598,0,22.38526153564453,24.444555282592773,20.21078109741211,161.07797241210938,3.659342050552368,0.0,0.10189082473516464,98
1670829458.38000011,133718659,0,22.27937126159668,24.320709228515625,20.015905380249023,161.6343536376953,3.6717379093170166,0.0,0.10198578983545303,98
1670829458.47984314,133818502,0,22.27812957763672,24.334861755371094,20.158302307128906,162.19342041015625,3.684192657470703,0.0,0.1020289957523346,98
1670829458.57992411,133918583,0,22.36502456665039,24.36903953552246,19.63134002685547,162.73927307128906,3.6964006423950195,0.0,0.10208245366811752,98
1670829458.67983627,134018495,0,22.34275245666504,24.38433265686035,19.99933433532715,163.29428100585938,3.70880126953125,0.0,0.10208245366811752,98
1670829458.77998018,134118639,0,22.298328399658203,24.324323654174805,19.828088760375977,163.84597778320312,3.7211029529571533,0.0,0.10217802971601486,98
1670829458.87980509,134218464,0,22.20747184753418,24.274417877197266,20.184080123901367,164.4057159423828,3.7335333824157715,0.0,0.10240472108125687,98
1670829458.98007131,134318730,0,22.21235466003418,24.3438777923584,20.814430236816406,164.9854736328125,3.7464113235473633,0.0,0.10240602493286133,98
1670829459.07979727,134418456,0,22.237152099609375,24.335262298583984,20.482990264892578,165.5529327392578,3.7590298652648926,0.0,0.10243178904056549,98
1670829459.18007922,134518738,0,22.276403427124023,24.376550674438477,20.52196502685547,166.12464904785156,3.7717654705047607,0.0,0.10233651846647263,98
1670829459.27992821,134618587,0,22.10809898376465,24.24025535583496,20.772693634033203,166.70083618164062,3.784503936767578,0.0,0.10264222323894501,98
1670829459.37996912,134718628,0,22.097469329833984,24.281246185302734,21.244075775146484,167.29124450683594,3.7975504398345947,0.0,0.10279466211795807,98
1670829459.47985029,134818509,0,22.1898250579834,24.356353759765625,21.09281349182129,167.87649536132812,3.810537099838257,0.0,0.10271404683589935,98
1670829459.57999611,134918655,0,22.14342498779297,24.31742286682129,21.157224655151367,168.46510314941406,3.823570966720581,0.0,0.1027543768286705,97
1670829459.67989421,135018553,0,22.18679428100586,24.325183868408203,20.807985305786133,169.04257202148438,3.836383104324341,0.0,0.10276772826910019,97
1670829459.78000212,135118661,0,22.192155838012695,24.30805778503418,20.589174270629883,169.6151580810547,3.8490898609161377,0.0,0.10276772826910019,97
1670829459.87990618,135218565,0,22.163339614868164,24.310434341430664,20.883787155151367,170.1947479248047,3.861935615539551,0.0,0.10281157493591309,97
1670829459.98003125,135318690,0,22.115182876586914,24.219146728515625,20.464269638061523,170.7639617919922,3.874523878097534,0.0,0.10281157493591309,97
1670829460.07990217,135418561,0,22.21800422668457,24.35030174255371,20.739856719970703,171.33937072753906,3.887308359146118,0.0,0.10281157493591309,97
1670829460.17997909,135518638,0,22.217430114746094,24.325443267822266,20.49772071838379,171.9092254638672,3.8999691009521484,0.0,0.10284136235713959,97
1670829460.27983308,135618492,0,22.235034942626953,24.330286026000977,20.36650848388672,172.47418212890625,3.9125311374664307,0.0,0.10287726670503616,97
1670829460.37995815,135718617,0,22.161806106567383,24.221145629882812,20.017440795898438,173.0309600830078,3.924870491027832,0.0,0.10287726670503616,97
1670829460.47986817,135818527,0,22.232080459594727,24.289703369140625,20.007312774658203,173.5862274169922,3.9372153282165527,0.0,0.10284356027841568,97
1670829460.57995224,135918611,0,22.25974464416504,24.350706100463867,20.30591583251953,174.1508331298828,3.9497830867767334,0.0,0.10297305881977081,97
1670829460.67984629,136018505,0,22.282821655273438,24.310771942138672,19.693979263305664,174.69735717773438,3.961961030960083,0.0,0.10297314822673798,97
1670829460.78004408,136118703,0,22.210248947143555,24.24208641052246,19.731725692749023,175.24659729003906,3.9741597175598145,0.0,0.10297314822673798,97
1670829460.87988615,136218545,0,22.2596492767334,24.293701171875,19.755971908569336,175.7945556640625,3.9863569736480713,0.0,0.1029587909579277,97
1670829460.98003316,136318692,0,22.264150619506836,24.257474899291992,19.38003158569336,176.33372497558594,3.998361110687256,0.0,0.10285452008247375,97
1670829461.07986522,136418524,0,22.357112884521484,24.302549362182617,18.908342361450195,176.85812377929688,4.010085105895996,0.0,0.10288776457309723,97
1670829461.18002725,136518686,0,22.345348358154297,24.281429290771484,18.82251739501953,177.38186645507812,4.021788120269775,0.0,0.10285980254411697,97
1670829461.27989626,136618555,0,22.467018127441406,24.346088409423828,18.24270248413086,177.8879852294922,4.033158779144287,0.0,0.10300397127866745,97
1670829461.37997913,136718638,0,22.393205642700195,24.266881942749023,18.2061824798584,178.39418029785156,4.044494152069092,0.0,0.10291428118944168,97
1670829461.47984529,136818504,0,22.414173126220703,24.312950134277344,18.441566467285156,178.90574645996094,4.055960655212402,0.0,0.10296175628900528,97
1670829461.58000016,136918659,0,22.407854080200195,24.282804489135742,18.21723175048828,179.41265869140625,4.067319393157959,0.0,0.10292183607816696,97
1670829461.67980719,137018466,0,22.43389320373535,24.35780906677246,18.663753509521484,179.93014526367188,4.078928470611572,0.0,0.10308296978473663,97
1670829461.77998018,137118639,0,22.452850341796875,24.275634765625,17.697053909301758,180.42257690429688,4.089984893798828,0.0,0.10299934446811676,97
1670829461.87985110,137218510,0,22.497560501098633,24.269790649414062,17.2198429107666,180.90036010742188,4.100733757019043,0.0,0.10291788727045059,97
1670829461.97990918,137318568,0,22.48923110961914,24.29120635986328,17.51046371459961,181.3870849609375,4.111679553985596,0.0,0.10290852189064026,97
1670829462.07977915,137418438,0,22.403640747070312,24.290237426757812,18.330814361572266,181.89566040039062,4.123073577880859,0.0,0.10291945934295654,97
1670829462.18016315,137518822,0,22.43102264404297,24.262527465820312,17.809375762939453,182.39230346679688,4.134213924407959,0.0,0.1028394028544426,97
1670829462.27985024,137618509,0,22.46156120300293,24.249197006225586,17.399372100830078,182.8741455078125,4.145036697387695,0.0,0.10274139791727066,97
1670829462.38002324,137718682,0,22.44451904296875,24.26656723022461,17.740018844604492,183.36781311035156,4.156116962432861,0.0,0.1027083769440651,97
1670829462.47982526,137818484,0,22.53652572631836,24.36100196838379,17.72620964050293,183.85926818847656,4.1671929359436035,0.0,0.1029253751039505,97
1670829462.58002019,137918679,0,22.514602661132812,24.35565185546875,17.859704971313477,184.3563690185547,4.178385257720947,0.0,0.10308398306369781,97
1670829462.67986417,138018523,0,22.58075523376465,24.414886474609375,17.74462127685547,184.8485565185547,4.1894989013671875,0.0,0.10336264222860336,97
1670829462.78009820,138118757,0,22.577022552490234,24.438148498535156,18.005783081054688,185.3499298095703,4.200818061828613,0.0,0.10336264222860336,97
1670829462.87981629,138218475,0,22.486188888549805,24.298152923583984,17.53017234802246,185.83554077148438,4.211737632751465,0.0,0.10336264222860336,97
1670829462.97999930,138318658,0,22.520824432373047,24.32973289489746,17.5046329498291,186.3227081298828,4.2227091789245605,0.0,0.10333888977766037,97
1670829463.07985711,138418516,0,22.37750244140625,24.271421432495117,18.294260025024414,186.83018493652344,4.234065055847168,0.0,0.10352526605129242,97
1670829463.18004513,138518704,0,22.471805572509766,24.397933959960938,18.640735626220703,187.34901428222656,4.245724201202393,0.0,0.10332903265953064,97
1670829463.27980208,138618461,0,22.478796005249023,24.30206298828125,17.66084098815918,187.83843994140625,4.256725788116455,0.0,0.1032378077507019,97
1670829463.37994409,138718603,0,22.48932647705078,24.327518463134766,17.806612014770508,188.3338165283203,4.267866134643555,0.0,0.10323090106248856,97
1670829463.47986722,138818526,0,22.35749626159668,24.30609130859375,18.86384391784668,188.85745239257812,4.279573440551758,0.0,0.1032978966832161,97
1670829463.57991910,138918578,0,22.408714294433594,24.381046295166016,19.122243881225586,189.38894653320312,4.291483402252197,0.0,0.10314330458641052,97
1670829463.67991519,139018574,0,22.430339813232422,24.382911682128906,18.956525802612305,189.91551208496094,4.303294658660889,0.0,0.10300260782241821,97
1670829463.77998114,139118640,0,22.314220428466797,24.270694732666016,18.95836639404297,190.4425506591797,4.315054893493652,0.0,0.10319848358631134,97
1670829463.88014221,139218801,0,22.361228942871094,24.281553268432617,18.582735061645508,190.95956420898438,4.326615810394287,0.0,0.10333920270204544,97
1670829463.97999930,139318658,0,22.396268844604492,24.35024642944336,18.921541213989258,191.4844970703125,4.338372230529785,0.0,0.1032673642039299,97
1670829464.07990026,139418559,0,22.380474090576172,24.336772918701172,18.948545455932617,192.0103759765625,4.350141525268555,0.0,0.1032426729798317,97
1670829464.18001127,139518670,0,22.45227813720703,24.42587661743164,19.116107940673828,192.54200744628906,4.362077713012695,0.0,0.1032426729798317,97
1670829464.28001809,139618677,0,22.382675170898438,24.35639762878418,19.123165130615234,193.0732879638672,4.373969078063965,0.0,0.10321103036403656,97
1670829464.38001108,139718670,0,22.364866256713867,24.35834312438965,19.320802688598633,193.6099853515625,4.385972499847412,0.0,0.10317770391702652,97
1670829464.47982430,139818483,0,22.336814880371094,24.379283905029297,19.812744140625,194.15928649902344,4.398242473602295,0.0,0.10308869183063507,97
1670829464.58006120,139918720,0,22.194612503051758,24.331710815429688,20.719091415405273,194.73629760742188,4.411048889160156,0.0,0.10314633697271347,97
1670829464.67986917,140018528,0,22.312498092651367,24.478757858276367,21.077434539794922,195.32069396972656,4.424088478088379,0.0,0.10277621448040009,97
1670829464.77995229,140118611,0,22.182296752929688,24.35820960998535,21.1673526763916,195.90921020507812,4.437143325805664,0.0,0.10279572755098343,97
1670829464.87977719,140218436,0,21.98890495300293,24.340396881103516,22.860151290893555,196.54315185546875,4.451083183288574,0.0,0.10286422818899155,97
1670829464.97996712,140318626,0,21.977033615112305,24.37590980529785,23.330305099487305,197.1925048828125,4.465353965759277,0.0,0.10282236337661743,97
1670829465.07989120,140418550,0,21.990243911743164,24.338333129882812,22.82056427001953,197.8259735107422,4.479284286499023,0.0,0.10289356857538223,97
1670829465.18001628,140518675,0,22.007381439208984,24.380046844482422,23.07221221923828,198.4677276611328,4.493407249450684,0.0,0.10283645242452621,97
1670829465.27986526,140618524,0,22.04481315612793,24.438796997070312,23.329383850097656,199.11483764648438,4.5076727867126465,0.0,0.10261669009923935,97
1670829465.37992811,140718587,0,21.994413375854492,24.33437156677246,22.77933692932129,199.748046875,4.521599769592285,0.0,0.10272283107042313,97
1670829465.47992611,140818585,0,22.10943603515625,24.440473556518555,22.73923683166504,200.37973022460938,4.5355658531188965,0.0,0.10251171886920929,97
1670829465.58030224,140918961,0,22.103023529052734,24.424949645996094,22.681848526000977,201.0120849609375,4.5495429039001465,0.0,0.10236935317516327,97
1670829465.67990613,141018565,0,22.19330406188965,24.569517135620117,23.212154388427734,201.65447998046875,4.563799858093262,0.0,0.10236935317516327,97
1670829465.78001213,141118671,0,22.251323699951172,24.624866485595703,23.186067581176758,202.2992706298828,4.5781474113464355,0.0,0.10236935317516327,97
