timestamp,TimeUS,Instance,Volt,VoltR,Curr,CurrTot,EnrgTot,Temp,Res,RemPct
1670831750.07948709,95525026,0,24.82210922241211,24.91938018798828,0.6342369914054871,16.500263214111328,0.40930455923080444,0.0,0.15336544811725616,99
1670831750.17951012,95625049,0,24.800153732299805,24.88873291015625,0.5775648355484009,16.516311645507812,0.4097025692462921,0.0,0.15336544811725616,99
1670831750.27952194,95725061,0,24.792112350463867,24.87932586669922,0.568665087223053,16.5321102142334,0.4100942611694336,0.0,0.15336544811725616,99
1670831750.37949610,95825035,0,24.778804779052734,24.86112403869629,0.5367486476898193,16.54701805114746,0.4104636609554291,0.0,0.15336544811725616,99
1670831750.47951388,95925053,0,24.800920486450195,24.89019012451172,0.5820659399032593,16.563190460205078,0.4108647406101227,0.0,0.15336544811725616,99
1670831750.57948995,96025029,0,24.82906723022461,24.929458618164062,0.6545940041542053,16.581369400024414,0.4113161265850067,0.0,0.15336544811725616,99
1670831750.67950010,96125039,0,24.775070190429688,24.855552673339844,0.5247799754142761,16.595949172973633,0.41167736053466797,0.0,0.15336544811725616,99
1670831750.77950501,96225044,0,24.768463134765625,24.849040985107422,0.5253937244415283,16.610546112060547,0.4120388925075531,0.0,0.15336544811725616,99
1670831750.87944007,96324979,0,24.82207679748535,24.920209884643555,0.6398633122444153,16.62830924987793,0.41247981786727905,0.0,0.15336544811725616,99
1670831750.97950697,96425046,0,24.80695152282715,24.900001525878906,0.6067192554473877,16.64517593383789,0.4128982126712799,0.0,0.15336544811725616,99
1670831751.07944703,96524986,0,24.817100524902344,24.912363052368164,0.6211430430412292,16.66242027282715,0.4133261740207672,0.0,0.15336544811725616,99
1670831751.17946005,96624999,0,24.813554763793945,24.909099578857422,0.6229843497276306,16.679729461669922,0.4137556552886963,0.0,0.15336544811725616,99
1670831751.27949691,96725036,0,24.775930404663086,24.858108520507812,0.5358279347419739,16.69462013244629,0.41412457823753357,0.0,0.15336544811725616,99
1670831751.37948203,96825021,0,24.793581008911133,24.88185691833496,0.5755871534347534,16.710607528686523,0.4145209789276123,0.0,0.15336544811725616,99
1670831751.47954607,96925085,0,24.813270568847656,24.907732009887695,0.6159259676933289,16.727712631225586,0.4149453938007355,0.0,0.15336544811725616,99
1670831751.57943797,97024977,0,24.8276309967041,24.928022384643555,0.6545940041542053,16.745895385742188,0.4153968393802643,0.0,0.15336544811725616,99
1670831751.67946196,97125001,0,24.785409927368164,24.870834350585938,0.5570033192634583,16.761371612548828,0.4157804548740387,0.0,0.15336544811725616,99
1670831751.77950406,97225043,0,24.778324127197266,24.86139678955078,0.541658878326416,16.776426315307617,0.4161534607410431,0.0,0.15336544811725616,99
1670831751.87951708,97325056,0,24.79996109008789,24.890892028808594,0.5929092764854431,16.79290008544922,0.4165619909763336,0.0,0.15336544811725616,99
1670831751.97962308,97425162,0,24.824565887451172,24.92298126220703,0.6417046785354614,16.810745239257812,0.4170050024986267,0.0,0.15336544811725616,99
1670831752.07951307,97525052,0,24.820066452026367,24.917116165161133,0.632804811000824,16.828304290771484,0.41744083166122437,0.0,0.15336544811725616,99
1670831752.17946911,97625008,0,24.829004287719727,24.927738189697266,0.6437846422195435,16.846179962158203,0.4178846776485443,0.0,0.15336544811725616,99
1670831752.27949500,97725034,0,24.703170776367188,24.910322189331055,1.3533798456192017,16.883787155151367,0.41881367564201355,0.0,0.15306206047534943,99
1670831752.37950611,97825045,0,24.338218688964844,24.988513946533203,4.309640407562256,17.003522872924805,0.4217278063297272,0.0,0.15089304745197296,99
1670831752.47945094,97924990,0,24.567317962646484,24.974082946777344,2.7211837768554688,17.07907485961914,0.4235839247703552,0.0,0.14948122203350067,99
1670831752.57944798,98024987,0,24.656452178955078,24.957305908203125,2.023318290710449,17.135276794433594,0.4249696433544159,0.0,0.14869312942028046,99
1670831752.67945600,98124995,0,24.635866165161133,24.947858810424805,2.1046438217163086,17.19374656677246,0.42641007900238037,0.0,0.1482405662536621,99
1670831752.77952600,98225065,0,24.593647003173828,24.87818145751953,1.902711033821106,17.246646881103516,0.4277110993862152,0.0,0.14954178035259247,99
1670831752.87945795,98324997,0,24.632707595825195,24.916866302490234,1.8978009223937988,17.299331665039062,0.4290088415145874,0.0,0.14973025023937225,99
1670831752.97957110,98425110,0,24.657503128051758,24.942224502563477,1.9073143005371094,17.352378845214844,0.43031683564186096,0.0,0.14927862584590912,99
1670831753.07944489,98524984,0,24.675395965576172,24.959379196166992,1.9023700952529907,17.40515899658203,0.43161922693252563,0.0,0.14927862584590912,99
1670831753.17947197,98625011,0,24.64362144470215,24.916723251342773,1.8250681161880493,17.455873489379883,0.432869017124176,0.0,0.14963877201080322,99
1670831753.27949309,98725032,0,24.617292404174805,24.879188537597656,1.7501872777938843,17.50450325012207,0.43406614661216736,0.0,0.14963877201080322,99
1670831753.37950993,98825049,0,24.637304306030273,24.907909393310547,1.804506540298462,17.554637908935547,0.4353013336658478,0.0,0.14996123313903809,99
1670831753.47950602,98925045,0,24.66592788696289,24.94675064086914,1.8726359605789185,17.606660842895508,0.4365845322608948,0.0,0.14996123313903809,99
1670831753.57950997,99025049,0,24.670907974243164,24.953433990478516,1.88399076461792,17.659000396728516,0.43787577748298645,0.0,0.14996123313903809,99
1670831753.67953205,99125071,0,24.67157745361328,24.95525360107422,1.8916629552841187,17.71156120300293,0.43917253613471985,0.0,0.14996123313903809,99
1670831753.77951407,99225053,0,24.61777114868164,24.883268356323242,1.7704418897628784,17.7607364654541,0.44038310647010803,0.0,0.14996123313903809,99
1670831753.87951207,99325051,0,24.621889114379883,24.88799476623535,1.7744996547698975,17.81003189086914,0.4415968358516693,0.0,0.14996123313903809,99
1670831753.97960997,99425149,0,24.659034729003906,24.939258575439453,1.8686463832855225,17.86199378967285,0.4428781569004059,0.0,0.14996123313903809,99
1670831754.07944393,99524983,0,24.670141220092773,24.95358657836914,1.8901286125183105,17.914413452148438,0.44417136907577515,0.0,0.14996123313903809,99
1670831754.17946005,99624999,0,24.655492782592773,24.93341636657715,1.8533018827438354,17.965900421142578,0.44544079899787903,0.0,0.14996123313903809,99
1670831754.27943206,99724971,0,24.61748504638672,24.88385772705078,1.7762726545333862,18.01523780822754,0.44665536284446716,0.0,0.14996123313903809,99
1670831754.37948895,99825028,0,24.637592315673828,24.91082191467285,1.821999192237854,18.065881729125977,0.4479030966758728,0.0,0.14996123313903809,99
1670831754.47949505,99925034,0,24.658458709716797,24.939050674438477,1.8711014986038208,18.117835998535156,0.44918420910835266,0.0,0.14996123313903809,99
1670831754.57956100,100025100,0,24.653291702270508,24.931766510009766,1.8569843769073486,18.169485092163086,0.45045751333236694,0.0,0.14996123313903809,99
1670831754.67953610,100125075,0,24.632131576538086,24.90213966369629,1.800516963005066,18.219457626342773,0.4516884386539459,0.0,0.14996123313903809,99
1670831754.77947807,100225017,0,24.625612258911133,24.89386558532715,1.7888212203979492,18.269155502319336,0.45291227102279663,0.0,0.14996123313903809,99
1670831754.87947202,100325011,0,24.638931274414062,24.91342544555664,1.8296713829040527,18.31998062133789,0.4541645646095276,0.0,0.15002381801605225,99
1670831754.97949409,100425033,0,24.663055419921875,24.94441032409668,1.875397801399231,18.37209129333496,0.45544975996017456,0.0,0.15002381801605225,99
1670831755.07949901,100525038,0,24.66420555114746,24.94657325744629,1.882149338722229,18.424379348754883,0.4567394256591797,0.0,0.15002381801605225,99
1670831755.17952609,100625065,0,24.661237716674805,24.943466186523438,1.8812288045883179,18.476654052734375,0.4580285847187042,0.0,0.15002381801605225,99
1670831755.27953601,100725075,0,24.61260414123535,24.877153396606445,1.763383388519287,18.525646209716797,0.4592343866825104,0.0,0.15002381801605225,99
1670831755.37952805,100825067,0,24.59929656982422,24.86020851135254,1.739139199256897,18.573955535888672,0.4604227542877197,0.0,0.15002381801605225,99
1670831755.47955203,100925091,0,24.64850425720215,24.92599105834961,1.8496192693710327,18.625350952148438,0.4616895616054535,0.0,0.15002381801605225,99
1670831755.57949710,101025036,0,24.658695220947266,24.93979835510254,1.8737269639968872,18.6773738861084,0.46297240257263184,0.0,0.15002381801605225,99
1670831755.67951703,101125056,0,24.65166473388672,24.929336547851562,1.8508466482162476,18.728797912597656,0.46424010396003723,0.0,0.15002381801605225,99
1670831755.77951002,101225049,0,24.61049461364746,24.875734329223633,1.7679866552352905,18.777910232543945,0.465448796749115,0.0,0.15002381801605225,99
1670831755.87951493,101325054,0,24.602357864379883,24.933067321777344,2.212054967880249,18.839365005493164,0.46696069836616516,0.0,0.1495029479265213,99
1670831755.97969604,101425235,0,24.224960327148438,25.018770217895508,5.387126922607422,18.989290237426758,0.4705926179885864,0.0,0.14735299348831177,99
1670831756.07950401,101525043,0,22.797603607177734,25.01580047607422,17.860931396484375,19.484514236450195,0.4818825423717499,0.0,0.12419271469116211,99
1670831756.17955995,101625099,0,22.2663516998291,24.924837112426758,21.432504653930664,20.080236434936523,0.49514710903167725,0.0,0.1240399107336998,99
1670831756.27959394,101725133,0,21.66100311279297,25.007352828979492,29.564754486083984,20.901832580566406,0.512943685054779,0.0,0.11318713426589966,99
1670831756.37958694,101825126,0,22.132488250732422,25.00303840637207,26.686372756958008,21.64312744140625,0.5293503999710083,0.0,0.10756613314151764,99
1670831756.47954798,101925087,0,22.454479217529297,24.885408401489258,22.649932861328125,22.272096633911133,0.5434736013412476,0.0,0.10732606798410416,99
1670831756.57955003,102025089,0,22.72062873840332,24.868330001831055,20.03830909729004,22.828771591186523,0.5561215877532959,0.0,0.10717975348234177,99
1670831756.67958498,102125124,0,22.83982276916504,24.924413681030273,19.509845733642578,23.37086296081543,0.5685028433799744,0.0,0.10684815794229507,99
1670831756.77956200,102225101,0,22.513355255126953,24.665699005126953,20.022964477539062,23.92705726623535,0.5810246467590332,0.0,0.10749375075101852,99
1670831756.87954712,102325086,0,22.664813995361328,24.839712142944336,20.244230270385742,24.489351272583008,0.5937689542770386,0.0,0.1074330136179924,99
1670831756.97951007,102425049,0,22.478891372680664,24.68128204345703,20.401052474975586,25.055889129638672,0.6065040826797485,0.0,0.10795478522777557,99
1670831757.07959390,102525133,0,22.43379783630371,24.775293350219727,21.66512680053711,25.658004760742188,0.6200118064880371,0.0,0.10807668417692184,99
1670831757.17957306,102625112,0,22.31939125061035,24.632627487182617,21.279979705810547,26.24928092956543,0.6332087516784668,0.0,0.10870484262704849,99
1670831757.27957892,102725118,0,22.251737594604492,24.60208511352539,21.488698959350586,26.84627342224121,0.6464928388595581,0.0,0.1093759834766388,99
1670831757.37954402,102825083,0,22.324466705322266,24.738718032836914,22.05272674560547,27.458660125732422,0.6601639986038208,0.0,0.10947628319263458,99
1670831757.47954893,102925088,0,22.273054122924805,24.745296478271484,22.56891441345215,28.085681915283203,0.6741296648979187,0.0,0.10954192280769348,99
1670831757.57959795,103025137,0,22.205751419067383,24.73337173461914,23.05287742614746,28.726398468017578,0.6883572340011597,0.0,0.10964448004961014,99
1670831757.67958093,103125120,0,22.202590942382812,24.720853805541992,22.9387149810791,29.363534927368164,0.7025033235549927,0.0,0.10978221148252487,99
1670831757.77955699,103225096,0,22.148883819580078,24.693737030029297,23.13389778137207,30.006040573120117,0.7167341113090515,0.0,0.11000537127256393,99
1670831757.87957311,103325112,0,22.12542724609375,24.703039169311523,23.39628791809082,30.65609359741211,0.7311168313026428,0.0,0.1101718321442604,99
1670831757.97954988,103425089,0,22.131458282470703,24.735580444335938,23.630443572998047,31.312389373779297,0.7456416487693787,0.0,0.11020202189683914,99
1670831758.07955003,103525089,0,22.08855628967285,24.744789123535156,24.10475730895996,31.982027053833008,0.7604329586029053,0.0,0.1101953461766243,99
1670831758.17958212,103625121,0,22.06185531616211,24.73297691345215,24.231637954711914,32.6553955078125,0.7752887606620789,0.0,0.11023284494876862,99
1670831758.27955794,103725097,0,22.02011489868164,24.717388153076172,24.4486083984375,33.334415435791016,0.7902408242225647,0.0,0.1103241965174675,99
1670831758.37955594,103825095,0,21.93337631225586,24.650142669677734,24.55172348022461,34.016448974609375,0.8052000999450684,0.0,0.1106547936797142,99
1670831758.47954392,103925083,0,21.91212272644043,24.687408447265625,25.043973922729492,34.71208572387695,0.8204430341720581,0.0,0.11081653833389282,99
1670831758.57954693,104025086,0,21.899391174316406,24.713804244995117,25.385847091674805,35.417320251464844,0.8358871936798096,0.0,0.11086544394493103,99
1670831758.67953300,104125072,0,21.90015411376953,24.66646957397461,24.902803421020508,36.109031677246094,0.8510357737541199,0.0,0.11108451336622238,99
1670831758.77950406,104225043,0,22.01925277709961,24.624353408813477,23.451526641845703,36.76032638549805,0.8653767704963684,0.0,0.11108451336622238,99
1670831758.87951589,104325055,0,22.114992141723633,24.683544158935547,23.136043548583984,37.40312194824219,0.87959223985672,0.0,0.11101948469877243,99
1670831758.97952104,104425060,0,22.175254821777344,24.764522552490234,23.2799072265625,38.049861907958984,0.893933892250061,0.0,0.11122329533100128,99
1670831759.07965899,104525198,0,22.17884635925293,24.748912811279297,23.084794998168945,38.692047119140625,0.908176839351654,0.0,0.11133157461881638,99
1670831759.17967892,104625218,0,22.19253921508789,24.703754425048828,22.5679931640625,39.31911087036133,0.9220929741859436,0.0,0.11127331107854843,99
1670831759.27957201,104725111,0,22.210058212280273,24.698339462280273,22.374347686767578,39.940006256103516,0.935883104801178,0.0,0.11121130734682083,99
1670831759.37955594,104825095,0,22.12217140197754,24.563182830810547,21.94930648803711,40.549659729003906,0.9493699669837952,0.0,0.11121130734682083,99
1670831759.47957301,104925112,0,22.12217140197754,24.5446834564209,21.78297233581543,41.15468215942383,0.9627543687820435,0.0,0.11121130734682083,99
1670831759.57957101,105025110,0,22.117958068847656,24.53429412841797,21.72742462158203,41.758392333984375,0.9761071801185608,0.0,0.11121130734682083,99
1670831759.67954803,105125087,0,22.099384307861328,24.51268196105957,21.700111389160156,42.36115646362305,0.9894278645515442,0.0,0.11121130734682083,99
1670831759.77956390,105225103,0,22.266544342041016,24.705739974975586,21.88056182861328,42.96909713745117,1.0029646158218384,0.0,0.11147776246070862,99
1670831759.87953997,105325079,0,22.29439353942871,24.7246150970459,21.748191833496094,43.573116302490234,1.0164308547973633,0.0,0.11174362897872925,99
1670831759.97971010,105425249,0,22.294404983520508,24.68829345703125,21.405498504638672,44.16877365112305,1.0297106504440308,0.0,0.11183521896600723,99
1670831760.07954597,105525085,0,22.313552856445312,24.71639060974121,21.45490837097168,44.76382064819336,1.0429881811141968,0.0,0.11199476569890976,99
1670831760.17955709,105625096,0,22.16065788269043,24.55002212524414,21.334606170654297,45.3565559387207,1.0561236143112183,0.0,0.11199476569890976,99
1670831760.27955008,105725089,0,22.164390563964844,24.539216995239258,21.20479393005371,45.94558334350586,1.0691790580749512,0.0,0.11199476569890976,99
1670831760.37951398,105825053,0,22.193016052246094,24.59420394897461,21.440176010131836,46.54098129272461,1.0823928117752075,0.0,0.11199476569890976,99
1670831760.47954893,105925088,0,22.160371780395508,24.584003448486328,21.640575408935547,47.14219665527344,1.0957159996032715,0.0,0.11199476569890976,99
1670831760.57957911,106025118,0,22.280139923095703,24.71360969543457,21.6724910736084,47.744361877441406,1.1091322898864746,0.0,0.11228379607200623,99
1670831760.67964602,106125185,0,22.228153228759766,24.609487533569336,21.22780990600586,48.33470916748047,1.1222546100616455,0.0,0.11217989027500153,99
1670831760.77955604,106225095,0,22.243013381958008,24.638425827026367,21.351282119750977,48.92731475830078,1.135435938835144,0.0,0.11219055205583572,99
1670831760.87959504,106325134,0,22.156063079833984,24.56410026550293,21.46380615234375,49.52381134033203,1.1486519575119019,0.0,0.11219055205583572,99
1670831760.97957492,106425114,0,22.243183135986328,24.692363739013672,21.83053970336914,50.13014221191406,1.1621387004852295,0.0,0.11219055205583572,99
1670831761.07960391,106525143,0,22.3258056640625,24.756118774414062,21.662364959716797,50.731868743896484,1.1755727529525757,0.0,0.11219055205583572,99
1670831761.17955589,106625095,0,22.291723251342773,24.58061408996582,20.444936752319336,51.299774169921875,1.1882323026657104,0.0,0.11195391416549683,99
1670831761.27954793,106725087,0,22.324562072753906,24.508623123168945,19.580738067626953,51.843685150146484,1.2003748416900635,0.0,0.11154132336378098,99
1670831761.37957406,106825113,0,22.392536163330078,24.55480194091797,19.415630340576172,52.383094787597656,1.2124536037445068,0.0,0.11136725544929504,99
1670831761.47957492,106925114,0,22.451988220214844,24.625526428222656,19.501253128051758,52.924888610839844,1.2246179580688477,0.0,0.11145637929439545,99
1670831761.57953000,107025069,0,22.458637237548828,24.60519027709961,19.258298873901367,53.45969772338867,1.2366290092468262,0.0,0.11146120727062225,99
1670831761.67955089,107125090,0,22.5325984954834,24.637575149536133,18.86722183227539,53.98394012451172,1.2484415769577026,0.0,0.11156793683767319,99
1670831761.77956605,107225105,0,22.50473976135254,24.574893951416016,18.57444953918457,54.50001525878906,1.2600557804107666,0.0,0.11145170032978058,99
1670831761.87950993,107325049,0,22.53422737121582,24.611352920532227,18.63275718688965,55.017337799072266,1.2717132568359375,0.0,0.1114770770072937,99
1670831761.97958398,107425123,0,22.520824432373047,24.597097396850586,18.629383087158203,55.53525161743164,1.2833770513534546,0.0,0.11145152896642685,99
1670831762.07955289,107525092,0,22.57510757446289,24.650766372680664,18.59869384765625,56.051761627197266,1.2950373888015747,0.0,0.11160235106945038,99
1670831762.17961407,107625153,0,22.53020477294922,24.564939498901367,18.257434844970703,56.559261322021484,1.3064714670181274,0.0,0.11144694685935974,99
1670831762.27958012,107725119,0,22.570798873901367,24.593305587768555,18.15278434753418,57.06337356567383,1.3178497552871704,0.0,0.11141577363014221,99
1670831762.37956810,107825107,0,22.55362892150879,24.576549530029297,18.169185638427734,57.56804656982422,1.3292319774627686,0.0,0.11133798956871033,99
1670831762.47958589,107925125,0,22.59080696105957,24.589981079101562,17.958829879760742,58.06703186035156,1.34050452709198,0.0,0.1113198846578598,99
1670831762.57957506,108025114,0,22.62421989440918,24.626422882080078,17.969572067260742,58.56617736816406,1.351797342300415,0.0,0.11142189800739288,99
1670831762.67963505,108125174,0,22.6093807220459,24.644962310791016,18.24638557434082,59.07332992553711,1.363263726234436,0.0,0.11156083643436432,99
1670831762.77954793,108225087,0,22.552610397338867,24.557615280151367,17.99964714050293,59.572959899902344,1.3745317459106445,0.0,0.1113913506269455,99
1670831762.87955999,108325099,0,22.57759666442871,24.58314323425293,18.012842178344727,60.07341766357422,1.3858308792114258,0.0,0.11133984476327896,99
1670831762.97953296,108425072,0,22.61254119873047,24.628515243530273,18.089563369750977,60.575809478759766,1.3971912860870361,0.0,0.11144407093524933,99
1670831763.07955503,108525094,0,22.61493492126465,24.628049850463867,18.05089569091797,61.07737350463867,1.4085341691970825,0.0,0.11152436584234238,99
1670831763.17956305,108625102,0,22.55385398864746,24.567310333251953,18.053966522216797,61.57895278930664,1.419846773147583,0.0,0.11152436584234238,99
1670831763.27952600,108725065,0,22.540973663330078,24.55963706970215,18.10064697265625,62.08159637451172,1.4311769008636475,0.0,0.11152436584234238,99
1670831763.37953901,108825078,0,22.55873680114746,24.570688247680664,18.04046058654785,62.58280944824219,1.44248366355896,0.0,0.11152436584234238,99
1670831763.47955394,108925093,0,22.604785919189453,24.6042423248291,17.921388626098633,63.08076095581055,1.4537397623062134,0.0,0.11156811565160751,99
1670831763.57959199,109025131,0,22.668834686279297,24.648386001586914,17.715160369873047,63.5727653503418,1.464892864227295,0.0,0.11174335330724716,99
1670831763.67951703,109125056,0,22.60871124267578,24.552289962768555,17.419626235961914,64.0565414428711,1.4758304357528687,0.0,0.11157410591840744,99
1670831763.77959204,109225131,0,22.651506423950195,24.605310440063477,17.505556106567383,64.54329681396484,1.4868561029434204,0.0,0.11161055415868759,99
1670831763.87957096,109325110,0,22.676111221313477,24.664833068847656,17.78359603881836,65.03722381591797,1.498056411743164,0.0,0.11182905733585358,99
1670831763.97956300,109425102,0,22.673526763916016,24.62958526611328,17.48223114013672,65.52283477783203,1.5090669393539429,0.0,0.1118883490562439,99
1670831764.07957697,109525116,0,22.673940658569336,24.614948272705078,17.347745895385742,66.00482940673828,1.5199955701828003,0.0,0.11188820004463196,99
1670831764.17958808,109625127,0,22.66184425354004,24.621599197387695,17.511999130249023,66.49136352539062,1.531021237373352,0.0,0.11190931499004364,99
1670831764.27953410,109725073,0,22.64059066772461,24.546674728393555,17.06639862060547,66.96521759033203,1.5417495965957642,0.0,0.1116863414645195,99
1670831764.37956095,109825100,0,22.63838768005371,24.55461311340332,17.180253982543945,67.44261169433594,1.552557110786438,0.0,0.11153648048639297,99
1670831764.47958589,109925125,0,22.703012466430664,24.628355026245117,17.243778228759766,67.92176055908203,1.5634351968765259,0.0,0.11165431886911392,99
1670831764.57953310,110025072,0,22.67314338684082,24.609027862548828,17.333391189575195,68.40303039550781,1.5743471384048462,0.0,0.11168523877859116,99
1670831764.67955709,110125096,0,22.705503463745117,24.615636825561523,17.09585952758789,68.87806701660156,1.5851330757141113,0.0,0.11173070967197418,99
1670831764.77956891,110225108,0,22.683673858642578,24.536386489868164,16.614349365234375,69.33966064453125,1.5956038236618042,0.0,0.11151275038719177,99
1670831764.87954402,110325083,0,22.733936309814453,24.591848373413086,16.660076141357422,69.80236053466797,1.6061228513717651,0.0,0.11151884496212006,99
1670831764.97951007,110425049,0,22.777551651000977,24.617332458496094,16.484704971313477,70.2601547241211,1.616550326347351,0.0,0.11160528659820557,99
1670831765.07950997,110525049,0,22.797508239746094,24.626102447509766,16.370372772216797,70.71492004394531,1.6269179582595825,0.0,0.11170149594545364,99
1670831765.17951894,110625058,0,22.758541107177734,24.553878784179688,16.0950927734375,71.16207885742188,1.6370947360992432,0.0,0.11154567450284958,99
1670831765.27958894,110725128,0,22.803823471069336,24.56026840209961,15.760891914367676,71.6002197265625,1.6470861434936523,0.0,0.11144326627254486,99
1670831765.37969804,110825237,0,22.9346981048584,24.581802368164062,14.781302452087402,72.01129150390625,1.6565138101577759,0.0,0.11143163591623306,99
1670831765.47958493,110925124,0,22.826229095458984,24.679473876953125,16.631227493286133,72.47278594970703,1.6670480966567993,0.0,0.11143163591623306,99
1670831765.57960701,111025146,0,22.60871124267578,24.63395881652832,18.194520950317383,72.97834014892578,1.6784780025482178,0.0,0.11131088435649872,99
1670831765.67958307,111125122,0,22.564096450805664,24.669721603393555,18.956832885742188,73.50483703613281,1.6903579235076904,0.0,0.1110747754573822,99
1670831765.77954888,111225088,0,22.491506576538086,24.567203521728516,18.660207748413086,74.02304077148438,1.7020131349563599,0.0,0.11123652011156082,99
1670831765.87954903,111325088,0,22.534801483154297,24.649436950683594,19.036624908447266,74.5518798828125,1.713930368423462,0.0,0.11108250916004181,99
1670831765.97974110,111425280,0,22.513164520263672,24.642980575561523,19.192829132080078,75.0860824584961,1.725956916809082,0.0,0.1109694093465805,99
1670831766.07956100,111525100,0,22.518142700195312,24.678691864013672,19.51015281677246,75.6270980834961,1.7381396293640137,0.0,0.11073971539735794,99
1670831766.17955709,111625096,0,22.47793197631836,24.655302047729492,19.683237075805664,76.17387390136719,1.7504299879074097,0.0,0.11062054336071014,99
1670831766.27957511,111725114,0,22.401437759399414,24.574020385742188,19.606515884399414,76.71864318847656,1.7626336812973022,0.0,0.11080919951200485,99
1670831766.37957096,111825110,0,22.41742706298828,24.603328704833984,19.715768814086914,77.26632690429688,1.7749112844467163,0.0,0.11087074875831604,99
1670831766.47957993,111925119,0,22.40842628479004,24.60753059387207,19.827781677246094,77.81719207763672,1.7872552871704102,0.0,0.11091028153896332,99
1670831766.57957196,112025111,0,22.416471481323242,24.6230525970459,19.89898109436035,78.36993408203125,1.7996459007263184,0.0,0.11088919639587402,99
1670831766.67957211,112125111,0,22.43597984313965,24.723613739013672,20.70170021057129,78.94503021240234,1.8125487565994263,0.0,0.11050461232662201,99
1670831766.77953410,112225073,0,22.486549377441406,24.883098602294922,21.87074089050293,79.55236053466797,1.8262056112289429,0.0,0.10957784950733185,99
1670831766.87958598,112325125,0,22.5437068939209,25.003551483154297,22.72696304321289,80.18387603759766,1.840442419052124,0.0,0.10823462903499603,99
1670831766.97959399,112425133,0,22.62498664855957,25.002077102661133,22.35930824279785,80.80523681640625,1.854500651359558,0.0,0.10631320625543594,99
1670831767.07960200,112525141,0,22.685684204101562,25.001354217529297,21.976003646850586,81.415771484375,1.8683511018753052,0.0,0.10537266731262207,99
1670831767.17960095,112625140,0,22.65188980102539,24.999282836914062,22.277063369750977,82.03462982177734,1.8823693990707397,0.0,0.10537266731262207,99
1670831767.27958703,112725126,0,22.5667781829834,24.907413482666016,22.212923049926758,82.65161895751953,1.896292805671692,0.0,0.10537266731262207,99
1670831767.37958407,112825123,0,22.539684295654297,24.913759231567383,22.614639282226562,83.27983856201172,1.9104526042938232,0.0,0.10497958958148956,99
1670831767.47955608,112925095,0,22.540119171142578,24.93634033203125,22.920848846435547,83.91639709472656,1.9248006343841553,0.0,0.1045433059334755,99
1670831767.57959199,113025131,0,22.51058006286621,24.82211685180664,22.105205535888672,84.53070068359375,1.938628911972046,0.0,0.10456981509923935,98
1670831767.67960310,113125142,0,22.16573143005371,24.513965606689453,22.21169662475586,85.14777374267578,1.9523067474365234,0.0,0.1057206317782402,98
1670831767.77957201,113225111,0,22.075927734375,24.497211456298828,22.6671199798584,85.77731323242188,1.9662044048309326,0.0,0.10681921243667603,98
1670831767.87956810,113325107,0,22.05055809020996,24.482215881347656,22.544055938720703,86.403564453125,1.9800134897232056,0.0,0.10786248743534088,98
1670831767.97956395,113425103,0,22.351463317871094,24.72075843811035,21.965877532958984,87.01374816894531,1.9936519861221313,0.0,0.10786248743534088,98
1670831768.07959795,113525137,0,22.270660400390625,24.509532928466797,20.756736755371094,87.59056854248047,2.006498336791992,0.0,0.10786248743534088,98
1670831768.17953491,113625074,0,22.177509307861328,24.304927825927734,19.723440170288086,88.13813781738281,2.018641948699951,0.0,0.10786248743534088,98
1670831768.27964711,113725186,0,22.012645721435547,24.167373657226562,19.97662353515625,88.69371032714844,2.030871629714966,0.0,0.10786248743534088,98
1670831768.37961006,113825149,0,22.060792922973633,24.089271545410156,18.806150436401367,89.21578979492188,2.042389154434204,0.0,0.10786248743534088,98
1670831768.47955394,113925093,0,22.123319625854492,23.985923767089844,17.268329620361328,89.69538879394531,2.052999496459961,0.0,0.10786248743534088,98
1670831768.57970905,114025248,0,22.231887817382812,24.091327667236328,17.395687103271484,90.17938232421875,2.0637595653533936,0.0,0.10689087957143784,98
1670831768.67959189,114125131,0,22.247203826904297,24.04886817932129,16.99734878540039,90.6510238647461,2.074252128601074,0.0,0.10599678754806519,98
1670831768.77958012,114225119,0,22.297372817993164,24.033884048461914,16.498960494995117,91.10930633544922,2.084470748901367,0.0,0.10524970293045044,98
1670831768.87963605,114325175,0,22.32638168334961,24.026491165161133,16.24700355529785,91.56089782714844,2.094553232192993,0.0,0.10464146733283997,98
1670831768.97965789,114425197,0,22.533655166625977,24.366100311279297,17.410112380981445,92.0446548461914,2.105454206466675,0.0,0.10525179654359818,98
1670831769.07955003,114525089,0,22.542078018188477,24.356922149658203,17.169511795043945,92.52111053466797,2.116194486618042,0.0,0.1057015210390091,98
1670831769.17980289,114625342,0,22.669313430786133,24.3882999420166,16.192991256713867,92.97209167480469,2.126417875289917,0.0,0.10615616291761398,98
1670831769.27956605,114725105,0,22.697769165039062,24.337989807128906,15.422530174255371,93.3995132446289,2.1361193656921387,0.0,0.10635223239660263,98
1670831769.37955499,114825094,0,22.77941131591797,24.384262084960938,15.04706859588623,93.81747436523438,2.1456403732299805,0.0,0.10665541887283325,98
1670831769.47956610,114925105,0,22.620296478271484,24.305875778198242,15.806004524230957,94.2566146850586,2.155573844909668,0.0,0.10664168745279312,98
1670831769.57956600,115025105,0,22.542842864990234,24.31281852722168,16.59562873840332,94.71764373779297,2.165966749191284,0.0,0.10665313154459,98
1670831769.67957211,115125111,0,22.530014038085938,24.300914764404297,16.60882568359375,95.17903900146484,2.1763620376586914,0.0,0.10662402957677841,98
1670831769.77955389,115225093,0,22.428438186645508,24.239038467407227,16.941801071166992,95.64962005615234,2.1869163513183594,0.0,0.10687176138162613,98
1670831769.87961197,115325151,0,22.631593704223633,24.429283142089844,16.756132125854492,96.11537170410156,2.1974570751190186,0.0,0.1072854995727539,98
1670831769.97965598,115425195,0,22.632644653320312,24.386720657348633,16.32065773010254,96.56895446777344,2.2077229022979736,0.0,0.10747580230236053,98
1670831770.07962394,115525163,0,22.679258346557617,24.42496681213379,16.20168685913086,97.01889038085938,2.2179272174835205,0.0,0.10774856805801392,98
1670831770.17963600,115625175,0,22.608999252319336,24.381502151489258,16.43880844116211,97.47561645507812,2.2282533645629883,0.0,0.10782427340745926,98
1670831770.27957296,115725112,0,22.499282836914062,24.32416343688965,16.90282440185547,97.94487762451172,2.238811492919922,0.0,0.10796309262514114,98
1670831770.37959504,115825134,0,22.498708724975586,24.337486267089844,17.01974868774414,98.41779327392578,2.2494513988494873,0.0,0.10803790390491486,98
1670831770.47958803,115925127,0,22.53911018371582,24.412609100341797,17.373899459838867,98.90036010742188,2.2603280544281006,0.0,0.107834093272686,98
1670831770.57957602,116025115,0,22.564865112304688,24.41284942626953,17.13728904724121,99.37641906738281,2.2710702419281006,0.0,0.107834093272686,98
1670831770.67967606,116125215,0,22.55720329284668,24.38208770751953,16.923080444335938,99.84701538085938,2.2816855907440186,0.0,0.107834093272686,98
1670831770.77959704,116225136,0,22.567163467407227,24.340682983398438,16.462438583374023,100.30379486083984,2.2919938564300537,0.0,0.10773129016160965,98
1670831770.87959099,116325130,0,22.646286010742188,24.362478256225586,15.931963920593262,100.74646759033203,2.302018642425537,0.0,0.10772006213665009,98
1670831770.97957301,116425112,0,22.65772819519043,24.378938674926758,15.972030639648438,101.1901626586914,2.3120718002319336,0.0,0.10776403546333313,98
1670831771.07957911,116525118,0,22.67477035522461,24.436077117919922,16.31114387512207,101.643310546875,2.3223466873168945,0.0,0.1079818457365036,98
1670831771.17959094,116625130,0,22.602201461791992,24.30095863342285,15.770099639892578,102.08145904541016,2.332249879837036,0.0,0.10772013664245605,98
1670831771.27956700,116725106,0,22.66500473022461,24.3150691986084,15.34106731414795,102.50753021240234,2.341906785964966,0.0,0.10755869001150131,98
1670831771.37961006,116825149,0,22.613496780395508,24.33163070678711,15.9849214553833,102.9517822265625,2.3519527912139893,0.0,0.10748463869094849,98
1670831771.47963095,116925170,0,22.655622482299805,24.404563903808594,16.271554946899414,103.40390014648438,2.3621957302093506,0.0,0.10748463869094849,98
1670831771.57959104,117025130,0,22.694684982299805,24.38681411743164,15.729896545410156,103.8406982421875,2.3721086978912354,0.0,0.10757403820753098,98
1670831771.67967701,117125216,0,22.69649314880371,24.399965286254883,15.818757057189941,104.280517578125,2.3820910453796387,0.0,0.10768686980009079,98
1670831771.77961493,117225154,0,22.633602142333984,24.270166397094727,15.197443962097168,104.70231628417969,2.3916378021240234,0.0,0.10768686980009079,98
1670831771.87960100,117325140,0,22.71239471435547,24.3156681060791,14.905899047851562,105.11646270751953,2.4010441303253174,0.0,0.10755959898233414,98
1670831771.97978210,117425321,0,22.692291259765625,24.32471466064453,15.187009811401367,105.53912353515625,2.410635232925415,0.0,0.10748817026615143,98
1670831772.07955790,117525097,0,22.731351852416992,24.401531219482422,15.510778427124023,105.96904754638672,2.420408010482788,0.0,0.10767859220504761,98
1670831772.17958689,117625126,0,22.58631134033203,24.22271728515625,15.197136878967285,106.39128875732422,2.4299449920654297,0.0,0.10767859220504761,98
1670831772.27957296,117725112,0,22.615127563476562,24.32127571105957,15.838842391967773,106.83123016357422,2.439894437789917,0.0,0.10771925747394562,98
1670831772.37956905,117825108,0,22.363719940185547,24.090625762939453,15.904516220092773,107.2730941772461,2.4497761726379395,0.0,0.10857954621315002,98
1670831772.47957993,117925119,0,22.429012298583984,24.29078483581543,17.140050888061523,107.74929809570312,2.4604568481445312,0.0,0.10862112790346146,98
1670831772.57959390,118025133,0,22.16046714782715,24.06784439086914,17.425491333007812,108.23344421386719,2.4711856842041016,0.0,0.10945906490087509,98
1670831772.67956591,118125105,0,22.029211044311523,24.073034286499023,18.549591064453125,108.74860382080078,2.482534408569336,0.0,0.1101815328001976,98
1670831772.77957201,118225111,0,21.927919387817383,23.934097290039062,18.022048950195312,109.2492904663086,2.493513345718384,0.0,0.11131793260574341,98
1670831772.87953496,118325074,0,21.96937370300293,24.208023071289062,20.107358932495117,109.80766296386719,2.5057804584503174,0.0,0.11133486032485962,98
1670831772.97955990,118425099,0,21.811311721801758,24.134017944335938,20.809213638305664,110.38589477539062,2.518392324447632,0.0,0.11161913722753525,98
1670831773.07959008,118525129,0,21.871049880981445,24.176637649536133,20.637969970703125,110.95917510986328,2.530930519104004,0.0,0.11171586066484451,98
1670831773.17967296,118625212,0,21.908674240112305,24.265148162841797,21.138198852539062,111.5470962524414,2.543811082839966,0.0,0.11147943884134293,98
1670831773.27962995,118725169,0,21.838117599487305,24.271892547607422,21.87779998779297,112.15460205078125,2.5570778846740723,0.0,0.11124403774738312,98
1670831773.37959290,118825132,0,21.963436126708984,24.343408584594727,21.484981536865234,112.75123596191406,2.5701820850372314,0.0,0.11077381670475006,98
1670831773.47961593,118925155,0,22.20439910888672,24.5371150970459,21.058372497558594,113.33637237548828,2.583174705505371,0.0,0.11077381670475006,98
1670831773.57958007,119025119,0,22.256874084472656,24.473703384399414,20.012222290039062,113.89205169677734,2.5955424308776855,0.0,0.11077381670475006,98
1670831773.67964101,119125180,0,22.28980827331543,24.462732315063477,19.531635284423828,114.43502807617188,2.607645273208618,0.0,0.11125154793262482,98
1670831773.77956200,119225101,0,22.325231552124023,24.409164428710938,18.697511672973633,114.95403289794922,2.619232177734375,0.0,0.1114550456404686,98
1670831773.87958908,119325128,0,22.32417869567871,24.407560348510742,18.66682243347168,115.47270202636719,2.6308109760284424,0.0,0.11160881817340851,98
1670831773.97955990,119425099,0,22.23992919921875,24.342134475708008,18.850341796875,115.99624633789062,2.6424546241760254,0.0,0.11152084171772003,98
1670831774.07956696,119525106,0,22.314315795898438,24.392305374145508,18.61802864074707,116.51348876953125,2.653996706008911,0.0,0.11161166429519653,98
1670831774.17957401,119625113,0,22.212068557739258,24.24083709716797,18.17702865600586,117.01847839355469,2.6652135848999023,0.0,0.11161166429519653,98
1670831774.27956605,119725105,0,22.24131202697754,24.277074813842773,18.27693748474121,117.52616882324219,2.6765053272247314,0.0,0.11138425767421722,98
1670831774.37958193,119825121,0,22.224994659423828,24.21849822998047,17.956375122070312,118.02507019042969,2.687593460083008,0.0,0.11101929843425751,98
1670831774.47955990,119925099,0,22.252948760986328,24.17317771911621,17.363773345947266,118.50733184814453,2.6983251571655273,0.0,0.1105882078409195,98
1670831774.57965398,120025193,0,22.426618576049805,24.30545997619629,16.976478576660156,118.97938537597656,2.708911657333374,0.0,0.11067324876785278,98
1670831774.67967010,120125209,0,22.322072982788086,24.21675682067871,17.15324592590332,119.45597076416016,2.719550132751465,0.0,0.11045629531145096,98
1670831774.77961898,120225158,0,22.113265991210938,24.109270095825195,18.07053565979004,119.95771789550781,2.7306454181671143,0.0,0.11045629531145096,98
1670831774.87971997,120325259,0,22.12954330444336,24.139862060546875,18.138973236083984,120.46212768554688,2.741807699203491,0.0,0.11082872748374939,98
1670831774.97957110,120425110,0,22.44318199157715,24.48778533935547,18.44831657409668,120.97386169433594,2.7532925605773926,0.0,0.11082872748374939,98
1670831775.07960296,120525142,0,22.481189727783203,24.574106216430664,18.884235382080078,121.49864196777344,2.765090227127075,0.0,0.11082872748374939,98
1670831775.17959404,120625133,0,22.605743408203125,24.70711326599121,18.960514068603516,122.0252685546875,2.7769949436187744,0.0,0.11082872748374939,98
1670831775.27960110,120725140,0,22.632360458374023,24.7026424407959,18.680017471313477,122.54422760009766,2.788740396499634,0.0,0.11082872748374939,98
1670831775.37956500,120825104,0,22.761701583862305,24.761810302734375,17.881494522094727,123.04084777832031,2.800044298171997,0.0,0.11185352504253387,98
1670831775.47960591,120925145,0,22.777786254882812,24.81760025024414,18.077903747558594,123.54325866699219,2.811488151550293,0.0,0.1128346174955368,98
1670831775.57957006,121025109,0,22.760263442993164,24.80826187133789,18.032175064086914,124.04400634765625,2.822885274887085,0.0,0.11357472091913223,98
1670831775.67958593,121125125,0,22.67055892944336,24.622032165527344,17.184242248535156,124.52146911621094,2.833709478378296,0.0,0.11356174945831299,98
1670831775.77957106,121225110,0,22.553565979003906,24.459487915039062,16.783138275146484,124.98763275146484,2.8442232608795166,0.0,0.11356174945831299,98
1670831775.87956405,121325103,0,22.322168350219727,24.286571502685547,17.298097610473633,125.4681396484375,2.8549492359161377,0.0,0.11356174945831299,98
1670831775.97953892,121425078,0,22.231950759887695,24.285003662109375,17.930492401123047,125.96612548828125,2.866020441055298,0.0,0.11450067162513733,98
1670831776.07962298,121525162,0,22.283201217651367,24.254638671875,17.217693328857422,126.44483184814453,2.876687526702881,0.0,0.11450067162513733,98
1670831776.17964602,121625185,0,22.411203384399414,24.393638610839844,17.313751220703125,126.92587280273438,2.8874683380126953,0.0,0.11450067162513733,98
1670831776.27963805,121725177,0,22.331262588500977,24.294898986816406,17.149564743041992,127.40229034423828,2.8981072902679443,0.0,0.11450067162513733,98
1670831776.37968302,121825222,0,22.430543899536133,24.34650993347168,16.773319244384766,127.86846160888672,2.9085638523101807,0.0,0.11422695219516754,98
1670831776.47959399,121925133,0,22.44088363647461,24.37071418762207,16.91510009765625,128.3379364013672,2.9190993309020996,0.0,0.11408919841051102,98
1670831776.57959199,122025131,0,22.51929473876953,24.461496353149414,16.99642562866211,128.81008911132812,2.929731845855713,0.0,0.11427120119333267,98
1670831776.67960000,122125139,0,22.46146583557129,24.428180694580078,17.20541763305664,129.28810119628906,2.9404685497283936,0.0,0.11430786550045013,98
1670831776.77956295,122225102,0,22.395450592041016,24.298763275146484,16.650766372680664,129.75048828125,2.9508237838745117,0.0,0.11430786550045013,98
1670831776.87956190,122325101,0,22.502920150756836,24.511520385742188,17.571842193603516,130.23863220214844,2.961808443069458,0.0,0.11430786550045013,98
1670831776.97969890,122425238,0,22.382003784179688,24.394004821777344,17.588415145874023,130.7279052734375,2.972759485244751,0.0,0.11439353972673416,98
1670831777.07959199,122525131,0,22.400100708007812,24.374784469604492,17.262191772460938,131.20693969726562,2.983489990234375,0.0,0.11439353972673416,98
1670831777.17957592,122625115,0,22.55864143371582,24.519006729125977,17.084196090698242,131.68145751953125,2.994194507598877,0.0,0.1147473156452179,98
1670831777.27957010,122725109,0,22.36333465576172,24.37396812438965,17.490516662597656,132.1673126220703,3.0050597190856934,0.0,0.1149556115269661,98
1670831777.37955809,122825097,0,22.456390380859375,24.491436004638672,17.702882766723633,132.65904235839844,3.0161023139953613,0.0,0.1149556115269661,98
1670831777.47956300,122925102,0,22.48434829711914,24.43777084350586,16.992130279541016,133.131103515625,3.026716470718384,0.0,0.11496037989854813,98
1670831777.57962990,123025169,0,22.56266212463379,24.500099182128906,16.823341369628906,133.59877014160156,3.0372681617736816,0.0,0.11516360193490982,98
1670831777.67958903,123125128,0,22.41162109375,24.390247344970703,17.181001663208008,134.07586669921875,3.0479605197906494,0.0,0.11516360193490982,98
1670831777.77958798,123225127,0,22.229206085205078,24.351823806762695,18.380495071411133,134.5864715576172,3.0593106746673584,0.0,0.11548209935426712,98
1670831777.87963104,123325170,0,22.291723251342773,24.424589157104492,18.46611785888672,135.0996856689453,3.0707509517669678,0.0,0.11550156772136688,98
1670831777.97982407,123425363,0,22.240598678588867,24.351634979248047,18.23288345336914,135.607177734375,3.082037925720215,0.0,0.11578177660703659,98
1670831778.07957196,123525111,0,22.453136444091797,24.485931396484375,17.525503158569336,136.09280395507812,3.0929417610168457,0.0,0.11599064618349075,98
1670831778.17961311,123625152,0,22.578744888305664,24.48133087158203,16.381729125976562,136.54808044433594,3.1032211780548096,0.0,0.11614072322845459,98
1670831778.27960205,123725141,0,22.559024810791016,24.447057723999023,16.25528907775879,136.99960327148438,3.1134071350097656,0.0,0.11614887416362762,98
1670831778.37955403,123825093,0,22.40488624572754,24.342145919799805,16.67910385131836,137.4627227783203,3.1237833499908447,0.0,0.11614887416362762,98
1670831778.47955799,123925097,0,22.553524017333984,24.54027557373047,17.05245018005371,137.93646240234375,3.134467840194702,0.0,0.11650822311639786,98
1670831778.57957292,124025112,0,22.40670394897461,24.359609603881836,16.761962890625,138.4021759033203,3.1449029445648193,0.0,0.11650822311639786,98
1670831778.67956901,124125108,0,22.444807052612305,24.401182174682617,16.791730880737305,138.86859130859375,3.15537166595459,0.0,0.11650822311639786,98
1670831778.77956390,124225103,0,22.543514251708984,24.484378814697266,16.633991241455078,139.3306884765625,3.1657891273498535,0.0,0.11668062210083008,98
1670831778.87957501,124325114,0,22.42613983154297,24.471256256103516,17.543302536010742,139.81808471679688,3.1767196655273438,0.0,0.11657528579235077,98
1670831778.97960401,124425143,0,22.46213722229004,24.488004684448242,17.378196716308594,140.30099487304688,3.1875669956207275,0.0,0.11657528579235077,98
1670831779.07959795,124525137,0,22.48195457458496,24.496623992919922,17.28213882446289,140.78106689453125,3.198359966278076,0.0,0.11657528579235077,98
1670831779.17960811,124625147,0,22.46730613708496,24.5101318359375,17.52366065979004,141.26792907714844,3.2092983722686768,0.0,0.11657528579235077,98
1670831779.27960706,124725146,0,22.489805221557617,24.484548568725586,17.103530883789062,141.742919921875,3.2199809551239014,0.0,0.1166275218129158,98
1670831779.37959099,124825130,0,22.384706497192383,24.36164093017578,16.950834274291992,142.2138671875,3.230523109436035,0.0,0.1166275218129158,98
1670831779.47963905,124925178,0,22.47793197631836,24.46864128112793,17.06179428100586,142.6877899169922,3.241176128387451,0.0,0.1166764348745346,98
1670831779.57960606,125025145,0,22.377695083618164,24.420312881469727,17.48714256286621,143.1737060546875,3.252049684524536,0.0,0.11680686473846436,98
1670831779.67960691,125125146,0,22.396268844604492,24.427703857421875,17.378196716308594,143.65647888183594,3.262861967086792,0.0,0.1168956458568573,98
1670831779.77961707,125225156,0,22.384397506713867,24.3583984375,16.88686752319336,144.12564086914062,3.2733638286590576,0.0,0.1168956458568573,98
1670831779.87962794,125325167,0,22.444232940673828,24.432252883911133,17.007780075073242,144.59793090820312,3.283963918685913,0.0,0.1168888658285141,98
1670831779.97958112,125425120,0,22.492008209228516,24.44507598876953,16.703655242919922,145.06192016601562,3.294400215148926,0.0,0.11692456901073456,98
1670831780.07957697,125525116,0,22.519962310791016,24.429962158203125,16.33814811706543,145.51583862304688,3.3046224117279053,0.0,0.11690427362918854,98
1670831780.17958403,125625123,0,22.493104934692383,24.37407875061035,16.11678123474121,145.9635467529297,3.314692497253418,0.0,0.11670903116464615,98
1670831780.27959490,125725134,0,22.437917709350586,24.40618133544922,16.85648536682129,146.431884765625,3.3252010345458984,0.0,0.11676593869924545,98
1670831780.37957311,125825112,0,22.44691276550293,24.440011978149414,17.079593658447266,146.9062957763672,3.335850238800049,0.0,0.11669482290744781,98
1670831780.47956491,125925104,0,22.4571590423584,24.451513290405273,17.090333938598633,147.3810272216797,3.3465113639831543,0.0,0.11669482290744781,98
1670831780.57956600,126025105,0,22.583724975585938,24.560279846191406,16.93781089782715,147.8515625,3.35713791847229,0.0,0.11669482290744781,98
1670831780.67958093,126125120,0,22.490379333496094,24.51807403564453,17.376047134399414,148.3343505859375,3.3679959774017334,0.0,0.11669482290744781,98
1670831780.77956605,126225105,0,22.522165298461914,24.52318000793457,17.147415161132812,148.8106231689453,3.378722906112671,0.0,0.11669482290744781,98
1670831780.87965894,126325198,0,22.420970916748047,24.478944778442383,17.639665603637695,149.30111694335938,3.3897202014923096,0.0,0.11666735261678696,98
1670831780.97955108,126425090,0,22.436405181884766,24.48908805847168,17.603487014770508,149.78956604003906,3.400679111480713,0.0,0.11660658568143845,98
1670831781.07959104,126525130,0,22.407470703125,24.51412010192871,18.088645935058594,150.2923126220703,3.411944627761841,0.0,0.11646254360675812,98
1670831781.17957997,126625119,0,22.358835220336914,24.51582908630371,18.542224884033203,150.80735778808594,3.4234602451324463,0.0,0.11632870137691498,98
1670831781.27959609,126725135,0,22.3404541015625,24.518999099731445,18.748456954956055,151.32827758789062,3.4350979328155518,0.0,0.11619865149259567,98
1670831781.37960792,126825147,0,22.27506446838379,24.471939086914062,18.897296905517578,151.85330200195312,3.4467930793762207,0.0,0.11625339835882187,98
1670831781.47957611,126925115,0,22.306276321411133,24.566362380981445,19.490203857421875,152.39456176757812,3.458866596221924,0.0,0.11596012115478516,98
1670831781.57961893,127025158,0,22.3231258392334,24.553874969482422,19.27292823791504,152.93019104003906,3.4708235263824463,0.0,0.11574523895978928,98
1670831781.67959809,127125137,0,22.21772003173828,24.48844337463379,19.610506057739258,153.474853515625,3.482924699783325,0.0,0.1157911941409111,98
1670831781.77958298,127225122,0,22.216184616088867,24.483808517456055,19.573986053466797,154.01853942871094,3.4950034618377686,0.0,0.1158488318324089,98
1670831781.87958002,127325119,0,22.23929214477539,24.51329803466797,19.638500213623047,154.56407165527344,3.5071358680725098,0.0,0.11579326540231705,98
1670831781.97959089,127425130,0,22.221832275390625,24.49628257751465,19.640274047851562,155.1097412109375,3.519261598587036,0.0,0.11580546945333481,98
1670831782.07954597,127525085,0,22.237918853759766,24.51803207397461,19.70073127746582,155.6567840576172,3.5314266681671143,0.0,0.11573752015829086,98
1670831782.17957997,127625119,0,22.317092895507812,24.540306091308594,19.209095001220703,156.1905975341797,3.543339967727661,0.0,0.11573752015829086,98
1670831782.27960205,127725141,0,22.33815574645996,24.468751907348633,18.42867660522461,156.70265197753906,3.554778575897217,0.0,0.11561310291290283,98
1670831782.37961197,127825151,0,22.295551300048828,24.440126419067383,18.549591064453125,157.218017578125,3.5662686824798584,0.0,0.11561310291290283,98
1670831782.47963500,127925174,0,22.201345443725586,24.460844039916992,19.526111602783203,157.7605743408203,3.5783143043518066,0.0,0.11571675539016724,98
1670831782.57962799,128025167,0,22.065017700195312,24.42566680908203,20.36146354675293,158.326171875,3.590794324874878,0.0,0.11593712121248245,98
1670831782.67970300,128125242,0,22.045475006103516,24.406978607177734,20.32252311706543,158.89060974121094,3.6032376289367676,0.0,0.11620131880044937,98
1670831782.77959490,128225134,0,22.099576950073242,24.39128875732422,19.672494888305664,159.43704223632812,3.6153135299682617,0.0,0.11649319529533386,98
1670831782.87960291,128325142,0,22.15567970275879,24.413286209106445,19.379724502563477,159.97544860839844,3.62724232673645,0.0,0.11649319529533386,98
1670831782.97958112,128425120,0,22.180665969848633,24.450817108154297,19.484987258911133,160.5165557861328,3.639244318008423,0.0,0.11650773882865906,98
1670831783.07955098,128525090,0,22.17626190185547,24.45879554748535,19.59393310546875,161.06077575683594,3.651313304901123,0.0,0.11649182438850403,98
1670831783.17958689,128625126,0,22.12571144104004,24.368240356445312,19.25052261352539,161.59567260742188,3.6631484031677246,0.0,0.11649182438850403,98
1670831783.27959609,128725135,0,22.206132888793945,24.440820693969727,19.183008193969727,162.12869262695312,3.6749846935272217,0.0,0.11649303883314133,98
1670831783.37963200,128825171,0,22.18660545349121,24.36187744140625,18.713163375854492,162.6487274169922,3.6865224838256836,0.0,0.11624286323785782,98
1670831783.47957206,128925111,0,22.172243118286133,24.30524253845215,18.34950065612793,163.15817260742188,3.6978180408477783,0.0,0.11624286323785782,98
1670831783.57958698,129025126,0,22.304603576660156,24.396406173706055,17.99869155883789,163.6582489013672,3.7089719772338867,0.0,0.116219662129879,98
1670831783.67956710,129125106,0,22.29306411743164,24.3756160736084,17.932130813598633,164.15631103515625,3.7200751304626465,0.0,0.11613520234823227,98
1670831783.77956796,129225107,0,22.24462127685547,24.32112693786621,17.917091369628906,164.654052734375,3.731147289276123,0.0,0.11589529365301132,98
1670831783.87955689,129325096,0,22.238874435424805,24.352663040161133,18.25252342224121,165.1610565185547,3.742422580718994,0.0,0.11580800265073776,98
1670831783.97972202,129425261,0,22.25620460510254,24.402250289916992,18.516754150390625,165.67630004882812,3.753890037536621,0.0,0.11589746922254562,98
1670831784.07955790,129525097,0,22.237056732177734,24.418882369995117,18.825483322143555,166.1984100341797,3.76550030708313,0.0,0.11589746922254562,98
1670831784.17959189,129625131,0,22.19253921508789,24.356412887573242,18.653013229370117,166.71676635742188,3.7770040035247803,0.0,0.11600666493177414,98
1670831784.27962303,129725162,0,22.239259719848633,24.34758949279785,18.192066192626953,167.22230529785156,3.7882466316223145,0.0,0.11589284241199493,98
1670831784.37960696,129825146,0,22.353429794311523,24.396879196166992,17.62190055847168,167.71176147460938,3.799187660217285,0.0,0.11596078425645828,98
1670831784.47964311,129925182,0,22.294788360595703,24.41185188293457,18.240859985351562,168.2186737060547,3.8104891777038574,0.0,0.11606165021657944,97
1670831784.57955694,130025096,0,22.279659271240234,24.431949615478516,18.544374465942383,168.7333984375,3.8219568729400635,0.0,0.11606165021657944,97
1670831784.67956901,130125108,0,22.301393508911133,24.38579559326172,17.9637393951416,169.2324981689453,3.83308744430542,0.0,0.1160338744521141,97
1670831784.77960300,130225142,0,22.296894073486328,24.401500701904297,18.13344955444336,169.73641967773438,3.84432315826416,0.0,0.11606214940547943,97
1670831784.87956810,130325107,0,22.314315795898438,24.416370391845703,18.10061264038086,170.23907470703125,3.855539560317993,0.0,0.1161317303776741,97
1670831784.97956705,130425106,0,22.32647705078125,24.430553436279297,18.102455139160156,170.74195861816406,3.866767168045044,0.0,0.1162315309047699,97
1670831785.07956100,130525100,0,22.244525909423828,24.34414291381836,18.06409454345703,171.24375915527344,3.877929449081421,0.0,0.1162315309047699,97
1670831785.17964101,130625180,0,22.331357955932617,24.408294677734375,17.862773895263672,171.74038696289062,3.889019727706909,0.0,0.11627178639173508,97
1670831785.27957106,130725110,0,22.413745880126953,24.334060668945312,16.545061111450195,172.19967651367188,3.8993141651153564,0.0,0.11606573313474655,97
1670831785.37958193,130825121,0,22.497272491455078,24.41223907470703,16.486377716064453,172.65773010253906,3.909618854522705,0.0,0.11615443974733353,97
1670831785.47961211,130925151,0,22.456485748291016,24.4296875,16.969419479370117,173.12928771972656,3.920208215713501,0.0,0.11627982556819916,97
1670831785.57964110,131025180,0,22.48607063293457,24.40929412841797,16.534866333007812,173.58876037597656,3.930539846420288,0.0,0.11631322652101517,97
1670831785.67965603,131125195,0,22.528675079345703,24.383724212646484,15.956379890441895,174.03208923339844,3.9405276775360107,0.0,0.11625748127698898,97
1670831785.77959609,131225135,0,22.42633056640625,24.284114837646484,16.030033111572266,174.47714233398438,3.9505085945129395,0.0,0.11589403450489044,97
1670831785.87957311,131325112,0,22.573097229003906,24.369705200195312,15.503718376159668,174.90773010253906,3.960228443145752,0.0,0.11588240414857864,97
1670831785.97959304,131425132,0,22.659738540649414,24.370954513549805,14.767492294311523,175.31805419921875,3.9695262908935547,0.0,0.11587724089622498,97
1670831786.07962298,131525162,0,22.62532615661621,24.395076751708984,15.262946128845215,175.7421875,3.9791224002838135,0.0,0.11595076322555542,97
1670831786.17968011,131625219,0,22.526281356811523,24.356800079345703,15.795876502990723,176.18124389648438,3.9890127182006836,0.0,0.11588580161333084,97
1670831786.27958798,131725127,0,22.68482208251953,24.45185089111328,15.214630126953125,176.603515625,3.998591899871826,0.0,0.11614015698432922,97
1670831786.37960696,131825146,0,22.66328239440918,24.429040908813477,15.187009811401367,177.02542114257812,4.008153438568115,0.0,0.11626774817705154,97
1670831786.47956491,131925104,0,22.559024810791016,24.408063888549805,15.903287887573242,177.46710205078125,4.018117427825928,0.0,0.11626774817705154,97
1670831786.57956791,132025107,0,22.615318298339844,24.4296932220459,15.592103004455566,177.9002685546875,4.027913570404053,0.0,0.11636500805616379,97
1670831786.67957807,132125117,0,22.685205459594727,24.390399932861328,14.660080909729004,178.3075714111328,4.037153244018555,0.0,0.11631552875041962,97
1670831786.77960205,132225141,0,22.618572235107422,24.385921478271484,15.201433181762695,178.72996520996094,4.0467071533203125,0.0,0.1162620559334755,97
1670831786.87958407,132325123,0,22.571182250976562,24.27916145324707,14.690770149230957,179.13800048828125,4.055916786193848,0.0,0.1162620559334755,97
1670831786.97962403,132425163,0,22.660856246948242,24.312952041625977,14.23623275756836,179.5336456298828,4.064882278442383,0.0,0.11604861170053482,97
1670831787.07957506,132525114,0,22.562950134277344,24.36894989013672,15.564175605773926,179.96580505371094,4.0746331214904785,0.0,0.11603568494319916,97
1670831787.17961693,132625156,0,22.495454788208008,24.366069793701172,16.121179580688477,180.41384887695312,4.084712028503418,0.0,0.1160346120595932,97
1670831787.27966499,132725204,0,22.474870681762695,24.356830596923828,16.2144718170166,180.864501953125,4.0948405265808105,0.0,0.11606673896312714,97
1670831787.37961006,132825149,0,22.480806350708008,24.395666122436523,16.513689041137695,181.322998046875,4.105147838592529,0.0,0.1159558966755867,97
1670831787.47972393,132925263,0,22.378271102905273,24.361188888549805,17.096778869628906,181.79847717285156,4.115788459777832,0.0,0.11598195135593414,97
1670831787.57961392,133025153,0,22.48520851135254,24.424219131469727,16.747539520263672,182.26321411132812,4.1262383460998535,0.0,0.1157788634300232,97
1670831787.67966795,133125207,0,22.37310028076172,24.325706481933594,16.8396053314209,182.7312774658203,4.136710166931152,0.0,0.115953229367733,97
1670831787.77956796,133225107,0,22.32790184020996,24.375333786010742,17.661113739013672,183.22140502929688,4.147654056549072,0.0,0.11592884361743927,97
1670831787.87961292,133325152,0,22.294212341308594,24.387601852416992,18.06777572631836,183.7235565185547,4.158849239349365,0.0,0.11586311459541321,97
1670831787.97956204,133425101,0,22.29287338256836,24.45988655090332,18.754898071289062,184.2443084716797,4.1704583168029785,0.0,0.115543894469738,97
1670831788.07957602,133525115,0,22.33643341064453,24.503965377807617,18.831315994262695,184.76751708984375,4.182144641876221,0.0,0.11510250717401505,97
1670831788.17956996,133625109,0,22.396650314331055,24.54974365234375,18.7966365814209,185.28965759277344,4.193839073181152,0.0,0.11454673111438751,97
1670831788.27958298,133725122,0,22.414363861083984,24.58756446838379,18.972177505493164,185.8167724609375,4.205654144287109,0.0,0.11454673111438751,97
1670831788.37956500,133825104,0,22.30531883239746,24.545183181762695,19.617870330810547,186.36166381835938,4.217808246612549,0.0,0.1141747236251831,97
1670831788.47957706,133925116,0,22.18602752685547,24.52254295349121,20.509077072143555,186.9314727783203,4.23045015335083,0.0,0.11392592638731003,97
1670831788.57958388,134025123,0,22.19791030883789,24.61747932434082,21.344463348388672,187.52447509765625,4.243613243103027,0.0,0.11335816979408264,97
1670831788.67965102,134125190,0,22.19253921508789,24.77590560913086,23.010528564453125,188.1641387939453,4.257809162139893,0.0,0.11226891726255417,97
1670831788.77963090,134225170,0,22.18698501586914,24.815523147583008,23.648548126220703,188.82093811035156,4.272381782531738,0.0,0.11115006357431412,97
1670831788.87959290,134325132,0,22.27688217163086,24.8900203704834,23.78265953063965,189.4813995361328,4.287094593048096,0.0,0.10987577587366104,97
1670831788.97959995,134425139,0,22.32743263244629,24.8493595123291,22.952524185180664,190.1190643310547,4.301331996917725,0.0,0.10987577587366104,97
1670831789.07959008,134525129,0,22.307615280151367,24.931713104248047,23.88239860534668,190.78245544433594,4.316130638122559,0.0,0.10987577587366104,97
1670831789.17963409,134625173,0,22.252853393554688,24.846412658691406,23.74000358581543,191.44224548339844,4.330812931060791,0.0,0.10924850404262543,97
1670831789.27955389,134725093,0,22.108673095703125,24.463117599487305,21.551271438598633,192.0404510498047,4.344038486480713,0.0,0.10924850404262543,97
1670831789.37955499,134825094,0,21.771238327026367,24.154273986816406,21.812978744506836,192.64642333984375,4.357231140136719,0.0,0.10924850404262543,97
1670831789.47958708,134925126,0,21.75214385986328,24.224302291870117,22.36882209777832,193.2680206298828,4.370752334594727,0.0,0.11051806807518005,97
