timestamp,TimeUS,Instance,Volt,VoltR,Curr,CurrTot,EnrgTot,Temp,Res,RemPct
1668407959.07955194,165084499,0,24.777812957763672,24.83745002746582,0.33103078603744507,14.204221725463867,0.35200464725494385,0.0,0.18015675246715546,99
1668407959.17954111,165184488,0,24.7291316986084,24.77126121520996,0.23384931683540344,14.21071720123291,0.3521652817726135,0.0,0.18015675246715546,99
1668407959.27983713,165284784,0,24.754911422729492,24.806550979614258,0.2866342067718506,14.218703269958496,0.3523629605770111,0.0,0.18015675246715546,99
1668407959.37951708,165384464,0,24.720796585083008,24.759166717529297,0.21298088133335114,14.224600791931152,0.3525087535381317,0.0,0.18015675246715546,99
1668407959.47977495,165484722,0,24.702396392822266,24.735015869140625,0.1810644268989563,14.229643821716309,0.3526333272457123,0.0,0.18015675246715546,99
1668407959.57947397,165584421,0,24.77388572692871,24.829837799072266,0.3105715215206146,14.238245964050293,0.3528464436531067,0.0,0.18015675246715546,99
1668407959.67976809,165684715,0,24.766315460205078,24.821548461914062,0.3065820038318634,14.246788024902344,0.35305801033973694,0.0,0.18015675246715546,99
1668407959.77951002,165784457,0,24.77474594116211,24.83274269104004,0.32192644476890564,14.255707740783691,0.3532789945602417,0.0,0.18015675246715546,99
1668407959.87951803,165884465,0,24.714820861816406,24.750205993652344,0.19640886783599854,14.261164665222168,0.353413850069046,0.0,0.18015675246715546,99
1668407959.97949815,165984445,0,24.72271156311035,24.758813858032227,0.20039844512939453,14.266730308532715,0.35355144739151,0.0,0.18015675246715546,99
1668407960.07979298,166084740,0,24.770626068115234,24.82818031311035,0.3194712996482849,14.275630950927734,0.3537719249725342,0.0,0.18015675246715546,99
1668407960.17951608,166184463,0,24.76736831665039,24.822158813476562,0.3041268587112427,14.284056663513184,0.3539806306362152,0.0,0.18015675246715546,99
1668407960.27994800,166284895,0,24.752225875854492,24.802040100097656,0.27650687098503113,14.291770935058594,0.3541715741157532,0.0,0.18015675246715546,99
1668407960.37962294,166384570,0,24.700767517089844,24.73073387145996,0.16633376479148865,14.29637622833252,0.354285329580307,0.0,0.18015675246715546,99
1668407960.47957206,166484519,0,24.741493225097656,24.784839630126953,0.24060088396072388,14.303056716918945,0.35445061326026917,0.0,0.18015675246715546,99
1668407960.57951498,166584462,0,24.774555206298828,24.832275390625,0.320391982793808,14.311952590942383,0.35467100143432617,0.0,0.18015675246715546,99
1668407960.67955303,166684500,0,24.77125358581543,24.827463150024414,0.3120036721229553,14.320623397827148,0.3548857867717743,0.0,0.18015675246715546,99
1668407960.77950406,166784451,0,24.764493942260742,24.81812286376953,0.2976822257041931,14.328887939453125,0.3550904393196106,0.0,0.18015675246715546,99
1668407960.87952209,166884469,0,24.733922958374023,24.775609970092773,0.2313942164182663,14.335317611694336,0.35524946451187134,0.0,0.18015675246715546,99
1668407960.97948813,166984435,0,24.715717315673828,24.7504940032959,0.1930331140756607,14.340679168701172,0.35538196563720703,0.0,0.18015675246715546,99
1668407961.07976007,167084707,0,24.77091407775879,24.82785987854004,0.3160955309867859,14.34948444366455,0.3556000888347626,0.0,0.18015675246715546,99
1668407961.17954302,167184490,0,24.762767791748047,24.816728591918945,0.2995235323905945,14.357786178588867,0.3558056652545929,0.0,0.18015675246715546,99
1668407961.27986693,167284814,0,24.775129318237305,24.831966400146484,0.3154817521572113,14.366576194763184,0.3560234606266022,0.0,0.18015675246715546,99
1668407961.37950206,167384449,0,24.609060287475586,24.739442825317383,0.704923689365387,14.386094093322754,0.35650378465652466,0.0,0.18495875597000122,99
1668407961.47971010,167484657,0,24.41586685180664,24.835674285888672,2.293687582015991,14.449945449829102,0.3580627739429474,0.0,0.1830276995897293,99
1668407961.57949901,167584446,0,24.61334991455078,24.863283157348633,1.3871376514434814,14.488398551940918,0.3590092360973358,0.0,0.1801789402961731,99
1668407961.67977905,167684726,0,24.636947631835938,24.829965591430664,1.0765661001205444,14.518388748168945,0.35974809527397156,0.0,0.17928971350193024,99
1668407961.77952003,167784467,0,24.58011817932129,24.81163215637207,1.2907745838165283,14.554154396057129,0.3606272041797638,0.0,0.17936117947101593,99
1668407961.87961507,167884562,0,24.562774658203125,24.770328521728516,1.144695520401001,14.585984230041504,0.3614090383052826,0.0,0.18131804466247559,99
1668407961.97925305,167984200,0,24.62141990661621,24.840261459350586,1.2171212434768677,14.619673728942871,0.3622385263442993,0.0,0.17980317771434784,99
1668407962.07964516,168084592,0,24.623336791992188,24.83796501159668,1.2017768621444702,14.653189659118652,0.3630638122558594,0.0,0.1785920411348343,99
1668407962.17951608,168184463,0,24.644420623779297,24.86255645751953,1.221417784690857,14.687076568603516,0.3638989329338074,0.0,0.1785920411348343,99
1668407962.27955699,168284504,0,24.623624801635742,24.831750869750977,1.1680190563201904,14.719537734985352,0.36469823122024536,0.0,0.17818742990493774,99
1668407962.37947297,168384420,0,24.58843421936035,24.78406524658203,1.0867276191711426,14.749701499938965,0.36543992161750793,0.0,0.1800176054239273,99
1668407962.47988009,168484827,0,24.57801055908203,24.771038055419922,1.0722696781158447,14.779609680175781,0.3661750257015228,0.0,0.1800176054239273,99
1668407962.57947302,168584420,0,24.645282745361328,24.863391876220703,1.211597204208374,14.813131332397461,0.36700117588043213,0.0,0.1800176054239273,99
1668407962.67979312,168684740,0,24.628032684326172,24.839733123779297,1.1759982109069824,14.845905303955078,0.36780834197998047,0.0,0.1800176054239273,99
1668407962.77952814,168784475,0,24.636369705200195,24.8525447845459,1.20085608959198,14.87917709350586,0.36862802505493164,0.0,0.1800176054239273,99
1668407962.87977695,168884724,0,24.569961547851562,24.75569725036621,1.0317604541778564,14.907910346984863,0.36933401226997375,0.0,0.1800176054239273,99
1668407962.97955012,168984497,0,24.601394653320312,24.803775787353516,1.1207581758499146,14.938974380493164,0.3700982332229614,0.0,0.1805756837129593,99
1668407963.07973409,169084681,0,24.630523681640625,24.846315383911133,1.1950253248214722,14.972233772277832,0.3709174394607544,0.0,0.1805756837129593,99
1668407963.17965317,169184600,0,24.622283935546875,24.834142684936523,1.1732361316680908,15.004799842834473,0.3717193007469177,0.0,0.1805756837129593,99
1668407963.27977705,169284724,0,24.621015548706055,24.82969093322754,1.1556071043014526,15.036942481994629,0.3725106716156006,0.0,0.1805756837129593,99
1668407963.37953806,169384485,0,24.57063102722168,24.75899314880371,1.043115258216858,15.065851211547852,0.3732209801673889,0.0,0.1805756837129593,99
1668407963.47976398,169484711,0,24.601776123046875,24.803659439086914,1.117996096611023,15.096979141235352,0.37398678064346313,0.0,0.1805756837129593,99
1668407963.57958913,169584536,0,24.641929626464844,24.861103057861328,1.2137454748153687,15.130638122558594,0.3748161792755127,0.0,0.1805756837129593,99
1668407963.67963505,169684582,0,24.63751983642578,24.854032516479492,1.1990149021148682,15.163962364196777,0.3756372034549713,0.0,0.1805756837129593,99
1668407963.77953100,169784478,0,24.599380493164062,24.801816940307617,1.1210650205612183,15.195073127746582,0.37640249729156494,0.0,0.1805756837129593,99
1668407963.87969112,169884638,0,24.57791519165039,24.77037811279297,1.0658249855041504,15.224729537963867,0.3771313726902008,0.0,0.1805756837129593,99
1668407963.97952414,169984471,0,24.561336517333984,24.747425079345703,1.030532717704773,15.253307342529297,0.3778332769870758,0.0,0.1805756837129593,99
1668407964.07959199,170084539,0,24.618545532226562,24.827632904052734,1.1578916311264038,15.285480499267578,0.3786253333091736,0.0,0.1805756837129593,99
1668407964.17950416,170184451,0,24.630386352539062,24.843555450439453,1.1804990768432617,15.318263053894043,0.3794327676296234,0.0,0.1805756837129593,99
1668407964.27951312,170284460,0,24.628225326538086,24.841800689697266,1.182749629020691,15.351123809814453,0.38024207949638367,0.0,0.1805756837129593,99
1668407964.37952614,170384473,0,24.564498901367188,24.749534606933594,1.0247019529342651,15.379593849182129,0.3809414207935333,0.0,0.1805756837129593,99
1668407964.47981405,170484761,0,24.596027374267578,24.7960262298584,1.1075619459152222,15.410449981689453,0.3817003667354584,0.0,0.1805756837129593,99
1668407964.57961798,170584565,0,24.6270751953125,24.84225845336914,1.1916494369506836,15.443489074707031,0.38251402974128723,0.0,0.1805756837129593,99
1668407964.67982101,170684768,0,24.62257194519043,24.83420753479004,1.1720086336135864,15.476113319396973,0.38331732153892517,0.0,0.1805756837129593,99
1668407964.77962804,170784575,0,24.59909439086914,24.80097770690918,1.117996096611023,15.507111549377441,0.38407984375953674,0.0,0.1805756837129593,99
1668407964.87962008,170884567,0,24.564115524291992,24.752199172973633,1.0415807962417603,15.536044120788574,0.3847905397415161,0.0,0.1805756837129593,99
1668407964.97925615,170984203,0,24.60142707824707,24.8057918548584,1.1317379474639893,15.56736946105957,0.3855611979961395,0.0,0.1805756837129593,99
1668407965.07963514,171084582,0,24.632633209228516,24.849367141723633,1.2002424001693726,15.600838661193848,0.38638564944267273,0.0,0.1805756837129593,99
1668407965.17954803,171184495,0,24.38405418395996,25.029102325439453,3.706603765487671,15.703718185424805,0.38889428973197937,0.0,0.17402693629264832,99
1668407965.27955794,171284505,0,23.653072357177734,25.03242301940918,10.019001007080078,15.982070922851562,0.39547818899154663,0.0,0.1376735121011734,99
1668407965.37951994,171384467,0,23.123525619506836,24.745718002319336,11.718551635742188,16.307453155517578,0.40300217270851135,0.0,0.1384294480085373,99
1668407965.47961402,171484561,0,22.344438552856445,24.690187454223633,16.846050262451172,16.775928497314453,0.41346997022628784,0.0,0.13924627006053925,99
1668407965.57950115,171584448,0,22.088672637939453,24.46956443786621,16.837764739990234,17.243152618408203,0.4237903356552124,0.0,0.14140190184116364,99
1668407965.67966008,171684607,0,22.19705581665039,24.404512405395508,15.363471984863281,17.67063331604004,0.4332791268825531,0.0,0.14368212223052979,99
1668407965.77952909,171784476,0,22.188140869140625,24.42578887939453,15.374211311340332,18.097166061401367,0.44274306297302246,0.0,0.14554552733898163,99
1668407965.87986112,171884808,0,22.245107650756836,24.445558547973633,14.96287727355957,18.51421546936035,0.4520203471183777,0.0,0.14706063270568848,99
1668407965.97954011,171984487,0,22.249568939208984,24.504714965820312,15.234883308410645,18.936086654663086,0.46140679717063904,0.0,0.14802512526512146,99
1668407966.07990313,172084850,0,22.227144241333008,24.486528396606445,15.163071632385254,19.35867691040039,0.4707997739315033,0.0,0.1490056812763214,99
1668407966.17953801,172184485,0,22.103717803955078,24.38623046875,15.162152290344238,19.778512954711914,0.480079710483551,0.0,0.15054020285606384,99
1668407966.27959895,172284546,0,22.069698333740234,24.483531951904297,15.95484447479248,20.222009658813477,0.48986753821372986,0.0,0.15129154920578003,99
1668407966.37963104,172384578,0,21.961219787597656,24.410181045532227,16.063791275024414,20.66840362548828,0.49967092275619507,0.0,0.1524522751569748,99
1668407966.47964501,172484592,0,21.93256950378418,24.393150329589844,16.017757415771484,21.113439559936523,0.5094317197799683,0.0,0.1536158323287964,99
1668407966.57965112,172584598,0,21.983070373535156,24.467201232910156,16.111051559448242,21.561031341552734,0.5192711353302002,0.0,0.15418797731399536,99
1668407966.67975402,172684701,0,22.006547927856445,24.536657333374023,16.40228843688965,22.01715660095215,0.5293088555335999,0.0,0.15425339341163635,99
1668407966.77957702,172784524,0,21.969758987426758,24.53083038330078,16.592458724975586,22.47727394104004,0.539417564868927,0.0,0.15435156226158142,99
1668407966.87987900,172884826,0,21.88129997253418,24.48199462890625,16.80431365966797,22.9453125,0.5496588349342346,0.0,0.15476350486278534,99
1668407966.97956014,172984507,0,21.816516876220703,24.43406867980957,16.837764739990234,23.411714553833008,0.5598340630531311,0.0,0.15545719861984253,99
1668407967.07989407,173084841,0,21.864913940429688,24.50080680847168,16.93443489074707,23.88378143310547,0.5701557397842407,0.0,0.15565282106399536,99
1668407967.17955208,173184499,0,21.826486587524414,24.480741500854492,17.018522262573242,24.354896545410156,0.5804385542869568,0.0,0.15596269071102142,99
1668407967.27961516,173284562,0,21.78959083557129,24.49165916442871,17.30177879333496,24.835886001586914,0.5909191370010376,0.0,0.15617287158966064,99
1668407967.37950110,173384448,0,21.727685928344727,24.44417381286621,17.33891487121582,25.317012786865234,0.6013728976249695,0.0,0.1566699743270874,99
1668407967.47975016,173484697,0,21.71465492248535,24.48774528503418,17.680482864379883,25.80940055847168,0.6120648980140686,0.0,0.15684473514556885,99
1668407967.57954097,173584488,0,21.647775650024414,24.44643783569336,17.796142578125,26.302749633789062,0.6227447986602783,0.0,0.15726228058338165,99
1668407967.67956710,173684514,0,21.61163902282715,24.454341888427734,18.038312911987305,26.803979873657227,0.6335771679878235,0.0,0.1575925499200821,99
1668407967.77955604,173784503,0,21.576086044311523,24.457529067993164,18.251602172851562,27.31095314025879,0.6445156931877136,0.0,0.15787337720394135,99
1668407967.87933517,173884282,0,21.472972869873047,24.365636825561523,18.2282772064209,27.816221237182617,0.6553652882575989,0.0,0.15869097411632538,99
1668407967.97956014,173984507,0,21.598796844482422,24.42751693725586,17.783288955688477,28.311338424682617,0.6660591959953308,0.0,0.15906614065170288,99
1668407968.07966995,174084617,0,21.75250816345215,24.535234451293945,17.466272354125977,28.797094345092773,0.6766256093978882,0.0,0.15932004153728485,99
1668407968.17959213,174184539,0,21.83079719543457,24.57799530029297,17.19927978515625,29.27452278137207,0.6870482563972473,0.0,0.15972751379013062,99
1668407968.28013897,174285086,0,21.869897842407227,24.601232528686523,17.054428100585938,29.750886917114258,0.697466254234314,0.0,0.16015402972698212,99
1668407968.37967801,174384625,0,21.866064071655273,24.534133911132812,16.660688400268555,30.211572647094727,0.7075396776199341,0.0,0.16014164686203003,99
1668407968.48009896,174485046,0,21.858919143676758,24.487300872802734,16.437992095947266,30.670150756835938,0.7175637483596802,0.0,0.15989680588245392,99
1668407968.57956600,174584513,0,21.884750366210938,24.538114547729492,16.5870361328125,31.128482818603516,0.727594256401062,0.0,0.1599661260843277,99
1668407968.68004799,174684995,0,21.878042221069336,24.47560691833496,16.264802932739258,31.582502365112305,0.7375273108482361,0.0,0.15970464050769806,99
1668407968.77963996,174784587,0,21.887720108032227,24.441869735717773,16.030033111572266,32.0260009765625,0.7472344636917114,0.0,0.15933524072170258,99
1668407968.88004303,174884990,0,21.8262939453125,24.327486038208008,15.697672843933105,32.46384048461914,0.7567908763885498,0.0,0.15933524072170258,99
1668407968.97954702,174984494,0,21.84910011291504,24.368268966674805,15.86124324798584,32.90227508544922,0.7663702964782715,0.0,0.15882542729377747,99
1668407969.08013511,175085082,0,21.889062881469727,24.448013305664062,16.110437393188477,33.352455139160156,0.7762243151664734,0.0,0.15883803367614746,99
1668407969.17955303,175184500,0,21.911102294921875,24.511550903320312,16.33784294128418,33.803680419921875,0.7861111164093018,0.0,0.15916717052459717,99
1668407969.28012800,175285075,0,21.9157772064209,24.506488800048828,16.253517150878906,34.2578010559082,0.7960634827613831,0.0,0.15939389169216156,99
1668407969.37957597,175384523,0,21.88800811767578,24.429656982421875,15.967121124267578,34.698917388916016,0.8057186603546143,0.0,0.15918011963367462,99
1668407969.48007512,175485022,0,21.82111930847168,24.381380081176758,16.08404541015625,35.14796447753906,0.8155174255371094,0.0,0.15918011963367462,99
1668407969.57959294,175584540,0,21.79467010498047,24.366605758666992,16.157392501831055,35.59465026855469,0.8252527713775635,0.0,0.15918011963367462,99
1668407969.68012905,175685076,0,21.773780822753906,24.38227081298828,16.354413986206055,36.051414489746094,0.8351982831954956,0.0,0.15949764847755432,99
1668407969.77959514,175784542,0,21.75164222717285,24.342512130737305,16.243934631347656,36.50025939941406,0.8449614644050598,0.0,0.15949764847755432,99
1668407969.88005114,175884998,0,21.72117042541504,24.312578201293945,16.247312545776367,36.95366668701172,0.8548099994659424,0.0,0.15949764847755432,99
1668407969.97966599,175984613,0,21.765155792236328,24.35460662841797,16.235034942626953,37.40293884277344,0.8645884990692139,0.0,0.15949764847755432,99
1668407970.08011103,176085058,0,21.857725143432617,24.471405029296875,16.386945724487305,37.86019515991211,0.8745830655097961,0.0,0.15949764847755432,99
1668407970.17962408,176184571,0,21.893735885620117,24.50968360900879,16.401165008544922,38.313602447509766,0.884509801864624,0.0,0.15949764847755432,99
1668407970.28005004,176284997,0,21.971473693847656,24.50621223449707,15.849889755249023,38.75578308105469,0.8942251801490784,0.0,0.15992146730422974,99
1668407970.37953615,176384483,0,21.956716537475586,24.343217849731445,14.969731330871582,39.16950988769531,0.9033092260360718,0.0,0.15942172706127167,99
1668407970.48007011,176485017,0,22.026765823364258,24.368629455566406,14.713172912597656,39.580421447753906,0.9123602509498596,0.0,0.1591678410768509,99
1668407970.57956314,176584510,0,22.064044952392578,24.40503692626953,14.708569526672363,39.98695373535156,0.9213299751281738,0.0,0.1591583490371704,99
1668407970.68008494,176685032,0,22.08167839050293,24.387418746948242,14.495895385742188,40.39175033569336,0.9302685856819153,0.0,0.15906162559986115,99
1668407970.77955008,176784497,0,22.146648406982422,24.404117584228516,14.191461563110352,40.78388214111328,0.9389530420303345,0.0,0.15907230973243713,99
1668407970.88023400,176885181,0,22.123361587524414,24.395294189453125,14.285676956176758,41.183448791503906,0.9477928280830383,0.0,0.15903569757938385,99
1668407970.97955608,176984503,0,22.041311264038086,24.27318572998047,14.091313362121582,41.57225036621094,0.9563625454902649,0.0,0.1583864986896515,99
1668407971.08018303,177085130,0,22.11713409423828,24.389928817749023,14.341224670410156,41.973148345947266,0.9652292728424072,0.0,0.15847977995872498,99
1668407971.17955494,177184502,0,22.14789581298828,24.385753631591797,14.116272926330566,42.36283874511719,0.9738601446151733,0.0,0.1585303694009781,99
1668407971.28013110,177285078,0,22.197534561157227,24.444868087768555,14.145734786987305,42.7580680847168,0.9826332330703735,0.0,0.15886999666690826,99
1668407971.37962294,177384570,0,22.177217483520508,24.368690490722656,13.805088996887207,43.13962936401367,0.9910951852798462,0.0,0.15874385833740234,99
1668407971.48007703,177485024,0,22.200984954833984,24.375261306762695,13.70228099822998,43.52200698852539,0.9995843172073364,0.0,0.15867982804775238,99
1668407971.57954717,177584494,0,22.195327758789062,24.373056411743164,13.729287147521973,43.90138244628906,1.0080046653747559,0.0,0.15861926972866058,99
1668407971.68009496,177685042,0,22.20443344116211,24.366619110107422,13.638141632080078,44.282325744628906,1.016463279724121,0.0,0.1585395634174347,99
1668407971.77959895,177784546,0,22.236162185668945,24.396270751953125,13.617341041564941,44.65874481201172,1.02483332157135,0.0,0.15862925350666046,99
1668407971.88008499,177885032,0,22.18919563293457,24.291763305664062,13.293505668640137,45.02983474731445,1.0330674648284912,0.0,0.1581650972366333,99
1668407971.97961617,177984563,0,22.23874282836914,24.36564064025879,13.445721626281738,45.401588439941406,1.041334867477417,0.0,0.15818394720554352,99
1668407972.08005095,178084998,0,22.28090476989746,24.42009925842285,13.498506546020508,45.778175354003906,1.0497255325317383,0.0,0.15847638249397278,99
1668407972.17954302,178184490,0,22.271034240722656,24.4029541015625,13.440813064575195,46.14971160888672,1.058000087738037,0.0,0.15861544013023376,99
1668407972.28010201,178285049,0,22.287612915039062,24.42780303955078,13.47303581237793,46.52608108520508,1.066388487815857,0.0,0.15884993970394135,99
1668407972.37955093,178384498,0,22.232318878173828,24.335046768188477,13.261588096618652,46.89246368408203,1.0745339393615723,0.0,0.15855777263641357,99
1668407972.48008513,178485032,0,22.276113510131836,24.38553237915039,13.301177978515625,47.26394271850586,1.0828090906143188,0.0,0.15858881175518036,99
1668407972.57954717,178584494,0,22.286100387573242,24.42000961303711,13.438663482666016,47.635257720947266,1.0910842418670654,0.0,0.1587887555360794,99
1668407972.68015504,178685102,0,22.25656509399414,24.392162322998047,13.448177337646484,48.01112365722656,1.0994497537612915,0.0,0.15880198776721954,99
1668407972.77959514,178784542,0,22.260589599609375,24.385957717895508,13.38557243347168,48.380889892578125,1.1076809167861938,0.0,0.15878057479858398,99
1668407972.88022399,178885171,0,22.25963020324707,24.331382751464844,13.072237968444824,48.74632263183594,1.115815281867981,0.0,0.15848486125469208,99
1668407972.97965908,178984606,0,22.275920867919922,24.350788116455078,13.102620124816895,49.10825729370117,1.1238776445388794,0.0,0.15835507214069366,99
1668407973.08007312,179085020,0,22.354310989379883,24.475879669189453,13.397541046142578,49.48198318481445,1.1322319507598877,0.0,0.15835507214069366,99
1668407973.17964196,179184589,0,22.325178146362305,24.407615661621094,13.14220905303955,49.84550094604492,1.1403474807739258,0.0,0.15845414996147156,99
1668407973.28012300,179285070,0,22.349708557128906,24.448991775512695,13.224455833435059,50.21464538574219,1.1485978364944458,0.0,0.15874254703521729,99
1668407973.37957001,179384517,0,22.2707462310791,24.32009506225586,12.909894943237305,50.5713005065918,1.1565407514572144,0.0,0.15874254703521729,99
1668407973.48005104,179484998,0,22.288867950439453,24.32762908935547,12.869555473327637,50.930477142333984,1.1645463705062866,0.0,0.15841740369796753,99
1668407973.57951403,179584461,0,22.355268478393555,24.410520553588867,12.959609985351562,51.28862380981445,1.1725528240203857,0.0,0.1585889756679535,99
1668407973.68002701,179684974,0,22.335622787475586,24.33917236328125,12.652107238769531,51.64189910888672,1.1804434061050415,0.0,0.1583569496870041,99
1668407973.77963805,179784585,0,22.340221405029297,24.34502410888672,12.6720552444458,51.99256134033203,1.1882773637771606,0.0,0.15820662677288055,99
1668407973.88008595,179885033,0,22.346355438232422,24.331329345703125,12.561574935913086,52.34308624267578,1.1961102485656738,0.0,0.15801946818828583,99
1668407973.97951412,179984461,0,22.323165893554688,24.266551971435547,12.335704803466797,52.68381118774414,1.2037162780761719,0.0,0.15754152834415436,99
1668407974.08008409,180085031,0,22.376829147338867,24.33400535583496,12.42531681060791,53.03095245361328,1.2114841938018799,0.0,0.1575152426958084,99
1668407974.17954111,180184488,0,22.413148880004883,24.377437591552734,12.45447063446045,53.375057220458984,1.2191966772079468,0.0,0.15771757066249847,99
1668407974.28013396,180285081,0,22.387083053588867,24.320693969726562,12.270337104797363,53.717952728271484,1.2268730401992798,0.0,0.15758423507213593,99
1668407974.37961316,180384560,0,22.406526565551758,24.323596954345703,12.172235488891602,54.0543327331543,1.2344101667404175,0.0,0.1574954092502594,99
1668407974.48016596,180485113,0,22.461734771728516,24.27951431274414,11.56357192993164,54.377349853515625,1.2416656017303467,0.0,0.1571987122297287,99
1668407974.57962394,180584571,0,22.529197692871094,24.394166946411133,11.836703300476074,54.70438766479492,1.2490334510803223,0.0,0.15755809843540192,99
1668407974.68020415,180685151,0,22.371654510498047,24.362472534179688,12.646275520324707,55.0577392578125,1.2569384574890137,0.0,0.15742333233356476,99
1668407974.77959609,180784543,0,22.282821655273438,24.36678123474121,13.25023365020752,55.4235954284668,1.265090823173523,0.0,0.1572772115468979,99
1668407974.88012195,180885069,0,22.178943634033203,24.297046661376953,13.443266868591309,55.79901123046875,1.2734171152114868,0.0,0.1575586497783661,99
1668407974.97958398,180984531,0,22.170988082885742,24.30254364013672,13.509862899780273,56.17214584350586,1.2816898822784424,0.0,0.15777768194675446,99
1668407975.08019209,181085139,0,22.182775497436523,24.369064331054688,13.874138832092285,56.5600700378418,1.290295124053955,0.0,0.1575801819562912,99
1668407975.17954111,181184488,0,22.15460205078125,24.361892700195312,14.019365310668945,56.94698715209961,1.298867106437683,0.0,0.15744581818580627,99
1668407975.28011107,181285058,0,22.123361587524414,24.340801239013672,14.0834379196167,57.340457916259766,1.3075720071792603,0.0,0.15745019912719727,99
1668407975.37958503,181384532,0,22.086181640625,24.274168014526367,13.861249923706055,57.7234992980957,1.3160319328308105,0.0,0.15784919261932373,99
1668407975.48009205,181485039,0,22.0839786529541,24.339035034179688,14.28843879699707,58.12244415283203,1.3248422145843506,0.0,0.157823845744133,99
1668407975.57959700,181584544,0,22.071998596191406,24.356552124023438,14.4869966506958,58.52289581298828,1.3336809873580933,0.0,0.15769681334495544,99
1668407975.68010807,181685055,0,22.026287078857422,24.364564895629883,14.842987060546875,58.93734359741211,1.342809796333313,0.0,0.1575341820716858,99
1668407975.77964807,181784595,0,22.109275817871094,24.45458984375,14.952545166015625,59.35081100463867,1.351951241493225,0.0,0.15685047209262848,99
1668407975.88016295,181885110,0,22.15517807006836,24.554981231689453,15.299944877624512,59.778038024902344,1.3614164590835571,0.0,0.15685047209262848,99
1668407975.97961998,181984567,0,22.22296142578125,24.698043823242188,15.779884338378906,60.214019775390625,1.3711051940917969,0.0,0.15685047209262848,99
1668407976.08014297,182085090,0,22.297481536865234,24.817432403564453,16.06593894958496,60.66266632080078,1.3811088800430298,0.0,0.15685047209262848,99
1668407976.17965698,182184604,0,22.356035232543945,24.874109268188477,16.053972244262695,61.106483459472656,1.3910309076309204,0.0,0.15685047209262848,99
1668407976.28017116,182285118,0,22.29489517211914,24.818984985351562,16.09233283996582,61.555686950683594,1.4010459184646606,0.0,0.15685047209262848,99
1668407976.37958813,182384535,0,22.24420166015625,24.809303283691406,16.35379981994629,62.00748825073242,1.4110958576202393,0.0,0.15685047209262848,99
1668407976.48016310,182485110,0,22.177217483520508,24.728071212768555,16.31850814819336,62.46342468261719,1.4212071895599365,0.0,0.1563166081905365,99
1668407976.57956505,182584512,0,22.19446563720703,24.842702865600586,17.07038688659668,62.93479919433594,1.4316691160202026,0.0,0.15513630211353302,99
1668407976.68008399,182685031,0,22.112821578979492,24.751544952392578,17.0670108795166,63.41138458251953,1.4422078132629395,0.0,0.1546095758676529,99
1668407976.77954602,182784493,0,22.135223388671875,24.775049209594727,17.14315414428711,63.88505935668945,1.4526927471160889,0.0,0.15398719906806946,99
1668407976.88009596,182885043,0,21.938125610351562,24.56695556640625,16.995813369750977,64.35980224609375,1.463107705116272,0.0,0.15467514097690582,99
1668407976.97956014,182984507,0,21.605026245117188,24.0904541015625,16.068700790405273,64.80379486083984,1.4727002382278442,0.0,0.15467514097690582,99
1668407977.08007812,183085025,0,21.656198501586914,24.10346221923828,15.8219633102417,65.24559783935547,1.4822680950164795,0.0,0.15467514097690582,99
1668407977.17972016,183184667,0,21.5820255279541,23.917312622070312,15.098012924194336,65.66352081298828,1.4912878274917603,0.0,0.15467514097690582,99
1668407977.28013706,183285084,0,21.779722213745117,24.230024337768555,15.84160327911377,66.10543060302734,1.5009125471115112,0.0,0.15467514097690582,99
1668407977.37966299,183384610,0,21.807798385620117,24.235790252685547,15.697365760803223,66.53943634033203,1.510377287864685,0.0,0.15467514097690582,99
1668407977.48012900,183485076,0,21.81814956665039,24.179258346557617,15.264958381652832,66.96546936035156,1.5196726322174072,0.0,0.15467514097690582,99
1668407977.57961917,183584566,0,21.692325592041016,24.01474952697754,15.01484489440918,67.38045501708984,1.528674602508545,0.0,0.15467514097690582,99
1668407977.68012404,183685071,0,21.623926162719727,23.938154220581055,14.9618558883667,67.7981948852539,1.537707805633545,0.0,0.15467514097690582,99
1668407977.77960300,183784550,0,21.56851577758789,23.799467086791992,14.423469543457031,68.19664001464844,1.5463016033172607,0.0,0.15467514097690582,99
1668407977.88010812,183885055,0,21.52721405029297,23.734954833984375,14.273401260375977,68.59530639648438,1.5548837184906006,0.0,0.15467514097690582,99
1668407977.97959709,183984544,0,21.68178367614746,23.957639694213867,14.713786125183105,69.00196838378906,1.5637009143829346,0.0,0.15467514097690582,99
1668407978.08014107,184085088,0,21.6538028717041,23.896053314208984,14.496509552001953,69.40686798095703,1.5724685192108154,0.0,0.15467514097690582,99
1668407978.17964602,184184593,0,21.815275192260742,23.987817764282227,14.06533145904541,69.79566955566406,1.580950379371643,0.0,0.15446078777313232,99
1668407978.28014803,184285095,0,21.91081428527832,24.06602668762207,13.932140350341797,70.18464660644531,1.5894732475280762,0.0,0.15469352900981903,99
1668407978.37954116,184384488,0,21.86221694946289,24.027915954589844,14.001293182373047,70.57123565673828,1.5979249477386475,0.0,0.15467852354049683,99
1668407978.48009300,184485040,0,21.838560104370117,24.009403228759766,14.044154167175293,70.96353912353516,1.606492280960083,0.0,0.1545727550983429,99
1668407978.57956100,184584508,0,21.96601104736328,24.151020050048828,14.077607154846191,71.35253143310547,1.615036964416504,0.0,0.1552116572856903,99
1668407978.68011808,184685065,0,21.950199127197266,24.14842414855957,14.119036674499512,71.74694061279297,1.6236944198608398,0.0,0.15569233894348145,99
1668407978.77960610,184784553,0,21.8886775970459,24.01789665222168,13.701667785644531,72.12562561035156,1.6319832801818848,0.0,0.15539847314357758,99
1668407978.88015294,184885100,0,21.93045997619629,23.94976806640625,13.042777061462402,72.48993682861328,1.6399728059768677,0.0,0.15482200682163239,99
1668407978.97959113,184984538,0,22.019004821777344,24.021381378173828,12.939969062805176,72.8473892211914,1.647843599319458,0.0,0.15474355220794678,99
1668407979.08015203,185085099,0,22.09058952331543,24.081256866455078,12.843913078308105,73.20619201660156,1.6557698249816895,0.0,0.15498922765254974,99
1668407979.17965794,185184605,0,22.09729766845703,24.034147262573242,12.500810623168945,73.55174255371094,1.6634056568145752,0.0,0.15493786334991455,99
1668407979.28027105,185285218,0,22.176931381225586,24.072628021240234,12.222769737243652,73.89337158203125,1.670982003211975,0.0,0.15509554743766785,99
1668407979.37956810,185384515,0,22.180261611938477,24.057443618774414,12.099946975708008,74.2271499633789,1.6783852577209473,0.0,0.15513969957828522,99
1668407979.48011208,185485059,0,22.168018341064453,24.054033279418945,12.155561447143555,74.56666564941406,1.6859116554260254,0.0,0.15515649318695068,99
1668407979.57958198,185584529,0,22.21919059753418,24.12282943725586,12.240262031555176,74.90489959716797,1.6934268474578857,0.0,0.15552276372909546,99
1668407979.68008900,185685036,0,22.15594482421875,24.070175170898438,12.307164192199707,75.24852752685547,1.701040267944336,0.0,0.15553782880306244,99
1668407979.77954197,185784489,0,22.130355834960938,24.078947067260742,12.523520469665527,75.59447479248047,1.7086961269378662,0.0,0.15559449791908264,99
1668407979.88012600,185885073,0,22.113012313842773,23.990964889526367,12.101242065429688,75.93266296386719,1.7161744832992554,0.0,0.155186727643013,99
1668407979.97956014,185984507,0,22.194944381713867,23.99561309814453,11.62525749206543,76.2537841796875,1.723301649093628,0.0,0.15489278733730316,99
1668407980.08017397,186085121,0,22.306970596313477,24.08732795715332,11.47610855102539,76.57455444335938,1.730457067489624,0.0,0.15513594448566437,99
1668407980.18072009,186185667,0,22.34231948852539,24.083728790283203,11.212696075439453,76.88774108886719,1.7374544143676758,0.0,0.15530695021152496,99
1668407980.28075194,186285699,0,22.35478973388672,24.0428466796875,10.87460708618164,77.18993377685547,1.7442100048065186,0.0,0.15522925555706024,99
1668407980.38077712,186385724,0,22.372037887573242,23.97985076904297,10.383584976196289,77.47846221923828,1.7506649494171143,0.0,0.1548418253660202,99
1668407980.48073506,186485682,0,22.30055046081543,23.91412925720215,10.464296340942383,77.76903533935547,1.7571449279785156,0.0,0.15419843792915344,99
1668407980.58071303,186585660,0,22.362262725830078,24.043825149536133,10.893326759338379,78.07158660888672,1.7639106512069702,0.0,0.15436631441116333,99
1668407980.68077517,186685722,0,22.33830451965332,24.061126708984375,11.144669532775879,78.38137817382812,1.7708308696746826,0.0,0.15458710491657257,99
1668407980.77964115,186784588,0,22.31243133544922,24.03531837463379,11.142213821411133,78.68739318847656,1.7776588201522827,0.0,0.15462704002857208,99
1668407980.87976313,186884710,0,22.216699600219727,23.90058135986328,10.889951705932617,78.99028778076172,1.7843880653381348,0.0,0.15462704002857208,99
1668407980.97966313,186984610,0,22.271940231323242,23.982948303222656,11.065389633178711,79.29737854003906,1.7912275791168213,0.0,0.15462704002857208,99
1668407981.08012104,187085068,0,22.33370590209961,24.066131591796875,11.180575370788574,79.6093978881836,1.7981960773468018,0.0,0.15494957566261292,99
1668407981.17960215,187184549,0,22.31300926208496,23.977108001708984,10.753999710083008,79.9065933227539,1.804827332496643,0.0,0.15474234521389008,99
1668407981.28006911,187285016,0,22.31300926208496,23.97093391418457,10.727607727050781,80.20600128173828,1.8115079402923584,0.0,0.15454739332199097,99
1668407981.37964296,187384590,0,22.214494705200195,23.84334373474121,10.539484977722168,80.49754333496094,1.8179843425750732,0.0,0.15454739332199097,99
1668407981.48004413,187484991,0,22.18383026123047,23.8165225982666,10.564342498779297,80.79219818115234,1.8245209455490112,0.0,0.15454739332199097,99
1668407981.57961702,187584564,0,22.273334503173828,23.938297271728516,10.77670955657959,81.09029388427734,1.831160545349121,0.0,0.15449631214141846,99
1668407981.68011212,187685059,0,22.224077224731445,23.877944946289062,10.704896926879883,81.38915252685547,1.8378024101257324,0.0,0.15449631214141846,99
1668407981.77954316,187784490,0,22.186120986938477,23.854328155517578,10.797714233398438,81.68740844726562,1.8444194793701172,0.0,0.15449631214141846,99
1668407981.88018394,187885131,0,22.085416793823242,23.756732940673828,10.817832946777344,81.98985290527344,1.8510990142822266,0.0,0.15449631214141846,99
1668407981.97963095,187984578,0,22.06624984741211,23.752201080322266,10.854659080505371,82.28972625732422,1.8577160835266113,0.0,0.15532049536705017,99
1668407982.08011794,188085065,0,21.831470489501953,23.579317092895508,11.12840461730957,82.60037994384766,1.8644981384277344,0.0,0.15706180036067963,99
1668407982.17961001,188184557,0,21.72624969482422,23.529876708984375,11.351205825805664,82.91411590576172,1.871314525604248,0.0,0.15889295935630798,99
1668407982.28014803,188285095,0,21.792945861816406,23.762468338012695,12.374372482299805,83.25972747802734,1.8788464069366455,0.0,0.15916146337985992,99
1668407982.37961602,188384563,0,21.600522994995117,23.522672653198242,11.95332145690918,83.59001922607422,1.8859808444976807,0.0,0.16080456972122192,99
1668407982.48008108,188485028,0,21.554428100585938,23.62662124633789,12.818134307861328,83.94776916503906,1.8936920166015625,0.0,0.1616610884666443,99
1668407982.57967710,188584624,0,21.591033935546875,23.803281784057617,13.708418846130371,84.3270492553711,1.9018810987472534,0.0,0.16137871146202087,98
1668407982.68011594,188685063,0,21.647138595581055,23.8898983001709,13.963785171508789,84.71666717529297,1.9103151559829712,0.0,0.1606125831604004,98
1668407982.77963305,188784580,0,21.57139015197754,23.801816940307617,13.900837898254395,85.10096740722656,1.918605089187622,0.0,0.1604527235031128,98
1668407982.88006997,188885017,0,21.444129943847656,23.69619369506836,13.993517875671387,85.49140930175781,1.9269777536392212,0.0,0.16093625128269196,98
1668407982.97954202,188984489,0,21.45160484313965,23.807031631469727,14.656397819519043,85.89640808105469,1.9356656074523926,0.0,0.16070985794067383,98
1668407983.08006310,189085010,0,21.549541473388672,24.05542755126953,15.758743286132812,86.33647155761719,1.9451487064361572,0.0,0.15901559591293335,98
1668407983.17956305,189184510,0,21.714845657348633,24.126401901245117,15.16552734375,86.75566864013672,1.9542515277862549,0.0,0.15901559591293335,98
1668407983.28011513,189285062,0,21.84977149963379,24.181880950927734,14.665911674499512,87.1653060913086,1.9632019996643066,0.0,0.15901559591293335,98
1668407983.37958694,189384534,0,21.834440231323242,24.079147338867188,14.116272926330566,87.55541229248047,1.971719741821289,0.0,0.15901559591293335,98
1668407983.48026109,189485208,0,21.86807632446289,24.12697982788086,14.205543518066406,87.95270538330078,1.98040771484375,0.0,0.15901559591293335,98
1668407983.57960510,189584552,0,21.927778244018555,24.227190017700195,14.460296630859375,88.35177612304688,1.9891585111618042,0.0,0.15901559591293335,98
1668407983.68018103,189685128,0,21.95489501953125,24.21839141845703,14.23442554473877,88.7494888305664,1.9978902339935303,0.0,0.15901559591293335,98
1668407983.77962494,189784572,0,21.94080924987793,24.1630916595459,13.923547744750977,89.1341323852539,2.0063297748565674,0.0,0.15960603952407837,98
1668407983.88017201,189885119,0,21.866731643676758,24.062339782714844,13.76120376586914,89.51850891113281,2.0147347450256348,0.0,0.15955054759979248,98
1668407983.97963595,189984583,0,21.84977149963379,24.04546546936035,13.772865295410156,89.89881134033203,2.0230441093444824,0.0,0.15942174196243286,98
1668407984.08012509,190085072,0,21.889446258544922,24.085813522338867,13.76795482635498,90.28340911865234,2.0314629077911377,0.0,0.1595274657011032,98
1668407984.17958212,190184529,0,21.872962951660156,24.018827438354492,13.47334098815918,90.65567016601562,2.0396053791046143,0.0,0.15926750004291534,98
1668407984.28012514,190285072,0,21.923656463623047,24.09418487548828,13.612566947937012,91.03587341308594,2.047940969467163,0.0,0.15945030748844147,98
1668407984.37960005,190384547,0,22.015554428100586,24.209068298339844,13.694300651550293,91.414306640625,2.056272506713867,0.0,0.160177081823349,98
1668407984.48009610,190485043,0,22.093942642211914,24.29340171813965,13.646734237670898,91.7952880859375,2.064689874649048,0.0,0.16117103397846222,98
1668407984.57962298,190584570,0,22.23835563659668,24.509187698364258,14.089574813842773,92.18485260009766,2.0733530521392822,0.0,0.16117103397846222,98
1668407984.68012810,190685075,0,22.32843589782715,24.609357833862305,14.152180671691895,92.57998657226562,2.0821757316589355,0.0,0.16117103397846222,98
1668407984.77957296,190784520,0,22.399444580078125,24.693126678466797,14.231356620788574,92.97312927246094,2.090981960296631,0.0,0.16117103397846222,98
1668407984.88012314,190885070,0,22.34913444519043,24.59897232055664,13.846518516540527,93.35990905761719,2.099626064300537,0.0,0.1624840646982193,98
1668407984.97954798,190984495,0,22.309654235839844,24.623817443847656,14.24240493774414,93.75328826904297,2.1084022521972656,0.0,0.1624840646982193,98
1668407985.08013916,191085086,0,22.352008819580078,24.693347930908203,14.409659385681152,94.15595245361328,2.1174025535583496,0.0,0.1624840646982193,98
1668407985.17959499,191184542,0,22.328689575195312,24.663681030273438,14.37058162689209,94.55299377441406,2.126267910003662,0.0,0.1624840646982193,98
1668407985.28015113,191285098,0,22.280712127685547,24.639404296875,14.516457557678223,94.95850372314453,2.135303020477295,0.0,0.1624840646982193,98
1668407985.37962294,191384570,0,22.251678466796875,24.615257263183594,14.54653263092041,95.36046600341797,2.144247531890869,0.0,0.1624840646982193,98
1668407985.48020506,191485152,0,22.256948471069336,24.607463836669922,14.466126441955566,95.7646713256836,2.1532440185546875,0.0,0.1624840646982193,98
1668407985.57970095,191584648,0,22.22503662109375,24.573413848876953,14.462138175964355,96.1644058227539,2.162128210067749,0.0,0.16238102316856384,98
1668407985.68012500,191685072,0,22.03213119506836,24.332866668701172,14.16875171661377,96.55961608886719,2.170835494995117,0.0,0.16238102316856384,98
1668407985.77960205,191784549,0,21.958538055419922,24.143611907958984,13.456461906433105,96.9315414428711,2.179002523422241,0.0,0.16238102316856384,98
1668407985.88012695,191885074,0,21.878520965576172,24.03230094909668,13.263736724853516,97.30194091796875,2.1871063709259033,0.0,0.16238102316856384,98
1668407985.97951603,191984463,0,21.855192184448242,23.971540451049805,13.033228874206543,97.66178894042969,2.1949708461761475,0.0,0.16238102316856384,98
1668407986.08006096,192085008,0,21.924711227416992,24.029205322265625,12.960224151611328,98.02379608154297,2.2029078006744385,0.0,0.16238102316856384,98
1668407986.17958212,192184529,0,21.973581314086914,24.11774253845215,13.204507827758789,98.38885498046875,2.2109293937683105,0.0,0.16238102316856384,98
1668407986.28013110,192285078,0,21.99610137939453,24.14120864868164,13.21033763885498,98.75782775878906,2.219045400619507,0.0,0.16238102316856384,98
1668407986.37965298,192384600,0,22.030601501464844,24.14337921142578,13.045538902282715,99.11852264404297,2.226991891860962,0.0,0.16195403039455414,98
1668407986.48010015,192485047,0,22.045263290405273,24.191551208496094,13.259441375732422,99.48851013183594,2.2351484298706055,0.0,0.16186872124671936,98
1668407986.57960010,192584547,0,22.118091583251953,24.280799865722656,13.328798294067383,99.85692596435547,2.2432971000671387,0.0,0.1622583568096161,98
1668407986.68018508,192685132,0,22.11703872680664,24.273033142089844,13.265885353088379,100.22761535644531,2.251495599746704,0.0,0.16252171993255615,98
1668407986.77961016,192784557,0,22.08272933959961,24.261484146118164,13.405928611755371,100.59789276123047,2.2596724033355713,0.0,0.16252171993255615,98
1668407986.88016295,192885110,0,22.029735565185547,24.213586807250977,13.425468444824219,100.97291564941406,2.2679340839385986,0.0,0.1626647412776947,98
1668407986.97962904,192984576,0,22.04047203063965,24.243253707885742,13.545766830444336,101.34720611572266,2.276183605194092,0.0,0.16261765360832214,98
1668407987.08014894,193085096,0,22.044689178466797,24.286142349243164,13.808771133422852,101.73280334472656,2.2846839427948,0.0,0.16232097148895264,98
1668407987.17956114,193184508,0,22.024944305419922,24.25860023498535,13.769489288330078,102.11306762695312,2.2930593490600586,0.0,0.16221778094768524,98
1668407987.28023696,193285184,0,21.998306274414062,24.240982055664062,13.824115753173828,102.49969482421875,2.3015644550323486,0.0,0.16222919523715973,98
1668407987.37960410,193384551,0,21.907554626464844,24.12070655822754,13.581674575805664,102.8746109008789,2.3097779750823975,0.0,0.16295138001441956,98
1668407987.48010111,193485048,0,21.9105281829834,24.161026000976562,13.775934219360352,103.25916290283203,2.3182036876678467,0.0,0.1633644849061966,98
1668407987.57951593,193584463,0,21.934772491455078,24.20352554321289,13.877514839172363,103.64246368408203,2.326611280441284,0.0,0.16348403692245483,98
1668407987.68013096,193685078,0,21.95453453063965,24.222137451171875,13.870695114135742,104.03015899658203,2.33512282371521,0.0,0.16348153352737427,98
1668407987.77957416,193784521,0,21.91023826599121,24.138818740844727,13.632003784179688,104.40675354003906,2.343374013900757,0.0,0.16348153352737427,98
1668407987.88012314,193885070,0,21.905256271362305,24.09284782409668,13.381275177001953,104.78052520751953,2.3515615463256836,0.0,0.16348153352737427,98
1668407987.97960901,193984556,0,21.900848388671875,24.091299057006836,13.398768424987793,105.1507797241211,2.359670400619507,0.0,0.16348153352737427,98
1668407988.08010197,194085049,0,21.979045867919922,24.17772674560547,13.44694995880127,105.52622985839844,2.36792254447937,0.0,0.16350772976875305,98
1668407988.17967010,194184617,0,21.965436935424805,24.145427703857422,13.344447135925293,105.89533996582031,2.376030206680298,0.0,0.16336311399936676,98
1668407988.28014612,194285093,0,21.96744728088379,24.130176544189453,13.254222869873047,106.26529693603516,2.384157180786133,0.0,0.16317279636859894,98
1668407988.37961817,194384565,0,21.943300247192383,24.07973861694336,13.093106269836426,106.6270980834961,2.3920962810516357,0.0,0.16317279636859894,98
1668407988.48011112,194485058,0,21.94985008239746,24.09983253479004,13.176102638244629,106.99493408203125,2.40017032623291,0.0,0.16317279636859894,98
1668407988.57964396,194584591,0,22.041715621948242,24.205596923828125,13.233354568481445,107.36083984375,2.408235549926758,0.0,0.16351719200611115,98
1668407988.68014598,194685093,0,22.080909729003906,24.217248916625977,13.038787841796875,107.72486877441406,2.416273832321167,0.0,0.16384488344192505,98
1668407988.77968597,194784633,0,22.060211181640625,24.12662124633789,12.628170013427734,108.07406616210938,2.4239773750305176,0.0,0.1636350154876709,98
1668407988.88014102,194885088,0,22.08991813659668,24.159563064575195,12.647503852844238,108.42700958251953,2.4317739009857178,0.0,0.163640558719635,98
1668407988.97958708,194984534,0,22.124032974243164,24.130159378051758,12.270337104797363,108.7659912109375,2.4392733573913574,0.0,0.16349391639232635,98
1668407989.08015704,195085104,0,22.195234298706055,24.180160522460938,12.13008975982666,109.10488891601562,2.4467952251434326,0.0,0.16363655030727386,98
1668407989.17956305,195184510,0,22.203859329223633,24.162992477416992,11.970813751220703,109.43546295166016,2.4541351795196533,0.0,0.16365912556648254,98
1668407989.28009415,195285041,0,22.262996673583984,24.298702239990234,12.384671211242676,109.78134155273438,2.4618353843688965,0.0,0.1643729954957962,98
1668407989.37960696,195384554,0,22.12978172302246,24.088090896606445,11.952094078063965,110.11174774169922,2.469147205352783,0.0,0.1638464778661728,98
1668407989.48008704,195485034,0,22.127960205078125,24.122220993041992,12.18901252746582,110.45198822021484,2.4766759872436523,0.0,0.16361132264137268,98
1668407989.57955408,195584501,0,22.131793975830078,24.174205780029297,12.483318328857422,110.79692840576172,2.4843101501464844,0.0,0.16361132264137268,98
1668407989.68011904,195685066,0,22.153932571411133,24.2076416015625,12.5523681640625,111.14759826660156,2.492079019546509,0.0,0.16361132264137268,98
1668407989.77973509,195784682,0,22.157957077026367,24.183820724487305,12.376214981079102,111.4900894165039,2.4996678829193115,0.0,0.16369006037712097,98
1668407989.88013315,195885080,0,22.086469650268555,24.12107276916504,12.429612159729004,111.83676147460938,2.507324695587158,0.0,0.16369006037712097,98
1668407989.97966409,195984611,0,22.109373092651367,24.192241668701172,12.737730026245117,112.18894958496094,2.5151114463806152,0.0,0.16351960599422455,98
1668407990.08015108,196085098,0,22.14425277709961,24.2265682220459,12.734353065490723,112.54443359375,2.5229835510253906,0.0,0.16351960599422455,98
1668407990.17963409,196184581,0,22.126174926757812,24.210247039794922,12.745094299316406,112.89665985107422,2.5307769775390625,0.0,0.16351960599422455,98
1668407990.28018117,196285128,0,22.12537384033203,24.207904815673828,12.747549057006836,113.25272369384766,2.5386550426483154,0.0,0.16336718201637268,98
1668407990.38081694,196385764,0,22.080238342285156,24.153474807739258,12.676352500915527,113.60711669921875,2.546480178833008,0.0,0.16355150938034058,98
1668407990.48076797,196485715,0,22.04056739807129,24.090063095092773,12.531192779541016,113.95506286621094,2.5541491508483887,0.0,0.16355150938034058,98
1668407990.57958913,196584536,0,22.069698333740234,24.14950942993164,12.708882331848145,114.30380249023438,2.5618457794189453,0.0,0.16365015506744385,98
1668407990.67978716,196684734,0,22.12959098815918,24.233055114746094,12.853425025939941,114.6617202758789,2.5697665214538574,0.0,0.16365015506744385,98
1668407990.77953601,196784483,0,22.144636154174805,24.21255111694336,12.621725082397461,115.011474609375,2.577511787414551,0.0,0.1638377159833908,98
1668407990.88028002,196885227,0,22.11358642578125,24.15366554260254,12.463677406311035,115.36028289794922,2.5852251052856445,0.0,0.1636819690465927,98
1668407990.97957897,196984526,0,22.10988426208496,24.14763641357422,12.449458122253418,115.7037124633789,2.592818260192871,0.0,0.1636819690465927,98
1668407991.08008409,197085031,0,22.19935417175293,24.286149978637695,12.749083518981934,116.0596694946289,2.6007204055786133,0.0,0.1636819690465927,98
1668407991.17956805,197184515,0,22.168975830078125,24.232711791992188,12.591958045959473,116.40766906738281,2.6084353923797607,0.0,0.16389316320419312,98
1668407991.28011894,197285066,0,22.20663833618164,24.23746109008789,12.376827239990234,116.75338745117188,2.61611270904541,0.0,0.1640826016664505,98
1668407991.37961507,197384562,0,22.1088924407959,24.1264705657959,12.29611587524414,117.09325408935547,2.623626708984375,0.0,0.1640826016664505,98
1668407991.48012495,197485072,0,22.143966674804688,24.155900955200195,12.276782035827637,117.43604278564453,2.6312174797058105,0.0,0.16388116776943207,98
1668407991.57963395,197584581,0,22.157766342163086,24.16106414794922,12.233817100524902,117.77422332763672,2.6387109756469727,0.0,0.16375084221363068,98
1668407991.68017602,197685123,0,22.212963104248047,24.22340965270996,12.261131286621094,118.11668395996094,2.646318197250366,0.0,0.16396912932395935,98
1668407991.77969599,197784643,0,22.129793167114258,24.112356185913086,12.091079711914062,118.45095825195312,2.6537156105041504,0.0,0.16396912932395935,98
1668407991.88016200,197885109,0,22.108795166015625,24.089250564575195,12.078225135803223,118.78800964355469,2.6611673831939697,0.0,0.16396912932395935,98
1668407991.97957897,197984526,0,22.117324829101562,24.054454803466797,11.813993453979492,119.11433410644531,2.6683847904205322,0.0,0.16396912932395935,98
1668407992.08011794,198085065,0,22.141761779785156,24.15004539489746,12.247934341430664,119.45641326904297,2.6759591102600098,0.0,0.16396912932395935,98
1668407992.17953014,198184477,0,22.101226806640625,24.09632682800293,12.167530059814453,119.79238891601562,2.683384656906128,0.0,0.16396912932395935,98
1668407992.28007197,198285019,0,22.114164352416992,24.130922317504883,12.296730041503906,120.13589477539062,2.690980911254883,0.0,0.16400761902332306,98
1668407992.37956810,198384515,0,22.055898666381836,24.0277099609375,12.02267837524414,120.46820068359375,2.698310136795044,0.0,0.16400761902332306,98
1668407992.48013210,198485079,0,22.10228157043457,24.061710357666016,11.947183609008789,120.80192565917969,2.705686330795288,0.0,0.16400761902332306,98
1668407992.57956409,198584511,0,22.144699096679688,24.134807586669922,12.124497413635254,121.13687133789062,2.7131035327911377,0.0,0.16413941979408264,98
1668407992.68014002,198685087,0,22.13495635986328,24.100793838500977,11.981863021850586,121.47164916992188,2.7205138206481934,0.0,0.16406774520874023,98
1668407992.77957416,198784521,0,22.10237693786621,24.056180953979492,11.908514976501465,121.80049133300781,2.7277820110321045,0.0,0.16406774520874023,98
1668407992.88013697,198885084,0,22.089628219604492,24.01090431213379,11.710265159606934,122.12773132324219,2.7350106239318848,0.0,0.16406774520874023,98
1668407992.97966409,198984611,0,22.092506408691406,24.024709701538086,11.776860237121582,122.4533462524414,2.742204427719116,0.0,0.16406774520874023,98
1668407993.08012104,199085068,0,22.103717803955078,24.048961639404297,11.856344223022461,122.78421783447266,2.7495179176330566,0.0,0.16406774520874023,98
1668407993.17965412,199184601,0,22.13591766357422,24.06127166748047,11.73911190032959,123.10881042480469,2.7567028999328613,0.0,0.16401194036006927,98
1668407993.28016996,199285117,0,22.077747344970703,24.016340255737305,11.819825172424316,123.43885803222656,2.7639896869659424,0.0,0.16401194036006927,98
1668407993.37966609,199384613,0,22.100460052490234,24.04222297668457,11.83915901184082,123.7660903930664,2.77122163772583,0.0,0.16401194036006927,98
1668407993.48011494,199485062,0,22.083690643310547,24.044960021972656,11.95263957977295,124.09962463378906,2.7785873413085938,0.0,0.1640867441892624,98
1668407993.57969713,199584644,0,22.125469207763672,24.052316665649414,11.744329452514648,124.42451477050781,2.785775661468506,0.0,0.1640661656856537,98
1668407993.68014097,199685088,0,22.05992317199707,23.965673446655273,11.615743637084961,124.74847412109375,2.792922258377075,0.0,0.1640661656856537,98
1668407993.77951407,199784461,0,22.15096092224121,24.092660903930664,11.834861755371094,125.07534790039062,2.8001627922058105,0.0,0.1640661656856537,98
1668407993.88009906,199885046,0,22.00175666809082,23.891193389892578,11.516311645507812,125.39713287353516,2.8072426319122314,0.0,0.1640661656856537,98
1668407993.98068094,199985628,0,22.109468460083008,24.005550384521484,11.562958717346191,125.72023010253906,2.8143861293792725,0.0,0.16397890448570251,98
1668407994.08073401,200085681,0,22.123456954956055,24.033931732177734,11.645204544067383,126.04386901855469,2.8215460777282715,0.0,0.16405680775642395,98
1668407994.17960501,200184552,0,22.12163734436035,24.054365158081055,11.780850410461426,126.36746215820312,2.828704357147217,0.0,0.16405680775642395,98
1668407994.27970695,200284654,0,22.132030487060547,24.05904197692871,11.746001243591309,126.69412231445312,2.8359339237213135,0.0,0.16405680775642395,98
1668407994.37958217,200384529,0,22.139080047607422,24.01016616821289,11.41319751739502,127.01078796386719,2.842944622039795,0.0,0.1639406383037567,98
1668407994.48018003,200485127,0,22.11933708190918,23.929719924926758,11.077153205871582,127.32035064697266,2.849792003631592,0.0,0.1634339690208435,98
1668407994.57959414,200584541,0,22.159778594970703,23.981252670288086,11.153875350952148,127.62838745117188,2.8566181659698486,0.0,0.1633041352033615,98
1668407994.68015313,200685100,0,22.235097885131836,24.058691024780273,11.146510124206543,127.93976593017578,2.863541841506958,0.0,0.1636020988225937,98
1668407994.77962995,200784577,0,22.235671997070312,24.039451599121094,11.016389846801758,128.24420166015625,2.8703110218048096,0.0,0.1637360006570816,98
1668407994.88015509,200885102,0,22.162364959716797,23.933452606201172,10.846065521240234,128.54708862304688,2.877023696899414,0.0,0.1632930487394333,98
1668407994.97963214,200984579,0,22.140037536621094,23.90085220336914,10.783154487609863,128.84487915039062,2.8836166858673096,0.0,0.1632930487394333,98
1668407995.08028817,201085235,0,22.207788467407227,24.027475357055664,11.12840461730957,129.15626525878906,2.8905317783355713,0.0,0.16351735591888428,98
1668407995.17962813,201184575,0,22.16131019592285,23.970470428466797,11.06402587890625,129.4615936279297,2.8972983360290527,0.0,0.16351735591888428,98
1668407995.28008413,201285031,0,22.194276809692383,23.980051040649414,10.924323081970215,129.76644897460938,2.904064416885376,0.0,0.16346780955791473,98
1668407995.37963414,201384581,0,22.12594985961914,23.80286407470703,10.258374214172363,130.05014038085938,2.910341501235962,0.0,0.16346780955791473,98
1668407995.48008704,201485034,0,22.197629928588867,23.841657638549805,10.09418773651123,130.3318328857422,2.9165942668914795,0.0,0.16286876797676086,98
1668407995.57957315,201584520,0,22.265954971313477,23.927478790283203,10.203134536743164,130.6138153076172,2.92287278175354,0.0,0.16284440457820892,98
1668407995.68008614,201685033,0,22.277359008789062,23.91731834411621,10.07516098022461,130.8951416015625,2.929140090942383,0.0,0.16277243196964264,98
1668407995.77958107,201784528,0,22.240751266479492,23.852581024169922,9.92632007598877,131.16949462890625,2.935242176055908,0.0,0.1623794585466385,98
1668407995.88010812,201885055,0,22.11349105834961,23.77226448059082,10.215410232543945,131.45477294921875,2.9415507316589355,0.0,0.1623794585466385,98
1668407995.97957301,201984520,0,22.166635513305664,23.877931594848633,10.534812927246094,131.74586486816406,2.9480032920837402,0.0,0.16244208812713623,98
1668407996.08016896,202085116,0,22.17214012145996,23.895654678344727,10.613137245178223,132.04244995117188,2.9545793533325195,0.0,0.1623944789171219,98
1668407996.17933512,202184282,0,22.123456954956055,23.887216567993164,10.860489845275879,132.34164428710938,2.961198568344116,0.0,0.16240155696868896,98
1668407996.28020501,202285152,0,22.126237869262695,23.875734329223633,10.767809867858887,132.64337158203125,2.967874765396118,0.0,0.16247469186782837,98
1668407996.37963104,202384578,0,22.086469650268555,23.823915481567383,10.669605255126953,132.9380645751953,2.974383592605591,0.0,0.16284076869487762,98
1668407996.48017406,202485121,0,21.971858978271484,23.728681564331055,10.730676651000977,133.23777770996094,2.980968952178955,0.0,0.16371966898441315,98
1668407996.57960510,202584552,0,22.068260192871094,23.884994506835938,11.105694770812988,133.54454040527344,2.987738609313965,0.0,0.16358578205108643,98
1668407996.68013811,202685085,0,22.030506134033203,23.837915420532227,11.038179397583008,133.85281372070312,2.994529962539673,0.0,0.16374169290065765,98
1668407996.77960205,202784549,0,22.033538818359375,23.890548706054688,11.352842330932617,134.16650390625,3.001441717147827,0.0,0.1635722517967224,98
1668407996.88006616,202885013,0,21.98776626586914,23.823421478271484,11.20573902130127,134.479248046875,3.0083181858062744,0.0,0.16381390392780304,98
1668407996.97955799,202984505,0,21.953458786010742,23.881118774414062,11.776246070861816,134.8046112060547,3.015460968017578,0.0,0.1636904925107956,98
1668407997.08008003,203085027,0,22.0928897857666,23.999401092529297,11.647046089172363,135.12991333007812,3.0226478576660156,0.0,0.1636904925107956,98
1668407997.17969799,203184645,0,21.99581527709961,23.913650512695312,11.728065490722656,135.45452880859375,3.029788017272949,0.0,0.16352523863315582,98
1668407997.28010011,203285047,0,21.98134422302246,23.945960998535156,12.03894329071045,135.79031372070312,3.0371692180633545,0.0,0.16318848729133606,98
1668407997.37957406,203384521,0,21.999839782714844,23.963563919067383,12.063187599182129,136.1236572265625,3.0445027351379395,0.0,0.16278651356697083,98
1668407997.48010802,203485055,0,21.897014617919922,23.879426956176758,12.167837142944336,136.46348571777344,3.0519440174102783,0.0,0.16292227804660797,98
1668407997.57960105,203584548,0,21.868820190429688,23.923477172851562,12.621996879577637,136.81234741210938,3.059573173522949,0.0,0.16278387606143951,98
1668407997.68013906,203685086,0,21.89155387878418,24.04235076904297,13.280000686645508,137.18324279785156,3.067692756652832,0.0,0.16195757687091827,98
1668407997.77962613,203784573,0,21.913305282592773,24.07302474975586,13.411044120788574,137.55389404296875,3.075814962387085,0.0,0.16104035079479218,98
1668407997.88016796,203885115,0,21.835588455200195,24.037479400634766,13.724989891052246,137.93724060058594,3.0841856002807617,0.0,0.16042931377887726,98
1668407997.97961402,203984561,0,21.85552215576172,24.12133026123047,14.216012001037598,138.32997131347656,3.092768907546997,0.0,0.15938423573970795,98
1668407998.08020306,204085150,0,21.912250518798828,24.23202133178711,14.702125549316406,138.7407989501953,3.101771116256714,0.0,0.15778474509716034,98
1668407998.17967105,204184618,0,21.964765548706055,24.275482177734375,14.644736289978027,139.1454620361328,3.110659599304199,0.0,0.15778474509716034,98
1668407998.28012300,204285070,0,22.052066802978516,24.478899002075195,15.380656242370605,139.5746612548828,3.120124578475952,0.0,0.15778474509716034,98
1668407998.37959599,204384543,0,22.043251037597656,24.47913932800293,15.438045501708984,140.0012664794922,3.129528522491455,0.0,0.15778474509716034,98
