timestamp,TimeUS,Instance,Volt,VoltR,Curr,CurrTot,EnrgTot,Temp,Res,RemPct
1668409708.67947602,64599564,0,24.784915924072266,24.860769271850586,0.24685373902320862,6.275731563568115,0.1560293585062027,0.0,0.30728161334991455,99
1668409708.77947307,64699561,0,24.81852912902832,24.915241241455078,0.31473156809806824,6.2844743728637695,0.1562463492155075,0.0,0.30728161334991455,99
1668409708.87949085,64799579,0,24.829082489013672,24.938072204589844,0.3544566333293915,6.294322967529297,0.15649087727069855,0.0,0.3074849545955658,99
1668409708.97948384,64899572,0,24.853803634643555,24.978174209594727,0.4044795334339142,6.305558681488037,0.15677012503147125,0.0,0.3074849545955658,99
1668409709.07972288,64999811,0,24.80474281311035,24.892784118652344,0.2863273322582245,6.313530921936035,0.1569678783416748,0.0,0.3074849545955658,99
1668409709.17946386,65099552,0,24.788928985595703,24.874706268310547,0.27896198630332947,6.321261405944824,0.15715950727462769,0.0,0.3074849545955658,99
1668409709.27958488,65199673,0,24.833873748779297,24.946826934814453,0.3673459589481354,6.331477165222168,0.15741319954395294,0.0,0.3074849545955658,99
1668409709.37950706,65299595,0,24.855146408081055,24.984235763549805,0.4198239743709564,6.343132495880127,0.15770289301872253,0.0,0.3074849545955658,99
1668409709.47967887,65399767,0,24.850738525390625,24.975393295288086,0.40540021657943726,6.354413986206055,0.15798324346542358,0.0,0.3074849545955658,99
1668409709.57952189,65499610,0,24.78733253479004,24.867122650146484,0.25949159264564514,6.361608028411865,0.15816156566143036,0.0,0.3074849545955658,99
1668409709.67952085,65599609,0,24.81796646118164,24.920822143554688,0.33450886607170105,6.3709025382995605,0.15839223563671112,0.0,0.3074849545955658,99
1668409709.77964997,65699738,0,24.851886749267578,24.977108001708984,0.40724149346351624,6.382233142852783,0.15867382287979126,0.0,0.3074849545955658,99
1668409709.87966800,65799756,0,24.83511734008789,24.949674606323242,0.37256309390068054,6.392584800720215,0.1589309126138687,0.0,0.3074849545955658,99
1668409709.97946405,65899552,0,24.851696014404297,24.977766036987305,0.41000354290008545,6.403951644897461,0.15921339392662048,0.0,0.3074849545955658,99
1668409710.07959485,65999683,0,24.821895599365234,24.925790786743164,0.3378846347332001,6.4133501052856445,0.15944668650627136,0.0,0.3074849545955658,99
1668409710.17947483,66099563,0,24.787395477294922,24.87015151977539,0.2691415250301361,6.420817852020264,0.15963178873062134,0.0,0.3074849545955658,99
1668409710.27949095,66199579,0,24.837993621826172,24.95396614074707,0.37716642022132874,6.431295871734619,0.1598920375108719,0.0,0.3074849545955658,99
1668409710.37954783,66299636,0,24.84086799621582,24.961559295654297,0.39251086115837097,6.442207336425781,0.16016308963298798,0.0,0.3074849545955658,99
1668409710.47953486,66399623,0,24.85685920715332,24.986661911010742,0.4221426844596863,6.453932762145996,0.16045455634593964,0.0,0.3074849545955658,99
1668409710.57950187,66499590,0,24.8022518157959,24.888689041137695,0.2811101973056793,6.461739540100098,0.1606481820344925,0.0,0.3074849545955658,99
1668409710.67951989,66599608,0,24.792858123779297,24.878446578979492,0.2783482074737549,6.469473361968994,0.16083993017673492,0.0,0.3074849545955658,99
1668409710.77949595,66699584,0,24.83281898498535,24.945301055908203,0.3658115267753601,6.479633331298828,0.16109222173690796,0.0,0.3074849545955658,99
1668409710.87959194,66799680,0,24.85409164428711,24.97987937927246,0.40908288955688477,6.491008758544922,0.16137494146823883,0.0,0.3074849545955658,99
1668409710.97951984,66899608,0,24.761524200439453,25.01405143737793,0.8368859887123108,6.514240264892578,0.16195020079612732,0.0,0.3017468750476837,99
1668409711.07955098,66999639,0,24.43388557434082,25.048303604125977,2.1991653442382812,6.575352668762207,0.1634434163570404,0.0,0.2793872356414795,99
1668409711.17959189,67099680,0,24.629182815551758,24.999629974365234,1.3355803489685059,6.6124701499938965,0.16435758769512177,0.0,0.2773672342300415,99
1668409711.27972984,67199818,0,24.708433151245117,25.02699851989746,1.1612675189971924,6.644774913787842,0.1651557832956314,0.0,0.2743251323699951,99
1668409711.37950206,67299590,0,24.650615692138672,25.015159606933594,1.339058518409729,6.681889057159424,0.16607066988945007,0.0,0.27223944664001465,99
1668409711.47946692,67399555,0,24.685434341430664,25.041601181030273,1.3233047723770142,6.718632698059082,0.16697770357131958,0.0,0.26914891600608826,99
1668409711.57947493,67499563,0,24.667705535888672,24.993602752685547,1.2125178575515747,6.752323150634766,0.16780877113342285,0.0,0.2687779664993286,99
1668409711.67949986,67599588,0,24.622379302978516,24.918195724487305,1.0873072147369385,6.782536506652832,0.1685526967048645,0.0,0.27206286787986755,99
1668409711.77940989,67699498,0,24.670772552490234,24.98776626586914,1.1670984029769897,6.814929008483887,0.16935184597969055,0.0,0.2716084420681,99
1668409711.87956095,67799649,0,24.674604415893555,24.99787712097168,1.1941046714782715,6.848151683807373,0.1701716035604477,0.0,0.2707238793373108,99
1668409711.97950006,67899588,0,24.696165084838867,25.02500343322754,1.2146660089492798,6.881874084472656,0.17100441455841064,0.0,0.2707238793373108,99
1668409712.07951403,67999602,0,24.64394187927246,24.940296173095703,1.0946725606918335,6.912288665771484,0.17175394296646118,0.0,0.2707238793373108,99
1668409712.17954683,68099635,0,24.672231674194336,24.98931312561035,1.1729974746704102,6.94488525390625,0.17255817353725433,0.0,0.2703173756599426,99
1668409712.27952600,68199614,0,24.681026458740234,25.00149154663086,1.185511589050293,6.977811336517334,0.173370823264122,0.0,0.2703173756599426,99
1668409712.37954688,68299635,0,24.652565002441406,24.957931518554688,1.1296578645706177,7.009200096130371,0.17414464056491852,0.0,0.2703173756599426,99
1668409712.47958088,68399669,0,24.692811965942383,25.022151947021484,1.218348741531372,7.043056964874268,0.17498065531253815,0.0,0.2703173756599426,99
1668409712.57949495,68499583,0,24.61969566345215,24.904571533203125,1.053856372833252,7.07230806350708,0.1757008135318756,0.0,0.2703173756599426,99
1668409712.67956305,68599651,0,24.66693878173828,24.981178283691406,1.1640294790267944,7.104666709899902,0.17649900913238525,0.0,0.26995885372161865,99
1668409712.77947187,68699560,0,24.68140983581543,25.003602981567383,1.1934908628463745,7.137791156768799,0.1773165762424469,0.0,0.26995885372161865,99
1668409712.87961292,68799701,0,24.6632022857666,24.973936080932617,1.1499125957489014,7.16978120803833,0.17810554802417755,0.0,0.2702234387397766,99
1668409712.97952485,68899613,0,24.689170837402344,25.016820907592773,1.2125178575515747,7.20343542098999,0.1789364367723465,0.0,0.2702234387397766,99
1668409713.07962584,68999714,0,24.65178871154785,24.954477310180664,1.1201443672180176,7.234584331512451,0.17970432341098785,0.0,0.2702234387397766,99
1668409713.17946005,69099548,0,24.613658905029297,24.89495277404785,1.0409669876098633,7.263453960418701,0.18041490018367767,0.0,0.2702234387397766,99
1668409713.27964997,69199738,0,24.666078567504883,24.977476119995117,1.1523677110671997,7.295527935028076,0.18120603263378143,0.0,0.2702234387397766,99
1668409713.37949204,69299580,0,24.673072814941406,24.990524291992188,1.1747705936431885,7.32811164855957,0.1820099651813507,0.0,0.2702234387397766,99
1668409713.47954988,69399638,0,24.694345474243164,25.027469635009766,1.2327725887298584,7.362378120422363,0.18285615742206573,0.0,0.2702234387397766,99
1668409713.57953787,69499626,0,24.32368278503418,24.99764633178711,3.910684823989868,7.470985412597656,0.18549789488315582,0.0,0.17233909666538239,99
1668409713.67955899,69599647,0,23.656906127929688,24.984106063842773,9.234286308288574,7.727611541748047,0.19156886637210846,0.0,0.1437252163887024,99
1668409713.77954793,69699636,0,22.915386199951172,24.796464920043945,13.0338773727417,8.089653015136719,0.1998651772737503,0.0,0.14432232081890106,99
1668409713.87957692,69799665,0,22.388317108154297,24.7343692779541,16.16179084777832,8.538681030273438,0.20991817116737366,0.0,0.14516040682792664,99
1668409713.97991300,69900001,0,22.3447265625,24.42705726623535,14.074230194091797,8.93104362487793,0.21868540346622467,0.0,0.14795345067977905,99
1668409714.07976103,69999849,0,22.104101181030273,24.248180389404297,14.143587112426758,9.323355674743652,0.22735710442066193,0.0,0.15159370005130768,99
1668409714.17955184,70099640,0,21.893661499023438,24.26847267150879,15.353034973144531,9.748971939086914,0.23667539656162262,0.0,0.1546802967786789,99
1668409714.27964687,70199735,0,21.843734741210938,24.350624084472656,15.982156753540039,10.193320274353027,0.24638162553310394,0.0,0.1568554788827896,99
1668409714.37961888,70299707,0,21.8298397064209,24.37885284423828,16.07207679748535,10.639735221862793,0.2561267912387848,0.0,0.15859882533550262,99
1668409714.47959495,70399683,0,21.893278121948242,24.502965927124023,16.382341384887695,11.094727516174316,0.26608806848526,0.0,0.1592988520860672,99
1668409714.57955790,70499646,0,21.836261749267578,24.577007293701172,17.191913604736328,11.571955680847168,0.27650895714759827,0.0,0.1594206541776657,99
1668409714.67958689,70599675,0,21.613386154174805,24.36922264099121,17.130537033081055,12.048165321350098,0.28680145740509033,0.0,0.16087272763252258,99
1668409714.77951288,70699601,0,21.676513671875,24.427988052368164,17.004711151123047,12.520201683044434,0.2970335781574249,0.0,0.16180655360221863,99
1668409714.87962699,70799715,0,21.602725982666016,24.33011245727539,16.703346252441406,12.98475456237793,0.30706918239593506,0.0,0.1632838100194931,99
1668409714.97948885,70899577,0,21.6511173248291,24.42292594909668,16.897916793823242,13.453470230102539,0.3172173798084259,0.0,0.16403257846832275,99
1668409715.07956195,70999650,0,21.551074981689453,24.320552825927734,16.746618270874023,13.91909122467041,0.32725203037261963,0.0,0.16537536680698395,99
1668409715.17952704,71099615,0,21.57225227355957,24.397640228271484,17.009315490722656,14.391444206237793,0.3374417722225189,0.0,0.16610829532146454,99
1668409715.27957606,71199664,0,21.558069229125977,24.424779891967773,17.20664405822754,14.869674682617188,0.3477514982223511,0.0,0.1666049212217331,99
1668409715.37953591,71299624,0,21.570432662963867,24.498048782348633,17.573989868164062,15.35768985748291,0.35827818512916565,0.0,0.16658799350261688,99
1668409715.47961688,71399705,0,21.515235900878906,24.40850257873535,17.310680389404297,15.838970184326172,0.3686330318450928,0.0,0.16713771224021912,99
1668409715.57967997,71499768,0,21.491363525390625,24.434345245361328,17.572114944458008,16.32742691040039,0.37913063168525696,0.0,0.16748017072677612,99
1668409715.67960095,71599689,0,21.455917358398438,24.408447265625,17.578901290893555,16.81517791748047,0.38959577679634094,0.0,0.16795876622200012,99
1668409715.77961397,71699702,0,21.473834991455078,24.509342193603516,18.09355354309082,17.318098068237305,0.40039539337158203,0.0,0.16776731610298157,99
1668409715.87958694,71799675,0,21.414806365966797,24.467113494873047,18.18470001220703,17.82313346862793,0.4112105965614319,0.0,0.16785025596618652,99
1668409715.97951794,71899606,0,21.35788345336914,24.444622039794922,18.36668586730957,18.3330020904541,0.42210033535957336,0.0,0.16806185245513916,99
1668409716.07975388,71999842,0,21.279878616333008,24.41365623474121,18.60483169555664,18.851016998291016,0.4331236481666565,0.0,0.16843895614147186,99
1668409716.17950988,72099598,0,21.162681579589844,24.329526901245117,18.70733070373535,19.36948585510254,0.44409582018852234,0.0,0.16928361356258392,99
1668409716.27961993,72199708,0,21.26531219482422,24.40813636779785,18.531482696533203,19.884857177734375,0.4550553560256958,0.0,0.16959379613399506,99
1668409716.37951088,72299599,0,21.31333351135254,24.37303924560547,17.98914337158203,20.384050369262695,0.4656948447227478,0.0,0.17008620500564575,99
1668409716.47965002,72399738,0,21.36727523803711,24.45215606689453,18.138668060302734,20.888648986816406,0.4764767289161682,0.0,0.1700720638036728,99
1668409716.57935190,72499440,0,21.285533905029297,24.369333267211914,18.081584930419922,21.38945770263672,0.48713672161102295,0.0,0.17054913938045502,99
1668409716.67969084,72599779,0,21.20206642150879,24.301639556884766,18.0849609375,21.893556594848633,0.49782463908195496,0.0,0.17138953506946564,99
1668409716.77931690,72699405,0,21.29693603515625,24.444353103637695,18.37159538269043,22.402009963989258,0.5086531639099121,0.0,0.17131972312927246,99
1668409716.87965202,72799740,0,21.35251808166504,24.464078903198242,18.16229820251465,22.908254623413086,0.5194627642631531,0.0,0.17131972312927246,99
1668409716.97953987,72899628,0,21.362579345703125,24.398534774780273,17.74124526977539,23.400554656982422,0.5299795866012573,0.0,0.1711241602897644,99
1668409717.07964396,72999732,0,21.30048179626465,24.294740676879883,17.497575759887695,23.88713836669922,0.5403440594673157,0.0,0.1711241602897644,99
1668409717.17959905,73099687,0,21.30345344543457,24.24834632873535,17.2091007232666,24.364992141723633,0.5505239963531494,0.0,0.1711241602897644,99
1668409717.27963185,73199720,0,21.334524154663086,24.292686462402344,17.330013275146484,24.84657859802246,0.5607984066009521,0.0,0.17069590091705322,99
1668409717.37958598,73299674,0,21.377912521362305,24.35733413696289,17.45553207397461,25.331275939941406,0.5711601972579956,0.0,0.17068639397621155,99
1668409717.47964287,73399731,0,21.44585609436035,24.37864875793457,17.17258071899414,25.808597564697266,0.581396758556366,0.0,0.17078350484371185,99
1668409717.57963395,73499722,0,21.445951461791992,24.349021911621094,17.005632400512695,26.280929565429688,0.5915263295173645,0.0,0.17071230709552765,99
1668409717.67963004,73599718,0,21.451126098632812,24.39731216430664,17.239789962768555,26.75988006591797,0.6018003225326538,0.0,0.17089450359344482,99
1668409717.77956986,73699658,0,21.410303115844727,24.3286190032959,17.096471786499023,27.234535217285156,0.6119628548622131,0.0,0.17069697380065918,99
1668409717.87959790,73799686,0,21.439817428588867,24.370546340942383,17.163679122924805,27.711475372314453,0.6221883893013,0.0,0.17075178027153015,99
1668409717.97930288,73899391,0,21.40330696105957,24.33249855041504,17.169204711914062,28.187023162841797,0.6323667168617249,0.0,0.17060725390911102,99
1668409718.07961893,73999707,0,21.430139541625977,24.37628936767578,17.258068084716797,28.66793441772461,0.6426727175712585,0.0,0.17071141302585602,99
1668409718.17956996,74099658,0,21.417871475219727,24.266630172729492,16.732501983642578,29.132572174072266,0.6526243090629578,0.0,0.17025300860404968,99
1668409718.27978587,74199874,0,21.48130989074707,24.335346221923828,16.76472282409668,29.599302291870117,0.6626502871513367,0.0,0.1702406257390976,99
1668409718.37951803,74299606,0,21.53190803527832,24.40159797668457,16.825489044189453,30.06545639038086,0.6726874709129333,0.0,0.17055609822273254,99
1668409718.47971106,74399799,0,21.511402130126953,24.364545822143555,16.722681045532227,30.530908584594727,0.6827000379562378,0.0,0.17061519622802734,99
1668409718.57954693,74499635,0,21.454191207885742,24.29165267944336,16.66130256652832,30.993005752563477,0.692613959312439,0.0,0.17030254006385803,99
1668409718.67968488,74599773,0,21.527692794799805,24.301410675048828,16.305313110351562,31.44658851623535,0.702378511428833,0.0,0.17011132836341858,99
1668409718.77956104,74699649,0,21.684083938598633,24.426738739013672,16.078214645385742,31.89268684387207,0.7120517492294312,0.0,0.17058202624320984,99
1668409718.87965703,74799745,0,21.650066375732422,24.333860397338867,15.742171287536621,32.33042526245117,0.7215287685394287,0.0,0.17048437893390656,99
1668409718.97957706,74899665,0,21.671627044677734,24.397775650024414,15.968109130859375,32.77366638183594,0.7311344742774963,0.0,0.17072458565235138,99
1668409719.07961106,74999699,0,21.650354385375977,24.323209762573242,15.67281436920166,33.209205627441406,0.7405640482902527,0.0,0.1705409288406372,99
1668409719.17963696,75099725,0,21.621700286865234,24.21358871459961,15.25912857055664,33.633216857910156,0.7497319579124451,0.0,0.16985823214054108,99
1668409719.27960801,75199696,0,21.635690689086914,24.26805877685547,15.520597457885742,34.064239501953125,0.7590574622154236,0.0,0.16960476338863373,99
1668409719.37961102,75299699,0,21.701810836791992,24.42970848083496,16.02696418762207,34.509490966796875,0.7687202095985413,0.0,0.17020678520202637,99
1668409719.47961497,75399703,0,21.669326782226562,24.337827682495117,15.677109718322754,34.94502258300781,0.7781578898429871,0.0,0.17021644115447998,99
1668409719.57955790,75499646,0,21.67124366760254,24.232873916625977,15.094635963439941,35.364105224609375,0.7872399091720581,0.0,0.16970473527908325,99
1668409719.67956901,75599657,0,21.70650863647461,24.225778579711914,14.882575035095215,35.77759552001953,0.7962153553962708,0.0,0.16927647590637207,99
1668409719.77955604,75699644,0,21.771503448486328,24.245819091796875,14.636893272399902,36.18412780761719,0.8050661683082581,0.0,0.1690465211868286,99
1668409719.87960005,75799688,0,21.86079216003418,24.339168548583984,14.636144638061523,36.59092712402344,0.8139591217041016,0.0,0.1693325638771057,99
1668409719.97952795,75899616,0,21.912925720214844,24.391830444335938,14.597783088684082,36.996158599853516,0.8228389024734497,0.0,0.16981378197669983,99
1668409720.07967687,75999765,0,21.971281051635742,24.401838302612305,14.277697563171387,37.39336013793945,0.8315659165382385,0.0,0.1702345460653305,99
1668409720.17956996,76099658,0,21.92298698425293,24.298330307006836,13.96896743774414,37.781028747558594,0.8400648236274719,0.0,0.17004428803920746,99
1668409720.27974892,76199837,0,21.923845291137695,24.292287826538086,13.942880630493164,38.16905212402344,0.84857177734375,0.0,0.16986754536628723,99
1668409720.37956500,76299653,0,21.943683624267578,24.337173461914062,14.083130836486816,38.55956268310547,0.8571410179138184,0.0,0.16995440423488617,99
1668409720.47967792,76399766,0,21.917524337768555,24.3087158203125,14.075765609741211,38.95103454589844,0.8657211065292358,0.0,0.1698800027370453,99
1668409720.57960200,76499690,0,21.871334075927734,24.201074600219727,13.762124061584473,39.33305740356445,0.8740764260292053,0.0,0.16928644478321075,99
1668409720.67964387,76599732,0,21.884580612182617,24.25881576538086,14.039142608642578,39.723228454589844,0.8826151490211487,0.0,0.1691153347492218,99
1668409720.77953792,76699626,0,21.930938720703125,24.37234878540039,14.436359405517578,40.12370681762695,0.8913979530334473,0.0,0.1691153347492218,99
1668409720.87960100,76799689,0,21.900848388671875,24.309513092041016,14.238723754882812,40.5196418762207,0.9000692963600159,0.0,0.16916295886039734,99
1668409720.97956204,76899650,0,21.923656463623047,24.322994232177734,14.17488956451416,40.91326904296875,0.908699095249176,0.0,0.16926681995391846,99
1668409721.07964587,76999734,0,21.874975204467773,24.22948455810547,13.91004467010498,41.300010681152344,0.9171590805053711,0.0,0.16926681995391846,99
1668409721.17963600,77099724,0,21.885419845581055,24.239591598510742,13.930299758911133,41.68695831298828,0.9256276488304138,0.0,0.16899648308753967,99
1668409721.27957487,77199663,0,21.928543090820312,24.293941497802734,13.991678237915039,42.07540512084961,0.9341457486152649,0.0,0.16905754804611206,99
1668409721.37956595,77299654,0,21.94646453857422,24.316984176635742,14.008557319641113,42.46453094482422,0.9426857233047485,0.0,0.16921943426132202,99
1668409721.47961903,77399707,0,21.927597045898438,24.300125122070312,14.01697826385498,42.8541259765625,0.9512285590171814,0.0,0.16926097869873047,99
1668409721.57955384,77499642,0,21.883407592773438,24.218460083007812,13.795575141906738,43.2370719909668,0.9596087336540222,0.0,0.16926097869873047,99
1668409721.67961383,77599702,0,21.9180965423584,24.21550941467285,13.599472999572754,43.615142822265625,0.9678952693939209,0.0,0.16893403232097626,99
1668409721.77956605,77699654,0,22.01152992248535,24.348268508911133,13.7989501953125,43.998294830322266,0.9763290286064148,0.0,0.1693418174982071,99
1668409721.87965703,77799745,0,22.048521041870117,24.33338737487793,13.47334098815918,44.3729248046875,0.9845890402793884,0.0,0.16958428919315338,99
1668409721.97955489,77899643,0,22.075542449951172,24.378883361816406,13.54914379119873,44.74893569946289,0.9928897023200989,0.0,0.16999898850917816,99
1668409722.07972503,77999813,0,22.08694839477539,24.35551643371582,13.3284912109375,45.11981964111328,1.0010813474655151,0.0,0.17020441591739655,99
1668409722.17956901,78099657,0,22.025524139404297,24.28299331665039,13.279081344604492,45.48793029785156,1.0091891288757324,0.0,0.17000184953212738,99
1668409722.27964306,78199731,0,22.09221839904785,24.371156692504883,13.383116722106934,45.860206604003906,1.01741361618042,0.0,0.17028450965881348,99
1668409722.37963796,78299726,0,22.099340438842773,24.38666534423828,13.408998489379883,46.232688903808594,1.0256452560424805,0.0,0.17058134078979492,99
1668409722.47960305,78399691,0,22.09787368774414,24.325132369995117,13.062725067138672,46.59544372558594,1.0336613655090332,0.0,0.1705048382282257,99
1668409722.57949185,78499580,0,22.063756942749023,24.264728546142578,12.935979843139648,46.954402923583984,1.041581392288208,0.0,0.17014336585998535,99
1668409722.67959905,78599687,0,22.118858337402344,24.326900482177734,12.975260734558105,47.315181732177734,1.0495613813400269,0.0,0.1701733022928238,99
1668409722.77954602,78699634,0,22.159683227539062,24.315881729125977,12.672975540161133,47.6671142578125,1.057360053062439,0.0,0.17014144361019135,99
1668409722.87959099,78799679,0,22.345684051513672,24.35760498046875,11.812152862548828,47.995399475097656,1.0646958351135254,0.0,0.1703263372182846,99
1668409722.97963905,78899727,0,22.348079681396484,24.390682220458984,11.970507621765137,48.328102111816406,1.0721311569213867,0.0,0.17063623666763306,99
1668409723.07967591,78999764,0,22.081867218017578,24.304086685180664,13.006258010864258,48.689544677734375,1.0801124572753906,0.0,0.17085768282413483,99
1668409723.17958593,79099674,0,21.99925422668457,24.334856033325195,13.668148040771484,49.06890869140625,1.0884581804275513,0.0,0.17087912559509277,99
1668409723.27975488,79199843,0,22.011051177978516,24.402687072753906,14.026662826538086,49.459228515625,1.0970494747161865,0.0,0.17050637304782867,99
1668409723.37961888,79299707,0,21.949434280395508,24.38813591003418,14.323731422424316,49.85660171508789,1.105771541595459,0.0,0.1702560931444168,99
1668409723.47966504,79399753,0,21.96160316467285,24.383441925048828,14.241177558898926,50.252403259277344,1.1144640445709229,0.0,0.17005892097949982,99
1668409723.57957697,79499665,0,21.83875274658203,24.236576080322266,14.044461250305176,50.642215728759766,1.1229770183563232,0.0,0.17073091864585876,99
1668409723.67968488,79599773,0,21.823036193847656,24.230417251586914,14.04783821105957,51.03288650512695,1.131502628326416,0.0,0.1713702231645584,99
1668409723.77951288,79699601,0,21.747522354125977,24.22614288330078,14.413036346435547,51.43259048461914,1.1401952505111694,0.0,0.17197079956531525,99
1668409723.87971306,79799801,0,21.700469970703125,24.26335906982422,14.874903678894043,51.84663772583008,1.149180293083191,0.0,0.17229622602462769,99
1668409723.97954202,79899630,0,21.61817741394043,24.208885192871094,14.98333740234375,52.26216125488281,1.1581631898880005,0.0,0.17290587723255157,99
1668409724.07966185,79999750,0,21.6141300201416,24.21467399597168,14.99551010131836,52.679237365722656,1.1671779155731201,0.0,0.17342156171798706,99
1668409724.17950892,80099597,0,21.64470100402832,24.28217124938965,15.202047348022461,53.10091018676758,1.176304817199707,0.0,0.17349445819854736,99
1668409724.27963591,80199724,0,21.806838989257812,24.523855209350586,15.660539627075195,53.53650665283203,1.1858038902282715,0.0,0.17349445819854736,99
1668409724.37950802,80299596,0,22.069889068603516,24.83157730102539,15.918018341064453,53.9781494140625,1.195550799369812,0.0,0.17349445819854736,99
1668409724.47976303,80399851,0,22.10822105407715,24.856971740722656,15.84344482421875,54.41939926147461,1.205306053161621,0.0,0.17349445819854736,99
1668409724.57961106,80499699,0,22.103429794311523,24.850263595581055,15.832396507263184,54.858543395996094,1.215012550354004,0.0,0.17349445819854736,99
1668409724.67966890,80599757,0,22.076213836669922,24.879751205444336,16.15923309326172,55.30772018432617,1.2249287366867065,0.0,0.17349445819854736,99
1668409724.77964592,80699734,0,22.16408920288086,24.996458053588867,16.677875518798828,55.77083206176758,1.2351932525634766,0.0,0.16982793807983398,99
1668409724.87964606,80799734,0,22.093591690063477,24.936124801635742,16.73771858215332,56.235904693603516,1.2454683780670166,0.0,0.16982793807983398,99
1668409724.97935104,80899439,0,22.053119659423828,24.9246826171875,16.908655166625977,56.7042350769043,1.2557965517044067,0.0,0.16982793807983398,99
1668409725.07966304,80999751,0,21.95106315612793,24.787273406982422,16.74140167236328,57.17074966430664,1.2660369873046875,0.0,0.16941292583942413,99
1668409725.17959499,81099683,0,22.00185203552246,24.8190860748291,16.6293888092041,57.63241195678711,1.276194453239441,0.0,0.16941292583942413,99
1668409725.27970195,81199790,0,21.911006927490234,24.697256088256836,16.422849655151367,58.08905792236328,1.2862000465393066,0.0,0.169656902551651,99
1668409725.37953997,81299628,0,21.756145477294922,24.540714263916016,16.303470611572266,58.541168212890625,1.2960362434387207,0.0,0.17079602181911469,99
1668409725.47968698,81399775,0,21.4611873626709,24.094118118286133,15.415642738342285,58.97017288208008,1.3052431344985962,0.0,0.17079602181911469,99
1668409725.57957387,81499662,0,21.348875045776367,23.976877212524414,15.38679313659668,59.39712142944336,1.3143579959869385,0.0,0.17079602181911469,99
1668409725.67973495,81599823,0,21.115394592285156,23.631101608276367,14.729301452636719,59.80685043334961,1.3230096101760864,0.0,0.17079602181911469,99
1668409725.77957702,81699665,0,21.011272430419922,23.560075759887695,14.92308521270752,60.22084045410156,1.3317080736160278,0.0,0.17079602181911469,99
1668409725.87963200,81799720,0,21.020471572875977,23.604812622070312,15.131155014038086,60.64146041870117,1.3405497074127197,0.0,0.17079602181911469,99
1668409725.97960901,81899697,0,21.2031192779541,23.92023468017578,15.798332214355469,61.080238342285156,1.3498531579971313,0.0,0.17198751866817474,99
1668409726.07960892,81999697,0,21.106813430786133,23.752885818481445,15.385258674621582,61.50764083862305,1.3588743209838867,0.0,0.17198751866817474,99
1668409726.17953396,82099622,0,21.06857681274414,23.580955505371094,14.60791015625,61.913143157958984,1.3674176931381226,0.0,0.17198751866817474,99
1668409726.27967000,82199758,0,21.112083435058594,23.58646011352539,14.38694953918457,62.3133544921875,1.3758670091629028,0.0,0.17198751866817474,99
1668409726.37962198,82299710,0,21.41269874572754,24.078353881835938,15.499115943908691,62.743709564208984,1.3850820064544678,0.0,0.17198751866817474,99
1668409726.47968602,82399774,0,21.420982360839844,23.94397735595703,14.665536880493164,63.15138244628906,1.3938148021697998,0.0,0.1720356047153473,99
1668409726.57965899,82499747,0,21.40704345703125,23.854782104492188,14.261740684509277,63.547462463378906,1.4022936820983887,0.0,0.17162969708442688,99
1668409726.67965889,82599747,0,21.457353591918945,24.070110321044922,15.223221778869629,63.97035217285156,1.4113677740097046,0.0,0.17162969708442688,99
1668409726.77958298,82699671,0,21.570432662963867,24.212158203125,15.392011642456055,64.39762878417969,1.4205843210220337,0.0,0.17162969708442688,99
1668409726.87967086,82799759,0,21.65744400024414,24.244592666625977,14.963286399841309,64.81367492675781,1.4295947551727295,0.0,0.17289981245994568,99
1668409726.97953606,82899624,0,21.766401290893555,24.33172607421875,14.7168550491333,65.22196197509766,1.4384816884994507,0.0,0.17431208491325378,99
1668409727.07967901,82999767,0,21.647958755493164,24.041669845581055,13.759976387023926,65.6047592163086,1.4467684030532837,0.0,0.17396190762519836,99
1668409727.17947388,83099562,0,21.719541549682617,24.128183364868164,13.833015441894531,65.98825073242188,1.4550976753234863,0.0,0.1741226315498352,99
1668409727.27973199,83199820,0,21.765348434448242,24.18508529663086,13.86431884765625,66.37439727783203,1.463502287864685,0.0,0.17452985048294067,99
1668409727.37950706,83299595,0,21.74179458618164,24.098779678344727,13.513680458068848,66.74896240234375,1.4716460704803467,0.0,0.1744147539138794,99
1668409727.47972894,83399817,0,21.793617248535156,24.22226905822754,13.882731437683105,67.13548278808594,1.4800697565078735,0.0,0.17494043707847595,99
1668409727.57953286,83499621,0,21.71225929260254,24.123184204101562,13.788209915161133,67.51776123046875,1.4883699417114258,0.0,0.17485411465168,99
1668409727.67960691,83599695,0,21.66836929321289,24.072423934936523,13.774091720581055,67.90068817138672,1.4966673851013184,0.0,0.17453455924987793,99
1668409727.77955985,83699648,0,21.58633804321289,23.960290908813477,13.601621627807617,68.27836608886719,1.5048201084136963,0.0,0.17453455924987793,99
1668409727.87967396,83799762,0,21.769182205200195,24.0988712310791,13.346597671508789,68.64945220947266,1.512898325920105,0.0,0.17455309629440308,99
1668409727.97959304,83899681,0,21.822940826416016,24.02252769470215,12.627861976623535,69.00006866455078,1.5205497741699219,0.0,0.17418521642684937,99
1668409728.07970691,83999795,0,21.837600708007812,24.088727951049805,12.920328140258789,69.35940551757812,1.5283968448638916,0.0,0.17423143982887268,99
1668409728.17963696,84099725,0,21.725183486938477,24.08051300048828,13.51879596710205,69.73468780517578,1.5365500450134277,0.0,0.17422625422477722,99
1668409728.27976799,84199856,0,21.69577407836914,24.027143478393555,13.381275177001953,70.1069107055664,1.5446257591247559,0.0,0.17422625422477722,99
1668409728.37962699,84299715,0,21.79773712158203,24.048259735107422,12.926158905029297,70.46549224853516,1.5524420738220215,0.0,0.17410609126091003,99
1668409728.47966790,84399756,0,21.957578659057617,24.148527145385742,12.554516792297363,70.81439971923828,1.560103178024292,0.0,0.17451483011245728,99
1668409728.57962084,84499709,0,21.915605545043945,23.933544158935547,11.61390209197998,71.13688659667969,1.5671706199645996,0.0,0.17375200986862183,99
1668409728.67976189,84599850,0,22.0090389251709,23.99933433532715,11.472119331359863,71.4560317993164,1.5741946697235107,0.0,0.1734897643327713,99
1668409728.77958298,84699671,0,22.006452560424805,23.97774314880371,11.383121490478516,71.77169036865234,1.5811411142349243,0.0,0.17317666113376617,99
1668409728.87965298,84799741,0,22.065290451049805,23.982759475708008,11.086360931396484,72.07987976074219,1.5879414081573486,0.0,0.1729574352502823,99
1668409728.97952795,84899616,0,22.1708927154541,24.063278198242188,10.926470756530762,72.38304138183594,1.5946627855300903,0.0,0.1731928288936615,99
1668409729.07968998,84999778,0,22.13788604736328,23.98317527770996,10.668139457702637,72.67987823486328,1.6012341976165771,0.0,0.1729719638824463,99
1668409729.17956400,85099652,0,22.195039749145508,24.00001335144043,10.440359115600586,72.96954345703125,1.6076633930206299,0.0,0.17288418114185333,99
1668409729.27966499,85199753,0,22.111190795898438,23.860301971435547,10.162932395935059,73.25215911865234,1.6139123439788818,0.0,0.17210696637630463,99
1668409729.37958193,85299670,0,22.13764190673828,23.917680740356445,10.361795425415039,73.53976440429688,1.620279312133789,0.0,0.17178858816623688,99
1668409729.47962403,85399712,0,22.114450454711914,23.824522018432617,9.996598243713379,73.81758880615234,1.6264232397079468,0.0,0.1710653454065323,99
1668409729.57961297,85499701,0,22.205488204956055,23.859310150146484,9.69001579284668,74.08672332763672,1.632399559020996,0.0,0.17067278921604156,99
1668409729.67964792,85599736,0,22.291061401367188,23.894750595092773,9.403382301330566,74.34806060791016,1.6382250785827637,0.0,0.1705438494682312,99
1668409729.77961898,85699707,0,22.259918212890625,23.824140548706055,9.196846008300781,74.60346984863281,1.643910527229309,0.0,0.17008242011070251,99
1668409729.87971401,85799802,0,22.273046493530273,23.85135841369629,9.29198169708252,74.86184692382812,1.649665355682373,0.0,0.16985733807086945,99
1668409729.97965097,85899739,0,22.135009765625,23.718059539794922,9.319873809814453,75.12059020996094,1.6553926467895508,0.0,0.16985733807086945,99
1668409730.07964206,85999730,0,22.0808162689209,23.726423263549805,9.6881742477417,75.38970184326172,1.6613348722457886,0.0,0.16985733807086945,99
1668409730.17965102,86099739,0,21.904680252075195,23.521879196166992,9.520920753479004,75.65422058105469,1.6671290397644043,0.0,0.16985733807086945,99
1668409730.27962899,86199717,0,21.934581756591797,23.652210235595703,10.068102836608887,75.93385314941406,1.673262596130371,0.0,0.17060109972953796,99
1668409730.37959385,86299682,0,21.848814010620117,23.5784912109375,10.075469017028809,76.21365356445312,1.6793758869171143,0.0,0.171672061085701,99
1668409730.47960806,86399696,0,21.88062858581543,23.678730010986328,10.45110034942627,76.5040283203125,1.6857293844223022,0.0,0.17204898595809937,99
1668409730.57957006,86499658,0,21.827539443969727,23.720914840698242,10.998897552490234,76.80945587158203,1.6923961639404297,0.0,0.17214222252368927,99
1668409730.67958093,86599669,0,21.74129295349121,23.72494888305664,11.519380569458008,77.12950134277344,1.6993544101715088,0.0,0.17220161855220795,99
1668409730.77963686,86699725,0,21.542259216308594,23.630962371826172,12.088011741638184,77.46549224853516,1.7065924406051636,0.0,0.1727912724018097,99
1668409730.87967896,86799767,0,21.373119354248047,23.56095314025879,12.594411849975586,77.81550598144531,1.7140734195709229,0.0,0.17371463775634766,99
1668409730.97958302,86899671,0,21.264066696166992,23.51128578186035,12.854654312133789,78.17227172851562,1.7216596603393555,0.0,0.17481757700443268,99
1668409731.07974291,86999831,0,21.565448760986328,24.135299682617188,14.925232887268066,78.58755493164062,1.7306153774261475,0.0,0.172181636095047,99
1668409731.17965388,87099742,0,21.570911407470703,24.16669273376465,15.300559043884277,79.0122299194336,1.7397760152816772,0.0,0.1696527600288391,99
1668409731.27964997,87199738,0,21.553375244140625,24.20530128479004,15.864006042480469,79.45291137695312,1.7492742538452148,0.0,0.16716624796390533,99
1668409731.37958694,87299675,0,21.510730743408203,24.121788024902344,15.783294677734375,79.8910903930664,1.7586997747421265,0.0,0.16543172299861908,99
1668409731.47968698,87399775,0,21.598796844482422,24.128658294677734,15.441112518310547,80.32047271728516,1.7679738998413086,0.0,0.16383928060531616,99
1668409731.57959199,87499680,0,21.507652282714844,23.92997932434082,14.809432983398438,80.73148345947266,1.7768137454986572,0.0,0.1635664403438568,99
1668409731.67963600,87599724,0,21.61393928527832,24.039594650268555,14.829790115356445,81.14364624023438,1.785722255706787,0.0,0.1635664403438568,99
1668409731.77958798,87699676,0,21.662235260009766,24.047080993652344,14.580289840698242,81.54849243164062,1.7944921255111694,0.0,0.1635664403438568,99
1668409731.87962890,87799717,0,21.76592254638672,24.11307144165039,14.34981632232666,81.9472885131836,1.8031723499298096,0.0,0.1635664403438568,99
1668409731.97964096,87899729,0,21.767744064331055,24.091678619384766,14.153407096862793,82.34052276611328,1.8117321729660034,0.0,0.1641961634159088,99
1668409732.07970190,87999790,0,21.799556732177734,24.03488540649414,13.596711158752441,82.71843719482422,1.8199704885482788,0.0,0.16440215706825256,99
1668409732.17950702,88099595,0,21.706701278686523,23.84273338317871,13.056280136108398,83.0804443359375,1.8278285264968872,0.0,0.16360194981098175,99
1668409732.27961206,88199700,0,21.70353889465332,23.830747604370117,13.056586265563965,83.44355010986328,1.8357092142105103,0.0,0.1629222184419632,99
1668409732.37958193,88299670,0,21.735511779785156,23.86865234375,13.1201810836792,83.80792236328125,1.843629002571106,0.0,0.16258473694324493,99
1668409732.47966194,88399750,0,21.833480834960938,23.99993324279785,13.292891502380371,84.17749786376953,1.8516981601715088,0.0,0.16297830641269684,98
1668409732.57959986,88499688,0,21.93572998046875,24.099376678466797,13.21064567565918,84.54426574707031,1.859743356704712,0.0,0.16378051042556763,98
1668409732.67973399,88599822,0,22.06624984741211,24.29973602294922,13.503417015075684,84.91989135742188,1.8680319786071777,0.0,0.16540159285068512,98
1668409732.77960801,88699696,0,22.15680694580078,24.39866828918457,13.554054260253906,85.29595184326172,1.8763642311096191,0.0,0.16540159285068512,98
1668409732.87979889,88799887,0,22.232892990112305,24.487905502319336,13.478251457214355,85.67108917236328,1.8847047090530396,0.0,0.16730746626853943,98
1668409732.97961402,88899702,0,22.323549270629883,24.63596534729004,13.821353912353516,86.05433654785156,1.89326012134552,0.0,0.16730746626853943,98
1668409733.07968783,88999776,0,22.26097297668457,24.592180252075195,13.933674812316895,86.44169616699219,1.9018831253051758,0.0,0.16730746626853943,98
1668409733.17953897,89099627,0,22.160064697265625,24.486804962158203,13.906976699829102,86.82746124267578,1.9104316234588623,0.0,0.16730746626853943,98
1668409733.27974796,89199836,0,22.123830795288086,24.477418899536133,14.06744384765625,87.21907043457031,1.919095516204834,0.0,0.16730746626853943,98
1668409733.37955785,89299646,0,22.191207885742188,24.571090698242188,14.22460651397705,87.61347961425781,1.927847981452942,0.0,0.16730746626853943,98
1668409733.47967386,89399762,0,22.16916847229004,24.57046127319336,14.352578163146973,88.01264953613281,1.9366973638534546,0.0,0.16730746626853943,98
1668409733.57960391,89499692,0,22.14214515686035,24.57065200805664,14.515229225158691,88.41560363769531,1.9456195831298828,0.0,0.16730746626853943,98
1668409733.67963886,89599727,0,22.122211456298828,24.519756317138672,14.330175399780273,88.81383514404297,1.9544293880462646,0.0,0.16730746626853943,98
1668409733.77968097,89699769,0,21.99504852294922,24.36468505859375,14.114433288574219,89.20610046386719,1.963057279586792,0.0,0.16788746416568756,98
1668409733.87960291,89799691,0,21.78959083557129,24.10816764831543,13.810306549072266,89.58944702148438,1.9714102745056152,0.0,0.16788746416568756,98
1668409733.97959495,89899683,0,21.668081283569336,23.9302921295166,13.474570274353027,89.96369171142578,1.9795194864273071,0.0,0.16788746416568756,98
1668409734.07965183,89999740,0,21.536399841308594,23.728466033935547,13.056756973266602,90.32666015625,1.98733651638031,0.0,0.16788746416568756,98
1668409734.17953992,90099628,0,21.548583984375,23.72578239440918,12.9682035446167,90.68651580810547,1.9950908422470093,0.0,0.16788746416568756,98
1668409734.27963591,90199724,0,21.61719512939453,23.80768585205078,13.047380447387695,91.04931640625,2.0029337406158447,0.0,0.16788746416568756,98
1668409734.37960792,90299696,0,21.71455955505371,23.93668556213379,13.235809326171875,91.4168472290039,2.0109145641326904,0.0,0.16788746416568756,98
1668409734.47970605,90399794,0,21.80137825012207,24.037654876708984,13.3284912109375,91.78753662109375,2.018996238708496,0.0,0.16778165102005005,98
1668409734.57958293,90499671,0,21.787290573120117,23.978769302368164,13.06149673461914,92.14993286132812,2.0268919467926025,0.0,0.16778165102005005,98
1668409734.67978597,90599874,0,21.804443359375,24.00247573852539,13.115816116333008,92.51502990722656,2.0348527431488037,0.0,0.1675863415002823,98
1668409734.77960491,90699693,0,21.894428253173828,24.09459686279297,13.104461669921875,92.87841033935547,2.042808771133423,0.0,0.1678946614265442,98
1668409734.87966084,90799749,0,21.85348892211914,24.04258155822754,13.04004955291748,93.2408676147461,2.050729751586914,0.0,0.16787458956241608,98
1668409734.97980189,90899890,0,21.84967613220215,24.071645736694336,13.225682258605957,93.60879516601562,2.0587687492370605,0.0,0.1680040955543518,98
1668409735.07966495,90999753,0,21.839900970458984,24.050792694091797,13.160009384155273,93.973876953125,2.066742181777954,0.0,0.1680007427930832,98
1668409735.17949390,91099582,0,21.73966407775879,23.947153091430664,13.139754295349121,94.33827209472656,2.0746641159057617,0.0,0.1680007427930832,98
1668409735.27961683,91199705,0,21.722990036010742,23.980924606323242,13.415647506713867,94.71141052246094,2.0827698707580566,0.0,0.16830609738826752,98
1668409735.37957406,91299662,0,21.784799575805664,24.073305130004883,13.618193626403809,95.08956146240234,2.091007947921753,0.0,0.1680476814508438,98
1668409735.47962594,91399714,0,21.7852783203125,24.073925018310547,13.638141632080078,95.46862030029297,2.0992658138275146,0.0,0.1678122729063034,98
1668409735.57963800,91499726,0,21.755094528198242,24.021869659423828,13.500655174255371,95.84371948242188,2.107426166534424,0.0,0.16790112853050232,98
1668409735.67967296,91599761,0,21.70372772216797,23.996417999267578,13.63660717010498,96.2226791381836,2.1156508922576904,0.0,0.16812768578529358,98
1668409735.77958703,91699675,0,21.760108947753906,24.049694061279297,13.626547813415527,96.60089874267578,2.1238811016082764,0.0,0.16802389919757843,98
1668409735.87970996,91799798,0,21.776750564575195,24.049772262573242,13.527968406677246,96.97716522216797,2.132075071334839,0.0,0.16802389919757843,98
1668409735.97958088,91899669,0,21.76592254638672,24.045299530029297,13.570012092590332,97.35365295410156,2.1402697563171387,0.0,0.167971670627594,98
1668409736.07966304,91999751,0,21.785661697387695,24.05292510986328,13.497892379760742,97.72892761230469,2.1484453678131104,0.0,0.167971670627594,98
1668409736.17957592,92099664,0,21.708616256713867,23.934898376464844,13.253915786743164,98.0968017578125,2.1564314365386963,0.0,0.167971670627594,98
1668409736.27964997,92199738,0,21.73381996154785,23.959535598754883,13.250540733337402,98.46517944335938,2.164437770843506,0.0,0.167971670627594,98
1668409736.37953496,92299623,0,21.785661697387695,24.035980224609375,13.387412071228027,98.83665466308594,2.1725306510925293,0.0,0.1680920571088791,98
1668409736.47973800,92399826,0,21.778284072875977,24.007366180419922,13.26496410369873,99.20590209960938,2.180572271347046,0.0,0.16804289817810059,98
1668409736.57958889,92499677,0,21.75595474243164,23.96145248413086,13.124612808227539,99.56996154785156,2.188492774963379,0.0,0.16804289817810059,98
1668409736.67966104,92599749,0,21.74713897705078,23.91701889038086,12.9126558303833,99.9289321899414,2.1962993144989014,0.0,0.16804289817810059,98
1668409736.77949095,92699579,0,21.79620361328125,23.966163635253906,12.922782897949219,100.28732299804688,2.204110860824585,0.0,0.16791746020317078,98
1668409736.87958002,92799668,0,21.846418380737305,24.030580520629883,12.989991188049316,100.64850616455078,2.212001323699951,0.0,0.16814187169075012,98
1668409736.97958493,92899673,0,21.837121963500977,23.97612762451172,12.728830337524414,101.00211334228516,2.2197232246398926,0.0,0.16804423928260803,98
1668409737.07982302,92999911,0,21.814315795898438,23.90200424194336,12.456619262695312,101.3489990234375,2.227290153503418,0.0,0.16759663820266724,98
1668409737.17958903,93099677,0,21.823514938354492,23.913318634033203,12.490989685058594,101.6951904296875,2.2348451614379883,0.0,0.1673048734664917,98
1668409737.27966690,93199755,0,21.863378524780273,23.96108627319336,12.537331581115723,102.04362487792969,2.2424631118774414,0.0,0.16731692850589752,98
1668409737.37967801,93299766,0,21.834962844848633,23.94021987915039,12.589604377746582,102.39351654052734,2.250102996826172,0.0,0.1672218143939972,98
1668409737.47967196,93399760,0,21.867115020751953,23.98371696472168,12.646583557128906,102.74482727050781,2.2577850818634033,0.0,0.16736546158790588,98
1668409737.57961798,93499706,0,21.764101028442383,23.80864143371582,12.216018676757812,103.0840072631836,2.265166997909546,0.0,0.16736546158790588,98
1668409737.67969894,93599787,0,21.757394790649414,23.814311981201172,12.28997802734375,103.42569732666016,2.272601366043091,0.0,0.16736546158790588,98
1668409737.77957988,93699668,0,21.792465209960938,23.868335723876953,12.403221130371094,103.76985168457031,2.2801012992858887,0.0,0.16736546158790588,98
1668409737.87969494,93799783,0,21.892894744873047,24.00811004638672,12.638298034667969,104.12134552001953,2.2877964973449707,0.0,0.16736546158790588,98
1668409737.97957301,93899661,0,21.88216209411621,23.97797393798828,12.502345085144043,104.46823120117188,2.2953872680664062,0.0,0.167633518576622,98
1668409738.07972598,93999814,0,21.89155387878418,23.98644256591797,12.47810173034668,104.8154067993164,2.302987575531006,0.0,0.16788527369499207,98
1668409738.17950201,94099590,0,21.868820190429688,23.947345733642578,12.38057804107666,105.15855407714844,2.3104918003082275,0.0,0.1678859144449234,98
1668409738.27986598,94199954,0,21.875932693481445,23.93806266784668,12.286295890808105,105.5011215209961,2.317985773086548,0.0,0.16783984005451202,98
1668409738.37955284,94299641,0,21.939756393432617,24.070804595947266,12.696911811828613,105.85273742675781,2.325700044631958,0.0,0.16783984005451202,98
1668409738.47965193,94399740,0,21.93553924560547,24.055255889892578,12.62939739227295,106.20379638671875,2.3334007263183594,0.0,0.16783984005451202,98
1668409738.57963204,94499720,0,21.88570785522461,23.986888885498047,12.516769409179688,106.55157470703125,2.3410120010375977,0.0,0.16786928474903107,98
1668409738.67965293,94599741,0,21.827348709106445,23.95873260498047,12.686478614807129,106.90408325195312,2.3487062454223633,0.0,0.16800442337989807,98
1668409738.77958202,94699670,0,21.75940704345703,23.831602096557617,12.334171295166016,107.2464828491211,2.356156587600708,0.0,0.16800442337989807,98
1668409738.87965584,94799744,0,21.822269439697266,23.964754104614258,12.756755828857422,107.60112762451172,2.363895893096924,0.0,0.16794897615909576,98
1668409738.97969198,94899780,0,21.79170036315918,23.97383689880371,13.000732421875,107.96241760253906,2.3717689514160156,0.0,0.16784720122814178,98
1668409739.07967401,94999762,0,21.742860794067383,23.92768096923828,13.003222465515137,108.3235855102539,2.379621744155884,0.0,0.16802142560482025,98
1668409739.17964983,95099738,0,21.700469970703125,23.88001251220703,12.938741683959961,108.68293762207031,2.3874199390411377,0.0,0.16845084726810455,98
1668409739.27963495,95199723,0,21.764293670654297,23.95015525817871,12.977715492248535,109.04340362548828,2.3952651023864746,0.0,0.16843196749687195,98
1668409739.37952089,95299609,0,21.74196434020996,23.929027557373047,12.97679615020752,109.40348815917969,2.4030940532684326,0.0,0.16853643953800201,98
1668409739.47964287,95399731,0,21.774642944335938,23.996503829956055,13.206347465515137,109.77080535888672,2.4110922813415527,0.0,0.1682419329881668,98
1668409739.57953501,95499623,0,21.745031356811523,23.92112159729004,12.921248435974121,110.1293716430664,2.418889284133911,0.0,0.1684117168188095,98
1668409739.67963600,95599724,0,21.67210578918457,23.83475685119629,12.84145736694336,110.48641204833984,2.4266271591186523,0.0,0.1684117168188095,98
1668409739.77959299,95699681,0,21.746084213256836,23.96146011352539,13.169215202331543,110.85215759277344,2.4345805644989014,0.0,0.1682237982749939,98
1668409739.87963200,95799720,0,21.743391036987305,23.946409225463867,13.102109909057617,111.21627044677734,2.442497730255127,0.0,0.1681421846151352,98
1668409739.97954798,95899636,0,21.805118560791016,24.003320693969727,13.073466300964355,111.57914733886719,2.4504103660583496,0.0,0.1681421846151352,98
1668409740.07977200,95999860,0,21.725290298461914,23.914012908935547,13.003188133239746,111.9411849975586,2.45827579498291,0.0,0.16832193732261658,98
1668409740.17957592,96099664,0,21.715803146362305,23.943708419799805,13.23673152923584,112.30818176269531,2.466245412826538,0.0,0.16831229627132416,98
1668409740.27965784,96199746,0,21.74129295349121,23.952606201171875,13.142823219299316,112.67359161376953,2.4741899967193604,0.0,0.16825252771377563,98
1668409740.37958002,96299668,0,21.661470413208008,23.86969757080078,13.091571807861328,113.03694152832031,2.482060670852661,0.0,0.16867554187774658,98
1668409740.47967505,96399763,0,21.731136322021484,23.97467613220215,13.318670272827148,113.40733337402344,2.49010968208313,0.0,0.16845080256462097,98
1668409740.57958198,96499670,0,21.64757537841797,23.828615188598633,12.947641372680664,113.76668548583984,2.4978888034820557,0.0,0.16845080256462097,98
1668409740.67965889,96599747,0,21.715707778930664,23.95107078552246,13.283684730529785,114.135986328125,2.505908489227295,0.0,0.1682787984609604,98
1668409740.77965188,96699740,0,21.616260528564453,23.838306427001953,13.165874481201172,114.50164794921875,2.513812780380249,0.0,0.16877320408821106,98
1668409740.87962985,96799718,0,21.629173278808594,23.874004364013672,13.282150268554688,114.87060546875,2.5217931270599365,0.0,0.16901114583015442,98
1668409740.97964096,96899729,0,21.647859573364258,23.88705062866211,13.237957954406738,115.23839569091797,2.529754877090454,0.0,0.16914929449558258,98
1668409741.07966995,96999758,0,21.63310432434082,23.833986282348633,13.011473655700684,115.59996032714844,2.537576675415039,0.0,0.16914929449558258,98
1668409741.17957401,97099662,0,21.616525650024414,23.80110740661621,12.91511058807373,115.9583969116211,2.5453248023986816,0.0,0.16914929449558258,98
1668409741.27976298,97199851,0,21.665109634399414,23.87398910522461,13.061190605163574,116.3219223022461,2.5532004833221436,0.0,0.16911771893501282,98
1668409741.37953901,97299627,0,21.679004669189453,23.88312339782715,13.031421661376953,116.68312072753906,2.561030864715576,0.0,0.16913877427577972,98
1668409741.47968483,97399773,0,21.714462280273438,23.947025299072266,13.199597358703613,117.05034637451172,2.569005012512207,0.0,0.16913877427577972,98
1668409741.57954192,97499630,0,21.655548095703125,23.828310012817383,12.846026420593262,117.40670013427734,2.5767219066619873,0.0,0.16913877427577972,98
1668409741.67974997,97599838,0,21.734872817993164,23.925493240356445,12.934446334838867,117.76676940917969,2.584547996520996,0.0,0.16936330497264862,98
1668409741.77958894,97699677,0,21.736406326293945,23.90247917175293,12.784990310668945,118.12136840820312,2.5922555923461914,0.0,0.1694231778383255,98
1668409741.87973189,97799820,0,21.763334274291992,23.944400787353516,12.854040145874023,118.47891998291016,2.600037097930908,0.0,0.16967947781085968,98
1668409741.97953987,97899628,0,21.75940704345703,23.928857803344727,12.776397705078125,118.83320617675781,2.607746124267578,0.0,0.1698014885187149,98
1668409742.07967305,97999761,0,21.73065757751465,23.853975296020508,12.525362014770508,119.18162536621094,2.6153173446655273,0.0,0.1695215106010437,98
1668409742.17957306,98099661,0,21.73525619506836,23.858850479125977,12.54132080078125,119.52967834472656,2.62288236618042,0.0,0.1693277508020401,98
1668409742.27965593,98199744,0,21.786237716674805,23.93243408203125,12.658551216125488,119.88162231445312,2.630549907684326,0.0,0.16954520344734192,98
1668409742.37959290,98299681,0,21.796947479248047,23.93836212158203,12.615519523620605,120.23185729980469,2.638184070587158,0.0,0.16974449157714844,98
1668409742.47964501,98399733,0,21.79083824157715,23.950536727905273,12.707040786743164,120.58504486083984,2.6458804607391357,0.0,0.16996079683303833,98
1668409742.57961106,98499699,0,21.769563674926758,23.87158203125,12.38419246673584,120.928955078125,2.653367280960083,0.0,0.1697339564561844,98
1668409742.67963791,98599726,0,21.77713394165039,23.796701431274414,11.937363624572754,121.26066589355469,2.660590887069702,0.0,0.16918034851551056,98
1668409742.77961397,98699702,0,21.92624282836914,23.91998291015625,11.771642684936523,121.58760833740234,2.667759418487549,0.0,0.16936805844306946,98
1668409742.87963796,98799726,0,22.01507568359375,24.046924591064453,11.941352844238281,121.91941833496094,2.6750643253326416,0.0,0.17015232145786285,98
1668409742.97951889,98899607,0,22.008943557739258,23.983030319213867,11.581986427307129,122.24077606201172,2.6821372509002686,0.0,0.170444518327713,98
1668409743.07965493,98999743,0,21.989107131958008,23.894371032714844,11.192543983459473,122.55213165283203,2.688983678817749,0.0,0.17022614181041718,98
1668409743.17956996,99099658,0,21.980100631713867,23.90061378479004,11.291362762451172,122.86553955078125,2.6958723068237305,0.0,0.17008693516254425,98
1668409743.27979493,99199883,0,22.023212432861328,23.99039077758789,11.542430877685547,123.18688201904297,2.702949285507202,0.0,0.17043012380599976,98
1668409743.37966084,99299749,0,22.049766540527344,24.02955436706543,11.584748268127441,123.50830078125,2.710036516189575,0.0,0.1708960235118866,98
1668409743.47969890,99399787,0,22.034526824951172,23.974788665771484,11.347522735595703,123.82365417480469,2.7169852256774902,0.0,0.17098551988601685,98
1668409743.57961893,99499707,0,22.046892166137695,23.941577911376953,11.087281227111816,124.13141632080078,2.7237703800201416,0.0,0.17088815569877625,98
1668409743.67985296,99599941,0,22.00836753845215,23.87598419189453,10.955011367797852,124.43646240234375,2.7304837703704834,0.0,0.17048051953315735,98
1668409743.77958083,99699669,0,22.086374282836914,23.982463836669922,11.107842445373535,124.74420166015625,2.7372806072235107,0.0,0.17069831490516663,98
1668409743.87963486,99799723,0,22.06414031982422,23.96541976928711,11.13270092010498,125.05363464355469,2.744107961654663,0.0,0.17078323662281036,98
1668409743.97961593,99899704,0,22.106687545776367,24.020408630371094,11.18303108215332,125.36424255371094,2.750974416732788,0.0,0.17112725973129272,98
1668409744.07963395,99999722,0,22.06218147277832,23.932950973510742,10.942975044250488,125.66828918457031,2.7576823234558105,0.0,0.17095611989498138,98
1668409744.17952704,100099615,0,22.058677673339844,23.965242385864258,11.150500297546387,125.97772216796875,2.764508008956909,0.0,0.17098473012447357,98
1668409744.27967286,100199761,0,22.0192928314209,23.960508346557617,11.353046417236328,126.29357147216797,2.771462917327881,0.0,0.17098630964756012,98
1668409744.37962699,100299715,0,21.958345413208008,23.913297653198242,11.415345191955566,126.61054229736328,2.7784230709075928,0.0,0.17125648260116577,98
1668409744.47965598,100399744,0,22.037212371826172,24.042407989501953,11.708731651306152,126.93590545654297,2.785593032836914,0.0,0.17125648260116577,98
1668409744.57968402,100499772,0,21.977800369262695,23.9801082611084,11.695841789245605,127.26091003417969,2.7927358150482178,0.0,0.17119821906089783,98
1668409744.67965388,100599742,0,21.938892364501953,23.932708740234375,11.63139533996582,127.58377075195312,2.799818992614746,0.0,0.17141671478748322,98
1668409744.77959704,100699685,0,21.89107322692871,23.895566940307617,11.666072845458984,127.90782928466797,2.806913137435913,0.0,0.1718224436044693,98
1668409744.87960386,100799692,0,21.91960906982422,23.944917678833008,11.781804084777832,128.2351531982422,2.8140878677368164,0.0,0.17190134525299072,98
1668409744.97959089,100899679,0,21.92835235595703,23.996084213256836,12.044160842895508,128.5697021484375,2.8214237689971924,0.0,0.17167919874191284,98
1668409745.07967091,100999759,0,21.787004470825195,23.846220016479492,11.948718070983887,128.9019012451172,2.8286614418029785,0.0,0.17233774065971375,98
1668409745.17965198,101099740,0,21.801090240478516,23.91002655029297,12.221542358398438,129.24134826660156,2.836061716079712,0.0,0.1725589483976364,98
1668409745.27968287,101199771,0,21.74091148376465,23.8416690826416,12.132851600646973,129.57850646972656,2.8433918952941895,0.0,0.17314624786376953,98
1668409745.37958694,101299675,0,21.803390502929688,24.008655548095703,12.76841926574707,129.93287658691406,2.8511180877685547,0.0,0.17271248996257782,98
1668409745.47979403,101399882,0,21.75892448425293,23.974964141845703,12.845141410827637,130.2904510498047,2.858898639678955,0.0,0.17251969873905182,98
1668409745.57959390,101499682,0,21.726154327392578,23.963972091674805,12.979557037353516,130.65029907226562,2.8667168617248535,0.0,0.1724109947681427,98
1668409745.67969298,101599781,0,21.708520889282227,23.94575309753418,12.975568771362305,131.01112365722656,2.8745498657226562,0.0,0.1724187582731247,98
1668409745.77954698,101699635,0,21.641706466674805,23.884483337402344,12.980717658996582,131.37120056152344,2.882342576980591,0.0,0.17277762293815613,98
1668409745.87964702,101799735,0,21.747621536254883,24.1028995513916,13.706271171569824,131.75228881835938,2.8906302452087402,0.0,0.17183944582939148,98
1668409745.97959900,101899687,0,21.6943359375,24.05558204650879,13.786367416381836,132.13514709472656,2.8989362716674805,0.0,0.17127399146556854,98
1668409746.07964897,101999737,0,21.695295333862305,24.036949157714844,13.703815460205078,132.51602172851562,2.9071996212005615,0.0,0.17087599635124207,98
1668409746.18068004,102100768,0,21.67057228088379,24.030075073242188,13.833935737609863,132.90428161621094,2.9156134128570557,0.0,0.1705591082572937,98
1668409746.28067994,102200768,0,21.703060150146484,24.159292221069336,14.488837242126465,133.30679321289062,2.924349308013916,0.0,0.1695258766412735,98
1668409746.37962794,102299716,0,21.748577117919922,24.232643127441406,14.653023719787598,133.70957946777344,2.9331092834472656,0.0,0.1695258766412735,98
1668409746.47979283,102399881,0,21.848047256469727,24.34355926513672,14.720539093017578,134.1191864013672,2.9420583248138428,0.0,0.1695258766412735,98
1668409746.57964993,102499738,0,21.84816551208496,24.38857650756836,14.985383033752441,134.53488159179688,2.9511406421661377,0.0,0.1695258766412735,98
1668409746.67963886,102599727,0,21.89826011657715,24.52570915222168,15.498806953430176,134.9653778076172,2.9605677127838135,0.0,0.1695258766412735,98
1668409746.77961206,102699700,0,21.95115852355957,24.63484764099121,15.830554008483887,135.40504455566406,2.9702188968658447,0.0,0.1695258766412735,98
1668409746.87966299,102799751,0,21.949241638183594,24.673198699951172,16.068086624145508,135.8516387939453,2.9800214767456055,0.0,0.1695258766412735,98
1668409746.97957087,102899659,0,21.90621566772461,24.656965255737305,16.22613525390625,136.30198669433594,2.98988676071167,0.0,0.1695258766412735,98
1668409747.07968092,102999769,0,21.872100830078125,24.65708351135254,16.428068161010742,136.7588653564453,2.9998795986175537,0.0,0.1695258766412735,98
1668409747.17961693,103099705,0,21.821407318115234,24.55796241760254,16.209562301635742,137.20887756347656,3.009699583053589,0.0,0.1688234955072403,98
1668409747.27970290,103199791,0,21.633583068847656,24.223411560058594,15.340455055236816,137.63540649414062,3.0189268589019775,0.0,0.1688234955072403,98
1668409747.37954903,103299637,0,21.674928665161133,24.291738510131836,15.43651008605957,138.06356811523438,3.028207302093506,0.0,0.16952084004878998,98
1668409747.47970796,103399796,0,21.78652572631836,24.351728439331055,15.132075309753418,138.48460388183594,3.0373802185058594,0.0,0.16952084004878998,98
1668409747.57966185,103499750,0,21.858108520507812,24.3990478515625,14.985998153686523,138.90072631835938,3.046475887298584,0.0,0.1695541888475418,98
1668409747.67962003,103599708,0,22.014883041381836,24.610233306884766,15.210947036743164,139.32310485839844,3.055774688720703,0.0,0.17062383890151978,98
1668409747.77953696,103699625,0,22.117612838745117,24.636123657226562,14.678494453430176,139.73052978515625,3.064785957336426,0.0,0.1715783178806305,98
1668409747.87960505,103799693,0,22.11991310119629,24.60580825805664,14.43912124633789,140.1319122314453,3.073664665222168,0.0,0.1721639186143875,98
1668409747.97960806,103899696,0,22.048328399658203,24.54078483581543,14.46643352508545,140.53379821777344,3.0825254917144775,0.0,0.17229245603084564,98
1668409748.07967687,103999765,0,21.951255798339844,24.356651306152344,14.027583122253418,140.92376708984375,3.09108567237854,0.0,0.17147615551948547,98
1668409748.18098092,104101069,0,21.985849380493164,24.338701248168945,13.779003143310547,141.31153869628906,3.099611282348633,0.0,0.17075635492801666,98
1668409748.27978492,104199873,0,22.074296951293945,24.438295364379883,13.848974227905273,141.69161987304688,3.108001232147217,0.0,0.17069843411445618,98
