timestamp,TimeUS,Instance,Volt,VoltR,Curr,CurrTot,EnrgTot,Temp,Res,RemPct
1668411705.22001815,93098565,0,24.825763702392578,24.855939865112305,0.17972178757190704,7.30400276184082,0.18156956136226654,0.0,0.1679086983203888,99
1668411705.31975698,93198304,0,24.856966018676758,24.90064811706543,0.2601735591888428,7.311211585998535,0.18174874782562256,0.0,0.16789282858371735,99
1668411705.41989017,93298437,0,24.86089515686035,24.904666900634766,0.2602417469024658,7.318450927734375,0.18192872405052185,0.0,0.1681971549987793,99
1668411705.52000904,93398556,0,24.82246971130371,24.852201461791992,0.1767679750919342,7.323367595672607,0.18205076456069946,0.0,0.1681971549987793,99
1668411705.61985612,93498403,0,24.82457733154297,24.85658073425293,0.19027109444141388,7.328644752502441,0.18218177556991577,0.0,0.1681971549987793,99
1668411705.72007012,93598617,0,24.85256004333496,24.893028259277344,0.24060088396072388,7.335343360900879,0.18234825134277344,0.0,0.1681971549987793,99
1668411705.81985307,93698400,0,24.86703109741211,24.913848876953125,0.2783482074737549,7.343059062957764,0.18254011869430542,0.0,0.1681971549987793,99
1668411705.92012310,93798670,0,24.864347457885742,24.91069984436035,0.27558621764183044,7.350735664367676,0.18273098766803741,0.0,0.1681971549987793,99
1668411706.01985693,93898404,0,24.80474281311035,24.829570770263672,0.1476135402917862,7.354825496673584,0.18283243477344513,0.0,0.1681971549987793,99
1668411706.12005615,93998603,0,24.82257652282715,24.853662490844727,0.18481528759002686,7.359969615936279,0.1829601228237152,0.0,0.1681971549987793,99
1668411706.21976805,94098315,0,24.867319107055664,24.91289710998535,0.27098289132118225,7.367475986480713,0.18314678966999054,0.0,0.1681971549987793,99
1668411706.32017612,94198723,0,24.846235275268555,24.8859806060791,0.2363044172525406,7.374063968658447,0.18331047892570496,0.0,0.1681971549987793,99
1668411706.41999507,94298542,0,24.85831069946289,24.90270233154297,0.26392441987991333,7.3813862800598145,0.1834924966096878,0.0,0.1681971549987793,99
1668411706.52005816,94398605,0,24.846904754638672,24.885515213012695,0.22955287992954254,7.387766361236572,0.18365103006362915,0.0,0.1681971549987793,99
1668411706.61998415,94498531,0,24.803302764892578,24.826995849609375,0.14086198806762695,7.391676902770996,0.1837480217218399,0.0,0.1681971549987793,99
1668411706.72007298,94598620,0,24.85572052001953,24.89825439453125,0.2528764307498932,7.398708343505859,0.18392278254032135,0.0,0.1681971549987793,99
1668411706.81999516,94698542,0,24.85543441772461,24.899463653564453,0.26177623867988586,7.405974864959717,0.18410339951515198,0.0,0.1681971549987793,99
1668411706.92001510,94798562,0,24.86195182800293,24.90747833251953,0.27067598700523376,7.4134955406188965,0.18429037928581238,0.0,0.1681971549987793,99
1668411707.02001715,94898564,0,24.815654754638672,24.846052169799805,0.18072344362735748,7.418516159057617,0.18441496789455414,0.0,0.1681971549987793,99
1668411707.11998200,94998529,0,24.824960708618164,24.85717010498047,0.19149865210056305,7.423833847045898,0.18454699218273163,0.0,0.1681971549987793,99
1668411707.22005296,95098600,0,24.825056076049805,24.85736846923828,0.19211241602897644,7.429174423217773,0.18467958271503448,0.0,0.1681971549987793,99
1668411707.32001615,95198563,0,24.870193481445312,24.917888641357422,0.28356534242630005,7.43704891204834,0.18487542867660522,0.0,0.1681971549987793,99
1668411707.41980600,95298353,0,24.861278533935547,24.906030654907227,0.2660726308822632,7.444425106048584,0.1850588023662567,0.0,0.1681971549987793,99
1668411707.52003598,95398583,0,24.743026733398438,24.843929290771484,0.5876922011375427,7.460788726806641,0.18546369671821594,0.0,0.17169404029846191,99
1668411707.62005305,95498600,0,24.560091018676758,24.925125122070312,2.1558942794799805,7.520689487457275,0.18693487346172333,0.0,0.1693194955587387,99
1668411707.71968007,95598227,0,24.73880958557129,24.949411392211914,1.2671440839767456,7.555759429931641,0.18780246376991272,0.0,0.1662019044160843,99
1668411707.81976795,95698315,0,24.74921417236328,24.912019729614258,0.984431266784668,7.583130836486816,0.18847988545894623,0.0,0.16538071632385254,99
1668411707.91971898,95798266,0,24.726449966430664,24.93095588684082,1.249037742614746,7.617812156677246,0.18933743238449097,0.0,0.16373111307621002,99
1668411708.01999712,95898544,0,24.71744155883789,24.900617599487305,1.1183030605316162,7.648964881896973,0.19010744988918304,0.0,0.16379842162132263,99
1668411708.12006116,95998608,0,24.68955421447754,24.854408264160156,0.992478609085083,7.676553249359131,0.19078859686851501,0.0,0.16610336303710938,99
1668411708.21981215,96098359,0,24.728652954101562,24.906543731689453,1.0744179487228394,7.706326484680176,0.19152484834194183,0.0,0.1655699461698532,99
1668411708.32000995,96198557,0,24.755868911743164,24.941890716552734,1.1235201358795166,7.737599849700928,0.19229905307292938,0.0,0.1655699461698532,99
1668411708.42000413,96298551,0,24.7541446685791,24.936203002929688,1.0995826721191406,7.768144130706787,0.1930551528930664,0.0,0.1655699461698532,99
1668411708.52006102,96398608,0,24.701343536376953,24.860435485839844,0.9608690142631531,7.7948527336120605,0.19371488690376282,0.0,0.1655699461698532,99
1668411708.62000513,96498552,0,24.6926212310791,24.850645065307617,0.9544243216514587,7.821352005004883,0.19436921179294586,0.0,0.1655699461698532,99
1668411708.72005510,96598602,0,24.736543655395508,24.911787033081055,1.0584255456924438,7.850769996643066,0.1950969099998474,0.0,0.1655699461698532,99
1668411708.81983995,96698387,0,24.754337310791016,24.935583114624023,1.0946725606918335,7.881114482879639,0.19584806263446808,0.0,0.1655699461698532,99
1668411708.92010999,96798657,0,24.741397857666016,24.91837501525879,1.0688937902450562,7.910888671875,0.19658471643924713,0.0,0.1655699461698532,99
1668411709.02011013,96898657,0,24.722999572753906,24.894380569458008,1.0317604541778564,7.939550876617432,0.19729334115982056,0.0,0.16610513627529144,99
1668411709.12013006,96998677,0,24.73574447631836,24.91105079650879,1.0553908348083496,7.968875408172607,0.19801871478557587,0.0,0.16610513627529144,99
1668411709.21985793,97098405,0,24.68294334411621,24.83780860900879,0.9323283433914185,7.9947052001953125,0.19865626096725464,0.0,0.16610513627529144,99
1668411709.32006097,97198608,0,24.752132415771484,24.933963775634766,1.0946725606918335,8.025177001953125,0.19941049814224243,0.0,0.16610513627529144,99
1668411709.41991115,97298458,0,24.755390167236328,24.938138961791992,1.1001964807510376,8.055694580078125,0.20016597211360931,0.0,0.16610513627529144,99
1668411709.52011800,97398665,0,24.731538772583008,24.904144287109375,1.0383073091506958,8.084598541259766,0.20088081061840057,0.0,0.1662377417087555,99
1668411709.62000513,97498552,0,24.682655334472656,24.838714599609375,0.9387730360031128,8.110648155212402,0.2015237808227539,0.0,0.1662377417087555,99
1668411709.72003794,97598585,0,24.742259979248047,24.921022415161133,1.07533860206604,8.140528678894043,0.20226310193538666,0.0,0.1662377417087555,99
1668411709.82000995,97698557,0,24.745038986206055,24.926708221435547,1.0928312540054321,8.170881271362305,0.20301416516304016,0.0,0.1662377417087555,99
1668411709.92005014,97798597,0,24.75261116027832,24.93443489074707,1.0937519073486328,8.201277732849121,0.2037665694952011,0.0,0.1662377417087555,99
1668411710.02001500,97898562,0,24.70172691345215,24.86298942565918,0.9700757265090942,8.228217124938965,0.20443201065063477,0.0,0.1662377417087555,99
1668411710.12009597,97998643,0,24.702972412109375,24.86688804626465,0.9860338568687439,8.255631446838379,0.20510922372341156,0.0,0.1662377417087555,99
1668411710.21998715,98098534,0,24.748870849609375,24.9295711517334,1.0870003700256348,8.285796165466309,0.20585575699806213,0.0,0.1662377417087555,99
1668411710.32014608,98198693,0,24.746126174926758,24.926498413085938,1.0850225687026978,8.315985679626465,0.20660282671451569,0.0,0.1662377417087555,99
1668411710.41980100,98298348,0,24.751842498779297,24.936880111694336,1.1130859851837158,8.346800804138184,0.20736555755138397,0.0,0.1662377417087555,99
1668411710.52010608,98398653,0,24.718591690063477,24.887048721313477,1.0133470296859741,8.37503719329834,0.2080635279417038,0.0,0.1662377417087555,99
1668411710.62000608,98498553,0,24.680452346801758,24.836410522460938,0.9381592869758606,8.401073455810547,0.2087061107158661,0.0,0.1662377417087555,99
1668411710.72011614,98598663,0,24.7523250579834,24.936494827270508,1.1078687906265259,8.431883811950684,0.2094687521457672,0.0,0.1662377417087555,99
1668411710.81979895,98698346,0,24.743793487548828,24.924341201782227,1.086079716682434,8.461958885192871,0.21021293103694916,0.0,0.1662377417087555,99
1668411710.92008615,98798633,0,24.74388885498047,24.923925399780273,1.0830107927322388,8.492131233215332,0.2109595239162445,0.0,0.1662377417087555,99
1668411711.01986694,98898414,0,24.466176986694336,24.968021392822266,4.119062423706055,8.606307983398438,0.21375299990177155,0.0,0.12183451652526855,99
1668411711.12007213,98998619,0,23.820209503173828,24.962749481201172,10.576072692871094,8.900713920593262,0.22076579928398132,0.0,0.10803062468767166,99
1668411711.21987700,99098424,0,23.614839553833008,24.95619773864746,12.49958324432373,9.247275352478027,0.22894978523254395,0.0,0.10731226205825806,99
1668411711.32019901,99198746,0,23.084138870239258,24.961523056030273,17.910953521728516,9.746443748474121,0.24047265946865082,0.0,0.10481760650873184,99
1668411711.41985703,99298404,0,23.024438858032227,24.649028778076172,15.284907341003418,10.16960620880127,0.2502157390117645,0.0,0.10628723353147507,99
1668411711.52006912,99398616,0,22.66268539428711,24.291250228881836,14.840530395507812,10.58275032043457,0.2595787048339844,0.0,0.10973769426345825,99
1668411711.62003899,99498586,0,22.52306365966797,24.287620544433594,15.643967628479004,11.01720905303955,0.26936405897140503,0.0,0.1127946749329567,99
1668411711.72005105,99598598,0,22.620040893554688,24.488759994506836,16.354413986206055,11.471589088439941,0.27964216470718384,0.0,0.1142638623714447,99
1668411711.81993198,99698479,0,22.572509765625,24.36239242553711,15.386180877685547,11.89850902557373,0.2892788052558899,0.0,0.1163305714726448,99
1668411711.92016315,99798710,0,22.408355712890625,24.222856521606445,15.245011329650879,12.322994232177734,0.2987908124923706,0.0,0.11902263760566711,99
1668411712.01986408,99898411,0,22.3083553314209,24.248859405517578,15.999822616577148,12.76613998413086,0.30867666006088257,0.0,0.12128286808729172,99
1668411712.12014914,99998696,0,22.346067428588867,24.433002471923828,17.079593658447266,13.241963386535645,0.31930944323539734,0.0,0.12218882888555527,99
1668411712.21995807,100098505,0,22.406343460083008,24.410707473754883,16.277385711669922,13.693285942077637,0.32942190766334534,0.0,0.12313800305128098,99
1668411712.32011509,100198662,0,22.42493438720703,24.439409255981445,16.269405364990234,14.145959854125977,0.33957308530807495,0.0,0.12381979823112488,99
1668411712.41993809,100298485,0,22.456941604614258,24.532909393310547,16.760120391845703,14.610727310180664,0.35001033544540405,0.0,0.12386353313922882,99
1668411712.52018309,100398730,0,22.430301666259766,24.511642456054688,16.780376434326172,15.077762603759766,0.36048609018325806,0.0,0.12403425574302673,99
1668411712.61983705,100498384,0,22.43585968017578,24.48368263244629,16.46673583984375,15.533886909484863,0.3707196116447449,0.0,0.12436123192310333,99
1668411712.72010303,100598650,0,22.395036697387695,24.529888153076172,17.164602279663086,16.011987686157227,0.38142669200897217,0.0,0.12437521666288376,99
1668411712.82012606,100698673,0,22.373836517333984,24.517061233520508,17.219192504882812,16.490407943725586,0.3921307921409607,0.0,0.12446720898151398,99
1668411712.92008114,100798628,0,22.337060928344727,24.48056411743164,17.17871856689453,16.96746063232422,0.4027867615222931,0.0,0.1247766986489296,99
1668411713.01995015,100898497,0,22.350954055786133,24.5164737701416,17.346586227416992,17.44871711730957,0.41354331374168396,0.0,0.12483835965394974,99
1668411713.12004995,100998597,0,22.283491134643555,24.459867477416992,17.376968383789062,17.931913375854492,0.4243105947971344,0.0,0.1252449005842209,99
1668411713.22004104,101098588,0,22.34894561767578,24.52194595336914,17.35149574279785,18.413909912109375,0.43508270382881165,0.0,0.12523415684700012,99
1668411713.32009196,101198639,0,22.354215621948242,24.545337677001953,17.517831802368164,18.900808334350586,0.4459669291973114,0.0,0.12507951259613037,99
1668411713.41999412,101298541,0,22.30763816833496,24.51651954650879,17.654701232910156,19.390775680541992,0.45689693093299866,0.0,0.12511572241783142,99
1668411713.52018499,101398732,0,22.251964569091797,24.468875885009766,17.672502517700195,19.88265037536621,0.46784210205078125,0.0,0.12544415891170502,99
1668411713.61990213,101498449,0,22.25543785095215,24.529226303100586,18.1361083984375,20.384990692138672,0.47902190685272217,0.0,0.12537355720996857,99
1668411713.71950507,101598052,0,22.27793312072754,24.52924919128418,17.96619415283203,20.881940841674805,0.490092933177948,0.0,0.12530849874019623,99
1668411713.81988502,101698432,0,22.407878875732422,24.581073760986328,17.29994010925293,21.364532470703125,0.500906765460968,0.0,0.12561865150928497,99
1668411713.92089510,101799442,0,22.492782592773438,24.571014404296875,16.519521713256836,21.828121185302734,0.5113341808319092,0.0,0.1258046180009842,99
1668411714.02090597,101899453,0,22.501117706298828,24.507558822631836,15.971723556518555,22.27186393737793,0.5213189125061035,0.0,0.12562458217144012,99
1668411714.12088609,101999433,0,22.51319122314453,24.503734588623047,15.864927291870117,22.71250343322754,0.5312390923500061,0.0,0.1254681795835495,99
1668411714.22090197,102099449,0,22.507442474365234,24.500991821289062,15.905743598937988,23.15443992614746,0.5411859750747681,0.0,0.1253352016210556,99
1668411714.32093310,102199480,0,22.473617553710938,24.494754791259766,16.142969131469727,23.603031158447266,0.5512674450874329,0.0,0.12520237267017365,99
1668411714.42094493,102299492,0,22.58841896057129,24.641494750976562,16.31451988220215,24.05626678466797,0.5615053176879883,0.0,0.12584343552589417,99
1668411714.52095199,102399499,0,22.511083602905273,24.511394500732422,15.916620254516602,24.498497009277344,0.5714603662490845,0.0,0.12567436695098877,99
1668411714.62084198,102499389,0,22.550949096679688,24.555822372436523,15.940728187561035,24.94084358215332,0.5814356803894043,0.0,0.1257704645395279,99
1668411714.72083998,102599387,0,22.51654624938965,24.509519577026367,15.866461753845215,25.381601333618164,0.5913600325584412,0.0,0.1256091296672821,99
1668411714.82092714,102699474,0,22.477066040039062,24.462907791137695,15.809686660766602,25.821176528930664,0.6012403964996338,0.0,0.1256091296672821,99
1668411714.92084002,102799387,0,22.374719619750977,24.334386825561523,15.601310729980469,26.25420379638672,0.6109292507171631,0.0,0.1256091296672821,99
1668411715.02089000,102899437,0,22.299592971801758,24.24576759338379,15.49389934539795,26.684791564941406,0.6205312013626099,0.0,0.1256091296672821,99
1668411715.12084413,102999391,0,22.3558406829834,24.362651824951172,15.97663402557373,27.12847137451172,0.6304500699043274,0.0,0.1256091296672821,99
1668411715.22081995,103099367,0,22.393310546875,24.394994735717773,15.935818672180176,27.571062088012695,0.6403611302375793,0.0,0.1256091296672821,99
1668411715.32086897,103199416,0,22.414873123168945,24.42662239074707,16.014381408691406,28.016155242919922,0.650337815284729,0.0,0.12562136352062225,99
1668411715.42096305,103299510,0,22.422922134399414,24.443206787109375,16.082340240478516,28.463342666625977,0.6603650450706482,0.0,0.12562136352062225,99
1668411715.52091193,103399459,0,22.41975975036621,24.422101974487305,15.939499855041504,28.905916213989258,0.6702874302864075,0.0,0.12562136352062225,99
1668411715.62091708,103499464,0,22.377788543701172,24.342388153076172,15.639056205749512,29.340373992919922,0.6800096035003662,0.0,0.12562136352062225,99
1668411715.72095895,103599506,0,22.450233459472656,24.488080978393555,16.222145080566406,29.79123306274414,0.6901314854621887,0.0,0.12562136352062225,99
1668411715.82092404,103699471,0,22.495656967163086,24.555402755737305,16.39645767211914,30.246572494506836,0.7003746032714844,0.0,0.12562136352062225,99
1668411715.92087603,103799423,0,22.49460220336914,24.513559341430664,16.07176971435547,30.69283103942871,0.7104130387306213,0.0,0.12562136352062225,99
1668411716.02088094,103899428,0,22.406343460083008,24.370595932006836,15.636295318603516,31.12722396850586,0.7201462388038635,0.0,0.12562136352062225,99
1668411716.12081695,103999364,0,22.437007904052734,24.42388916015625,15.829635620117188,31.566694259643555,0.7300066351890564,0.0,0.12551651895046234,99
1668411716.22082400,104099371,0,22.53120994567871,24.446874618530273,15.257833480834961,31.99058723449707,0.7395574450492859,0.0,0.12555290758609772,99
1668411716.32092810,104199475,0,22.657318115234375,24.54556655883789,14.976177215576172,32.40705871582031,0.7489935755729675,0.0,0.12608346343040466,99
1668411716.42093801,104299485,0,22.680221557617188,24.51521873474121,14.52474308013916,32.81059646606445,0.7581459283828735,0.0,0.12633591890335083,99
1668411716.52082300,104399370,0,22.674951553344727,24.43783950805664,13.976333618164062,33.19841384887695,0.766939640045166,0.0,0.12613385915756226,99
1668411716.62101793,104499565,0,22.65377426147461,24.399099349975586,13.875980377197266,33.58464050292969,0.7756891250610352,0.0,0.12578032910823822,99
1668411716.72087097,104599418,0,22.70015525817871,24.536306381225586,14.54837417602539,33.98820114135742,0.784850001335144,0.0,0.126210018992424,99
1668411716.82085299,104699400,0,22.692392349243164,24.520498275756836,14.455999374389648,34.389713287353516,0.793961226940155,0.0,0.12646007537841797,99
1668411716.92089605,104799443,0,22.727848052978516,24.530973434448242,14.230743408203125,34.78521728515625,0.8029502034187317,0.0,0.1267063170671463,99
1668411717.02089715,104899444,0,22.73031997680664,24.530908584594727,14.189517974853516,35.17925262451172,0.8119067549705505,0.0,0.12689563632011414,99
1668411717.12087011,104999417,0,22.733596801757812,24.52828025817871,14.128242492675781,35.571781158447266,0.8208303451538086,0.0,0.12702810764312744,99
1668411717.22084212,105099389,0,22.74778175354004,24.52342987060547,13.969887733459473,35.95975112915039,0.8296558260917664,0.0,0.1271054595708847,99
1668411717.32092714,105199474,0,22.76848030090332,24.572811126708984,14.160772323608398,36.353458404541016,0.8386200070381165,0.0,0.12741760909557343,99
1668411717.42097807,105299525,0,22.737051010131836,24.537460327148438,14.123332023620605,36.74601745605469,0.8475456237792969,0.0,0.12747767567634583,99
1668411717.51994801,105398495,0,22.69133949279785,24.47031021118164,13.955156326293945,37.12955856323242,0.856248676776886,0.0,0.12747767567634583,99
1668411717.61987400,105498421,0,22.730436325073242,24.495004653930664,13.855417251586914,37.514320373535156,0.864994466304779,0.0,0.12735578417778015,99
1668411717.72083807,105599385,0,22.766563415527344,24.53539276123047,13.876594543457031,37.90353012084961,0.8738554120063782,0.0,0.127468541264534,99
1668411717.82077813,105699325,0,22.74128532409668,24.481897354125977,13.675309181213379,38.28314208984375,0.8824882507324219,0.0,0.1272813230752945,99
1668411717.92078996,105799337,0,22.787839889526367,24.556718826293945,13.871376991271973,38.66859436035156,0.8912718296051025,0.0,0.12752002477645874,99
1668411718.02082300,105899370,0,22.669872283935547,24.388736724853516,13.47917366027832,39.04317092895508,0.8997634053230286,0.0,0.12752002477645874,99
1668411718.12078500,105999332,0,22.751998901367188,24.512710571289062,13.799565315246582,39.4263801574707,0.9084821939468384,0.0,0.12759184837341309,99
1668411718.22093105,106099478,0,22.70887565612793,24.42330551147461,13.436821937561035,39.80015563964844,0.9169701933860779,0.0,0.12759184837341309,99
1668411718.32087207,106199419,0,22.792821884155273,24.528669357299805,13.582901000976562,40.17716979980469,0.9255634546279907,0.0,0.1277965009212494,99
1668411718.42091107,106299458,0,22.789081573486328,24.53827667236328,13.665146827697754,40.557071685791016,0.934221088886261,0.0,0.12800413370132446,99
1668411718.52095604,106399503,0,22.78764533996582,24.494632720947266,13.34199333190918,40.927879333496094,0.9426709413528442,0.0,0.12794102728366852,99
1668411718.62085009,106499397,0,22.761486053466797,24.44301414489746,13.17535400390625,41.29350662231445,0.9509931802749634,0.0,0.12762676179409027,99
1668411718.72089005,106599437,0,22.833175659179688,24.530973434448242,13.281126022338867,41.662601470947266,0.9594207406044006,0.0,0.12783536314964294,99
1668411718.82087612,106699423,0,22.84246253967285,24.53373146057129,13.211873054504395,42.02957534790039,0.9678033590316772,0.0,0.12801125645637512,99
1668411718.92087698,106799424,0,22.86018943786621,24.55219078063965,13.193766593933105,42.3961067199707,0.9761822819709778,0.0,0.12824252247810364,99
1668411719.02087307,106899420,0,22.768863677978516,24.40533447265625,12.760746955871582,42.75058364868164,0.9842532873153687,0.0,0.12824252247810364,99
1668411719.12088394,106999431,0,22.81102752685547,24.46038818359375,12.8810453414917,43.108463287353516,0.9924168586730957,0.0,0.12804558873176575,99
1668411719.22082901,107099376,0,22.848590850830078,24.512874603271484,12.985694885253906,43.46900939941406,1.0006548166275024,0.0,0.12816289067268372,99
1668411719.32089400,107199441,0,22.841501235961914,24.497777938842773,12.921863555908203,43.82817077636719,1.008858561515808,0.0,0.12817630171775818,99
1668411719.42084694,107299394,0,22.87724494934082,24.528743743896484,12.86754322052002,44.18550109863281,1.017033338546753,0.0,0.12834614515304565,99
1668411719.52078915,107399336,0,22.882368087768555,24.5126953125,12.697697639465332,44.53804397583008,1.0251003503799438,0.0,0.12839549779891968,99
1668411719.62084794,107499395,0,22.819461822509766,24.432153701782227,12.560347557067871,44.887176513671875,1.0330673456192017,0.0,0.12839549779891968,99
1668411719.72086716,107599414,0,22.85721778869629,24.485532760620117,12.68586540222168,45.23965835571289,1.0411241054534912,0.0,0.12835665047168732,99
1668411719.82084513,107699392,0,22.91826057434082,24.56374740600586,12.782535552978516,45.59468078613281,1.0492606163024902,0.0,0.12872931361198425,99
1668411719.92086601,107799413,0,22.94106674194336,24.547571182250977,12.459688186645508,45.940879821777344,1.0572028160095215,0.0,0.12893623113632202,99
1668411720.02087998,107899427,0,22.89986228942871,24.468238830566406,12.187478065490723,46.27949905395508,1.0649571418762207,0.0,0.1286875158548355,99
1668411720.12087703,107999424,0,22.89640998840332,24.449504852294922,12.096025466918945,46.615516662597656,1.0726507902145386,0.0,0.12839704751968384,99
1668411720.22097397,108099521,0,22.94106674194336,24.480274200439453,11.99413776397705,46.94903564453125,1.080302119255066,0.0,0.12832991778850555,99
1668411720.32088709,108199434,0,23.038619995117188,24.556880950927734,11.799263000488281,47.27653503417969,1.0878472328186035,0.0,0.12867416441440582,99
1668411720.42094111,108299488,0,23.130245208740234,24.537395477294922,10.921493530273438,47.58009338378906,1.0948686599731445,0.0,0.12884235382080078,99
1668411720.52094793,108399495,0,22.94173812866211,24.460124969482422,11.784839630126953,47.907501220703125,1.1023800373077393,0.0,0.12884235382080078,99
1668411720.62093711,108499484,0,22.86248779296875,24.50370979309082,12.73834228515625,48.26133346557617,1.1104695796966553,0.0,0.12884116172790527,99
1668411720.72089505,108599442,0,22.887306213378906,24.580352783203125,13.187321662902832,48.627342224121094,1.1188465356826782,0.0,0.12838436663150787,99
1668411720.82094216,108699489,0,22.860858917236328,24.554845809936523,13.22107982635498,48.99497604370117,1.1272510290145874,0.0,0.12812770903110504,99
1668411720.92086506,108799412,0,22.816299438476562,24.561132431030273,13.646428108215332,49.373783111572266,1.1358939409255981,0.0,0.12786005437374115,99
1668411721.02086210,108899409,0,22.725261688232422,24.484498977661133,13.73573112487793,49.75535202026367,1.1445651054382324,0.0,0.1280774176120758,99
1668411721.12095404,108999501,0,22.746824264526367,24.524152755737305,13.881503105163574,50.141334533691406,1.153344988822937,0.0,0.12803567945957184,99
1668411721.22083712,109099384,0,22.750656127929688,24.56266212463379,14.182016372680664,50.53485107421875,1.1622977256774902,0.0,0.12776781618595123,99
1668411721.32099605,109199543,0,22.752477645874023,24.56839942932129,14.243326187133789,50.931156158447266,1.1713145971298218,0.0,0.1274927705526352,99
1668411721.42087913,109299426,0,22.732065200805664,24.57170295715332,14.459683418273926,51.33237838745117,1.180435299873352,0.0,0.12722532451152802,99
1668411721.52087593,109399423,0,22.690475463867188,24.49325180053711,14.144508361816406,51.725250244140625,1.1893497705459595,0.0,0.12745417654514313,99
1668411721.62088895,109499436,0,22.68903923034668,24.489883422851562,14.104305267333984,52.11716842651367,1.1982420682907104,0.0,0.1276804655790329,99
1668411721.72092605,109599473,0,22.838626861572266,24.734569549560547,14.849124908447266,52.52983093261719,1.2076666355133057,0.0,0.1276804655790329,99
1668411721.82090616,109699453,0,22.96387481689453,24.943906784057617,15.507708549499512,52.960548400878906,1.2175575494766235,0.0,0.1276804655790329,99
1668411721.92094994,109799497,0,23.00651741027832,24.969369888305664,15.6571626663208,53.39569091796875,1.2275686264038086,0.0,0.12536445260047913,99
1668411722.02099109,109899538,0,23.00875473022461,24.957195281982422,15.542215347290039,53.82763671875,1.2375071048736572,0.0,0.12536445260047913,99
1668411722.12089396,109999441,0,23.03421401977539,24.969024658203125,15.545148849487305,54.259056091308594,1.2474445104599,0.0,0.1244639903306961,99
1668411722.22088695,110099434,0,23.06574249267578,24.96662712097168,16.083738327026367,54.70583724975586,1.2577497959136963,0.0,0.11818679422140121,99
1668411722.32083201,110199379,0,23.023672103881836,24.938194274902344,16.199127197265625,55.155601501464844,1.2681050300598145,0.0,0.11818679422140121,99
1668411722.42085814,110299405,0,23.016963958740234,24.966306686401367,16.612201690673828,55.61720275878906,1.2787296772003174,0.0,0.11734399199485779,99
1668411722.52087402,110399421,0,22.86095428466797,24.757272720336914,16.153404235839844,56.06602096557617,1.2889901399612427,0.0,0.1173943504691124,99
1668411722.62083817,110499385,0,22.92353057861328,24.893787384033203,16.896074295043945,56.5351448059082,1.2997441291809082,0.0,0.11661038547754288,99
1668411722.72089005,110599437,0,22.82204818725586,24.816930770874023,17.14373207092285,57.01172637939453,1.310620665550232,0.0,0.11636225879192352,99
1668411722.82085013,110699397,0,22.706682205200195,24.65715217590332,16.655540466308594,57.4742317199707,1.321122646331787,0.0,0.11710639297962189,99
1668411722.92104316,110799590,0,22.495847702026367,24.36958122253418,16.00026512145996,57.91957092285156,1.3311409950256348,0.0,0.11710639297962189,99
1668411723.02085805,110899405,0,22.37031364440918,24.23067855834961,15.886101722717285,58.360069274902344,1.3409950733184814,0.0,0.11710639297962189,99
1668411723.12090015,110999447,0,22.392353057861328,24.227632522583008,15.671895027160645,58.79561996459961,1.350748062133789,0.0,0.11710639297962189,99
1668411723.22092509,111099472,0,22.309749603271484,24.041057586669922,14.784064292907715,59.206424713134766,1.3599129915237427,0.0,0.11710639297962189,99
1668411723.32087016,111199417,0,22.340604782104492,23.99399757385254,14.118729591369629,59.59830093383789,1.368667721748352,0.0,0.11710639297962189,99
1668411723.42094111,111299488,0,22.607776641845703,24.375699996948242,15.107524871826172,60.0184211730957,1.3781657218933105,0.0,0.11702275276184082,99
1668411723.52096915,111399516,0,22.462881088256836,24.1385440826416,14.319128036499023,60.416316986083984,1.3871036767959595,0.0,0.11702275276184082,99
1668411723.62096095,111499508,0,22.33964729309082,23.943342208862305,13.704121589660645,60.7969856262207,1.3956077098846436,0.0,0.11702275276184082,99
1668411723.72086406,111599411,0,22.334228515625,23.929283142089844,13.630297660827637,61.17526626586914,1.4040563106536865,0.0,0.11702275276184082,99
1668411723.82098103,111699528,0,22.31684112548828,23.874208450317383,13.308236122131348,61.54540252685547,1.4123165607452393,0.0,0.11702275276184082,99
1668411723.92085099,111799398,0,22.250240325927734,23.76077651977539,12.908052444458008,61.90351867675781,1.4202847480773926,0.0,0.11702275276184082,99
1668411724.02085805,111899405,0,22.396377563476562,23.93330955505371,13.133615493774414,62.26839828491211,1.4284567832946777,0.0,0.11702275276184082,99
1668411724.12088203,111999429,0,22.32268714904785,23.784202575683594,12.48914909362793,62.61542892456055,1.4362034797668457,0.0,0.11702275276184082,99
1668411724.22080803,112099355,0,22.43451690673828,23.999679565429688,13.387720108032227,62.987060546875,1.4445408582687378,0.0,0.11691030114889145,99
1668411724.32081413,112199361,0,22.48731803894043,24.056514739990234,13.398768424987793,63.35930252075195,1.452911615371704,0.0,0.11711505800485611,99
1668411724.42093801,112299485,0,22.635278701782227,24.243436813354492,13.73143482208252,63.741233825683594,1.4615567922592163,0.0,0.11711505800485611,99
1668411724.52092314,112399470,0,22.56219482421875,24.122121810913086,13.284537315368652,64.11022186279297,1.4698820114135742,0.0,0.11742429435253143,99
1668411724.62083697,112499384,0,22.601259231567383,24.167821884155273,13.287367820739746,64.4790267944336,1.4782174825668335,0.0,0.11789864301681519,99
1668411724.72095108,112599498,0,22.632020950317383,24.2077579498291,13.30056381225586,64.84893035888672,1.4865891933441162,0.0,0.11847139149904251,99
1668411724.82089305,112699440,0,22.641124725341797,24.224220275878906,13.303325653076172,65.2182846069336,1.4949517250061035,0.0,0.11899998784065247,99
1668411724.92088199,112799429,0,22.54730796813965,24.13149070739746,13.319896697998047,65.58827209472656,1.5032939910888672,0.0,0.1189335286617279,99
1668411725.02100015,112899547,0,22.487703323364258,24.03509521484375,13.010553359985352,65.95013427734375,1.511431336402893,0.0,0.1189335286617279,99
1668411725.12094212,112999489,0,22.562353134155273,24.143186569213867,13.28061580657959,66.31885528564453,1.5197504758834839,0.0,0.11903319507837296,99
1668411725.22088814,113099435,0,22.438446044921875,24.038103103637695,13.37851333618164,66.69031524658203,1.528085470199585,0.0,0.11956915259361267,99
1668411725.32087803,113199425,0,22.400880813598633,24.039260864257812,13.648029327392578,67.06941986083984,1.5365777015686035,0.0,0.12004518508911133,99
1668411725.42101216,113299559,0,22.435571670532227,24.099782943725586,13.855417251586914,67.45484161376953,1.5452247858047485,0.0,0.12011272460222244,99
1668411725.52086711,113399414,0,22.45943260192871,24.0741024017334,13.442959785461426,67.82774353027344,1.5535999536514282,0.0,0.12011272460222244,99
1668411725.62090206,113499449,0,22.414203643798828,23.991350173950195,13.130547523498535,68.19263458251953,1.5617787837982178,0.0,0.12011272460222244,99
1668411725.72080898,113599356,0,22.460678100585938,24.009662628173828,12.896084785461426,68.5505142211914,1.5698169469833374,0.0,0.12011272460222244,99
1668411725.82080317,113699350,0,22.514629364013672,24.08892822265625,13.097709655761719,68.91439056396484,1.5780094861984253,0.0,0.12019656598567963,99
1668411725.92097998,113799527,0,22.605667114257812,24.166893005371094,12.938741683959961,69.27445983886719,1.5861490964889526,0.0,0.12066294252872467,99
1668411726.02097416,113899521,0,22.586599349975586,24.105567932128906,12.583670616149902,69.62401580810547,1.5940444469451904,0.0,0.12070944905281067,99
1668411726.12087107,113999418,0,22.6496524810791,24.16486167907715,12.51707649230957,69.97138214111328,1.6019121408462524,0.0,0.12105140835046768,99
1668411726.22101808,114099565,0,22.668350219726562,24.21164894104004,12.695992469787598,70.3245849609375,1.6099187135696411,0.0,0.12155792117118835,99
1668411726.32011700,114198664,0,22.644861221313477,24.156349182128906,12.423169136047363,70.6666030883789,1.6176636219024658,0.0,0.12166686356067657,99
1668411726.41991901,114298466,0,22.74049949645996,24.272418975830078,12.520758628845215,71.01374053955078,1.6255576610565186,0.0,0.12235032021999359,99
1668411726.52096701,114399514,0,22.61879539489746,24.0638484954834,11.863709449768066,71.34677124023438,1.6330903768539429,0.0,0.12180442363023758,99
1668411726.62091494,114499462,0,22.685972213745117,24.11069107055664,11.714254379272461,71.6720199584961,1.640468955039978,0.0,0.12162268906831741,99
1668411726.72090316,114599450,0,22.695842742919922,24.073776245117188,11.360718727111816,71.98758697509766,1.647631049156189,0.0,0.12128937244415283,99
1668411726.82089400,114699441,0,22.719989776611328,24.094009399414062,11.34291934967041,72.30265808105469,1.6547895669937134,0.0,0.12113459408283234,99
1668411726.92089915,114799446,0,22.734846115112305,24.11647605895996,11.40613842010498,72.61953735351562,1.6619938611984253,0.0,0.12113043665885925,99
1668411727.02094698,114899494,0,22.688047409057617,24.04155921936035,11.210309028625488,72.93110656738281,1.6690627336502075,0.0,0.12073814123868942,99
1668411727.12089205,114999439,0,22.683765411376953,24.02873992919922,11.1741304397583,73.2413558959961,1.6761003732681274,0.0,0.12036499381065369,99
1668411727.22085714,115099404,0,22.628856658935547,23.967920303344727,11.125028610229492,73.55030059814453,1.683091402053833,0.0,0.12036499381065369,99
1668411727.32078409,115199331,0,22.608062744140625,23.978008270263672,11.381587982177734,73.86625671386719,1.6902345418930054,0.0,0.12036499381065369,99
1668411727.42098308,115299530,0,22.522872924804688,23.885061264038086,11.317140579223633,74.18126678466797,1.6973295211791992,0.0,0.12036499381065369,99
1668411727.52094603,115399493,0,22.43221664428711,23.79170799255371,11.294737815856934,74.49491882324219,1.7043653726577759,0.0,0.12036499381065369,99
1668411727.62087393,115499421,0,22.236536026000977,23.55602264404297,10.962377548217773,74.79924011230469,1.7111324071884155,0.0,0.12036499381065369,99
1668411727.72087097,115599418,0,22.247365951538086,23.68303871154785,11.794659614562988,75.1268539428711,1.7184209823608398,0.0,0.12172233313322067,99
1668411727.82087612,115699423,0,22.20475196838379,23.651142120361328,11.748046875,75.45326232910156,1.7256687879562378,0.0,0.12311742454767227,99
1668411727.92094898,115799496,0,22.170509338378906,23.7077579498291,12.394320487976074,75.79782104492188,1.733307957649231,0.0,0.12402843683958054,99
1668411728.02101803,115899565,0,22.013158798217773,23.5770320892334,12.449868202209473,76.14391326904297,1.7409266233444214,0.0,0.12561362981796265,99
1668411728.12092113,115999468,0,22.098447799682617,23.783281326293945,13.392322540283203,76.51557922363281,1.7491399049758911,0.0,0.12580594420433044,99
1668411728.22093105,116099478,0,21.959016799926758,23.627687454223633,13.14926815032959,76.88090515136719,1.757162094116211,0.0,0.12690220773220062,99
1668411728.32099700,116199544,0,22.08905601501465,23.82892417907715,13.733890533447266,77.2626953125,1.7655954360961914,0.0,0.12668423354625702,99
1668411728.42092299,116299470,0,22.14501953125,23.953065872192383,14.378664016723633,77.6618423461914,1.7744344472885132,0.0,0.12574513256549835,99
1668411728.52090812,116399455,0,22.278030395507812,24.145042419433594,14.847591400146484,78.07424926757812,1.7836220264434814,0.0,0.12574513256549835,99
1668411728.62000704,116498554,0,22.308887481689453,24.111459732055664,14.33512020111084,78.46888732910156,1.7924259901046753,0.0,0.12574513256549835,99
1668411728.71987796,116598425,0,22.41813087463379,24.185928344726562,14.058579444885254,78.85893249511719,1.8011701107025146,0.0,0.12574513256549835,99
1668411728.82008100,116698628,0,22.46729278564453,24.282169342041016,14.4329833984375,79.26068878173828,1.8101965188980103,0.0,0.12574513256549835,99
1668411728.92087698,116799424,0,22.519041061401367,24.35340690612793,14.58796215057373,79.66917419433594,1.8193951845169067,0.0,0.12574513256549835,99
1668411729.02096510,116899512,0,22.472562789916992,24.274782180786133,14.332324028015137,80.06767272949219,1.82835054397583,0.0,0.12574513256549835,99
1668411729.12086606,116999413,0,22.367341995239258,24.17365264892578,14.364852905273438,80.4663314819336,1.837267518043518,0.0,0.12574513256549835,99
1668411729.22100210,117099549,0,22.406150817871094,24.24919891357422,14.657011985778809,80.87405395507812,1.8464030027389526,0.0,0.12574513256549835,99
1668411729.32087111,117199418,0,22.3795108795166,24.20619773864746,14.526891708374023,81.27708435058594,1.8554226160049438,0.0,0.12574513256549835,99
1668411729.42096210,117299509,0,22.37836265563965,24.19131088256836,14.417638778686523,81.67779541015625,1.8643898963928223,0.0,0.12574513256549835,99
1668411729.52090406,117399451,0,22.29749298095703,24.089082717895508,14.203158378601074,82.07228088378906,1.8731859922409058,0.0,0.12614022195339203,99
1668411729.62083197,117499379,0,22.28962516784668,24.07416534423828,14.147270202636719,82.46502685546875,1.8819401264190674,0.0,0.12614022195339203,99
1668411729.72092295,117599470,0,22.354215621948242,24.16864013671875,14.384187698364258,82.8649673461914,1.8908804655075073,0.0,0.12614022195339203,99
1668411729.82094908,117699496,0,22.56273651123047,24.384981155395508,14.446178436279297,83.26639556884766,1.8999378681182861,0.0,0.12614022195339203,99
1668411729.92095399,117799501,0,22.686931610107422,24.56751251220703,14.908660888671875,83.68058013916016,1.9093345403671265,0.0,0.12614022195339203,99
1668411730.02091408,117899461,0,22.804990768432617,24.70121192932129,15.032644271850586,84.0979995727539,1.918853759765625,0.0,0.12614022195339203,98
1668411730.12103105,117999578,0,22.80872917175293,24.6849365234375,14.873983383178711,84.5116958618164,1.928289771080017,0.0,0.12614022195339203,98
1668411730.22083497,118099382,0,22.917877197265625,24.846614837646484,15.290431022644043,84.93563842773438,1.9380055665969849,0.0,0.12614022195339203,98
1668411730.32085013,118199397,0,22.918781280517578,24.85149383544922,15.321937561035156,85.36134338378906,1.9477622509002686,0.0,0.12614022195339203,98
1668411730.42002201,118298569,0,22.92621421813965,24.87856674194336,15.477632522583008,85.78775024414062,1.95753812789917,0.0,0.12614022195339203,98
1668411730.51990414,118398451,0,22.8391056060791,24.762386322021484,15.247159004211426,86.2107162475586,1.9671982526779175,0.0,0.12614022195339203,98
1668411730.62008309,118498630,0,22.8391056060791,24.779651641845703,15.384032249450684,86.63895416259766,1.9769788980484009,0.0,0.12614022195339203,98
1668411730.72086310,118599410,0,22.850797653198242,24.806053161621094,15.500648498535156,87.07290649414062,1.9868950843811035,0.0,0.12614022195339203,98
1668411730.82089710,118699444,0,22.905994415283203,24.898296356201172,15.794342041015625,87.51183319091797,1.9969491958618164,0.0,0.12614022195339203,98
1668411730.92088795,118799435,0,22.874753952026367,24.849674224853516,15.656550407409668,87.94673156738281,2.006897449493408,0.0,0.12614022195339203,98
1668411731.02101612,118899563,0,22.707244873046875,24.579504013061523,14.842680931091309,88.35958862304688,2.0162723064422607,0.0,0.12614022195339203,98
1668411731.12083197,118999379,0,22.477928161621094,24.28546142578125,14.329561233520508,88.7569351196289,2.0252039432525635,0.0,0.12614022195339203,98
1668411731.22088313,119099430,0,22.431333541870117,24.217504501342773,14.160194396972656,89.15050506591797,2.0340323448181152,0.0,0.12614022195339203,98
1668411731.32106900,119199616,0,22.348270416259766,24.08159637451172,13.741255760192871,89.53294372558594,2.042579174041748,0.0,0.12614022195339203,98
1668411731.42094111,119299488,0,22.377307891845703,24.096155166625977,13.626480102539062,89.91100311279297,2.051039218902588,0.0,0.12614022195339203,98
1668411731.52087998,119399427,0,22.3843994140625,24.096782684326172,13.575228691101074,90.28788757324219,2.0594756603240967,0.0,0.12614022195339203,98
1668411731.62088799,119499435,0,22.412954330444336,24.105091094970703,13.414726257324219,90.66058349609375,2.067828893661499,0.0,0.12614022195339203,98
1668411731.72084594,119599393,0,22.50418472290039,24.20983123779297,13.521830558776855,91.03606414794922,2.0762786865234375,0.0,0.12614022195339203,98
1668411731.82087207,119699419,0,22.56791114807129,24.286291122436523,13.632617950439453,91.41487121582031,2.0848276615142822,0.0,0.12604920566082,98
1668411731.92100811,119799555,0,22.618316650390625,24.342620849609375,13.655940055847168,91.79475402832031,2.0934200286865234,0.0,0.1262677013874054,98
1668411732.02090406,119899451,0,22.60467529296875,24.297752380371094,13.415136337280273,92.16703796386719,2.101835250854492,0.0,0.12620653212070465,98
1668411732.12082410,119999371,0,22.62099838256836,24.32432746887207,13.486845970153809,92.5414047241211,2.1103038787841797,0.0,0.12629559636116028,98
1668411732.22098899,120099536,0,22.59723472595215,24.308122634887695,13.548223495483398,92.91839599609375,2.1188228130340576,0.0,0.12628138065338135,98
1668411732.31949615,120198043,0,22.572704315185547,24.29796028137207,13.668830871582031,93.29244995117188,2.1272661685943604,0.0,0.1262182742357254,98
1668411732.41992998,120298477,0,22.58487319946289,24.312326431274414,13.683560371398926,93.67423248291016,2.1358885765075684,0.0,0.1262429654598236,98
1668411732.52090216,120399449,0,22.478504180908203,24.23301124572754,13.848360061645508,94.06267547607422,2.144620180130005,0.0,0.1266941875219345,98
1668411732.62089396,120499441,0,22.455312728881836,24.2513484954834,14.142973899841309,94.4555435180664,2.153442144393921,0.0,0.1269914209842682,98
1668411732.72087407,120599421,0,22.51309585571289,24.334014892578125,14.364547729492188,94.85450744628906,2.162424087524414,0.0,0.12676483392715454,98
1668411732.82099104,120699538,0,22.495222091674805,24.29549217224121,14.198723793029785,95.2494125366211,2.1713075637817383,0.0,0.12679103016853333,98
1668411732.92095613,120799503,0,22.50054359436035,24.34169578552246,14.550214767456055,95.65347290039062,2.180399179458618,0.0,0.1265377551317215,98
1668411733.02093697,120899484,0,22.43892478942871,24.251230239868164,14.286904335021973,96.05029296875,2.189303398132324,0.0,0.12685087323188782,98
1668411733.12087107,120999418,0,22.43365478515625,24.21092414855957,14.010704040527344,96.43925476074219,2.1980292797088623,0.0,0.12685087323188782,98
1668411733.22088814,121099435,0,22.453203201293945,24.22549057006836,13.971423149108887,96.82726287841797,2.2067413330078125,0.0,0.12685087323188782,98
1668411733.32084608,121199393,0,22.51156234741211,24.303470611572266,14.126093864440918,97.2197036743164,2.215575695037842,0.0,0.12685087323188782,98
1668411733.42092705,121299474,0,22.556411743164062,24.33563232421875,13.994132995605469,97.6087417602539,2.224350929260254,0.0,0.12714050710201263,98
1668411733.52091312,121399460,0,22.528623580932617,24.25547981262207,13.602234840393066,97.9865951538086,2.232863426208496,0.0,0.12695381045341492,98
1668411733.62007904,121498626,0,22.50905990600586,24.220233917236328,13.51333999633789,98.3588638305664,2.2412428855895996,0.0,0.12662851810455322,98
1668411733.71998000,121598527,0,22.54222869873047,24.3037109375,13.891324996948242,98.744384765625,2.2499332427978516,0.0,0.12680450081825256,98
1668411733.82087016,121699417,0,22.586406707763672,24.31349754333496,13.60008716583252,99.12555694580078,2.258542537689209,0.0,0.12699109315872192,98
1668411733.92088413,121799431,0,22.607391357421875,24.305627822875977,13.36194133758545,99.49681091308594,2.2669355869293213,0.0,0.127095028758049,98
1668411734.02088404,121899431,0,22.544145584106445,24.197019577026367,13.054131507873535,99.85945129394531,2.275110960006714,0.0,0.126616969704628,98
1668411734.12092900,121999476,0,22.533796310424805,24.173187255859375,12.947641372680664,100.21929931640625,2.283219575881958,0.0,0.126616969704628,98
1668411734.22089100,122099438,0,22.63987922668457,24.293569564819336,13.039093971252441,100.58139038085938,2.291417360305786,0.0,0.12682554125785828,98
1668411734.32092309,122199470,0,22.646108627319336,24.259706497192383,12.724225997924805,100.93498229980469,2.299424886703491,0.0,0.12681303918361664,98
1668411734.42097807,122299525,0,22.644861221313477,24.234691619873047,12.55052661895752,101.28382873535156,2.3073244094848633,0.0,0.1266743242740631,98
1668411734.52095008,122399497,0,22.62714385986328,24.159343719482422,12.143251419067383,101.6210708618164,2.314955234527588,0.0,0.12617705762386322,98
1668411734.62096310,122499510,0,22.63039207458496,24.125473022460938,11.902070999145508,101.95173645019531,2.3224382400512695,0.0,0.1256152093410492,98
1668411734.72091413,122599461,0,22.729476928710938,24.23971176147461,12.00794792175293,102.28516387939453,2.330016851425171,0.0,0.12576955556869507,98
1668411734.82084608,122699393,0,22.74500274658203,24.262296676635742,12.041399002075195,102.61946105957031,2.337620496749878,0.0,0.12600639462471008,98
1668411734.92084002,122799387,0,22.751232147216797,24.21792221069336,11.643977165222168,102.94290924072266,2.3449792861938477,0.0,0.12596125900745392,98
1668411735.02085805,122899405,0,22.68453598022461,24.110139846801758,11.3714599609375,103.25886535644531,2.352146625518799,0.0,0.12536682188510895,98
1668411735.12090802,122999455,0,22.71280288696289,24.16385269165039,11.591499328613281,103.58103942871094,2.359464168548584,0.0,0.12518231570720673,98
1668411735.22087216,123099419,0,22.740020751953125,24.204898834228516,11.695534706115723,103.90582275390625,2.366849899291992,0.0,0.12525099515914917,98
1668411735.32093310,123199480,0,22.68485450744629,24.157329559326172,11.774303436279297,104.23311614990234,2.374274492263794,0.0,0.12505830824375153,98
1668411735.42087698,123299424,0,22.707054138183594,24.196596145629883,11.905753135681152,104.56367492675781,2.3817803859710693,0.0,0.12511104345321655,98
1668411735.52102709,123399574,0,22.649269104003906,24.113815307617188,11.705968856811523,104.88935089111328,2.3891568183898926,0.0,0.12511104345321655,98
1668411735.62088704,123499434,0,22.663068771362305,24.158292770385742,11.951173782348633,105.22088623046875,2.396670341491699,0.0,0.12511104345321655,98
1668411735.72097111,123599518,0,22.736953735351562,24.2497615814209,12.091728210449219,105.55707550048828,2.4043142795562744,0.0,0.12511104345321655,98
1668411735.82089901,123699446,0,22.69938850402832,24.209932327270508,12.07362174987793,105.89210510253906,2.411919355392456,0.0,0.12511104345321655,98
1668411735.92090297,123799450,0,22.734268188476562,24.276334762573242,12.325577735900879,106.23465728759766,2.4197070598602295,0.0,0.12511104345321655,98
1668411736.02094197,123899489,0,22.73225975036621,24.232736587524414,11.979100227355957,106.56756591796875,2.4272749423980713,0.0,0.12525787949562073,98
1668411736.12092710,123999474,0,22.643756866455078,24.110637664794922,11.7108793258667,106.8928451538086,2.434640407562256,0.0,0.12525787949562073,98
1668411736.22094893,124099496,0,22.606338500976562,24.093822479248047,11.875371932983398,107.22268676757812,2.4420969486236572,0.0,0.12525787949562073,98
1668411736.32098198,124199529,0,22.702741622924805,24.22751235961914,12.173054695129395,107.56109619140625,2.449779748916626,0.0,0.12525787949562073,98
1668411736.42106915,124299616,0,22.716445922851562,24.208614349365234,11.901457786560059,107.89200592041016,2.457296848297119,0.0,0.12537693977355957,98
1668411736.52083707,124399384,0,22.656265258789062,24.115997314453125,11.642749786376953,108.21469116210938,2.4646077156066895,0.0,0.12537693977355957,98
1668411736.62083507,124499382,0,22.593210220336914,24.033395767211914,11.486849784851074,108.5337905883789,2.4718172550201416,0.0,0.12537693977355957,98
1668411736.72080493,124599352,0,22.665847778320312,24.103418350219727,11.465982437133789,108.85221862792969,2.479034662246704,0.0,0.12537693977355957,98
1668411736.82084012,124699387,0,22.657413482666016,24.079130172729492,11.339543342590332,109.16734313964844,2.4861745834350586,0.0,0.12537693977355957,98
1668411736.92094493,124799492,0,22.693798065185547,24.117277145385742,11.36170768737793,109.4832992553711,2.493344783782959,0.0,0.12528736889362335,98
1668411737.02095795,124899505,0,22.614770889282227,23.983142852783203,10.921867370605469,109.7867202758789,2.500206470489502,0.0,0.12528736889362335,98
1668411737.12089205,124999439,0,22.646299362182617,24.03835678100586,11.11091136932373,110.09521484375,2.507192611694336,0.0,0.12528736889362335,98
1668411737.22087407,125099421,0,22.724206924438477,24.155899047851562,11.398466110229492,110.41180419921875,2.5143868923187256,0.0,0.12560394406318665,98
1668411737.32094908,125199496,0,22.69708824157715,24.141616821289062,11.50066089630127,110.73149871826172,2.5216429233551025,0.0,0.12560394406318665,98
1668411737.42087603,125299423,0,22.660673141479492,24.11674690246582,11.594261169433594,111.05339050292969,2.5289371013641357,0.0,0.12558577954769135,98
1668411737.52090907,125399456,0,22.563215255737305,24.015411376953125,11.510174751281738,111.37324523925781,2.53615403175354,0.0,0.12616625428199768,98
1668411737.62119102,125499738,0,22.515586853027344,24.030561447143555,11.967131614685059,111.70662689208984,2.5436604022979736,0.0,0.1265946477651596,98
1668411737.71985507,125598402,0,22.519603729248047,24.07818031311035,12.301811218261719,112.04380798339844,2.5512535572052,0.0,0.1266949325799942,98
1668411737.81987906,125698426,0,22.545583724975586,24.119691848754883,12.439740180969238,112.38946533203125,2.559046745300293,0.0,0.1265386939048767,98
1668411737.92086005,125799407,0,22.58046531677246,24.160518646240234,12.524441719055176,112.74076843261719,2.566979169845581,0.0,0.12615761160850525,98
1668411738.02096009,125899507,0,22.48415756225586,24.03997039794922,12.295809745788574,113.08272552490234,2.5746676921844482,0.0,0.12653188407421112,98
1668411738.12085700,125999404,0,22.453107833862305,23.98278045654297,12.025440216064453,113.41644287109375,2.582160711288452,0.0,0.12720298767089844,98
1668411738.22092915,126099476,0,22.55401611328125,24.09261131286621,12.100320816040039,113.75284576416016,2.589747905731201,0.0,0.12715323269367218,98
1668411738.32081604,126199363,0,22.56378936767578,24.09403419494629,12.034646987915039,114.08677673339844,2.597282648086548,0.0,0.12715323269367218,98
1668411738.42093897,126299486,0,22.53398895263672,24.050458908081055,11.926315307617188,114.41851043701172,2.6047580242156982,0.0,0.12715323269367218,98
1668411738.52099800,126399545,0,22.482229232788086,23.94741439819336,11.522994995117188,114.73877716064453,2.6119582653045654,0.0,0.12715323269367218,98
1668411738.62089896,126499446,0,22.46135139465332,23.92209815979004,11.488078117370605,115.05763244628906,2.6191203594207764,0.0,0.12715323269367218,98
1668411738.72084999,126599397,0,22.541940689086914,24.032087326049805,11.721007347106934,115.3830795288086,2.6264567375183105,0.0,0.12713472545146942,98
1668411738.82089114,126699438,0,22.536191940307617,23.992155075073242,11.472119331359863,115.701904296875,2.6336417198181152,0.0,0.1269131302833557,98
1668411738.92089009,126799437,0,22.613142013549805,24.078828811645508,11.523676872253418,116.02203369140625,2.640880823135376,0.0,0.12718920409679413,98
1668411739.02091312,126899460,0,22.556411743164062,24.03434181213379,11.621268272399902,116.3449478149414,2.6481645107269287,0.0,0.12717457115650177,98
1668411739.12097406,126999521,0,22.486169815063477,23.995498657226562,11.845603942871094,116.6742172241211,2.6555685997009277,0.0,0.12741675972938538,98
1668411739.22100401,127099551,0,22.486265182495117,24.038387298583984,12.185022354125977,117.01280975341797,2.663182258605957,0.0,0.12737944722175598,98
1668411739.31987405,127198421,0,22.454334259033203,24.05954933166504,12.61756420135498,117.359375,2.670964241027832,0.0,0.12722070515155792,98
1668411739.42010117,127298648,0,22.523351669311523,24.157207489013672,12.842684745788574,117.71694946289062,2.679018020629883,0.0,0.12722070515155792,98
1668411739.52084804,127399395,0,22.489713668823242,24.052011489868164,12.278009414672852,118.06057739257812,2.686746120452881,0.0,0.12724363803863525,98
1668411739.62086511,127499412,0,22.38669776916504,24.028095245361328,12.883193969726562,118.41853332519531,2.6947596073150635,0.0,0.12740610539913177,98
1668411739.72091007,127599457,0,22.381332397460938,24.102670669555664,13.542391777038574,118.79490661621094,2.70318341255188,0.0,0.1271074265241623,98
1668411739.82080507,127699352,0,22.38804054260254,24.113521575927734,13.61052131652832,119.172607421875,2.711639404296875,0.0,0.1267755627632141,98
1668411739.92097497,127799522,0,22.422731399536133,24.080493927001953,13.086661338806152,119.53677368164062,2.7198050022125244,0.0,0.12667568027973175,98
1668411740.02100706,127899554,0,22.405960083007812,24.013961791992188,12.693843841552734,119.88951873779297,2.727708578109741,0.0,0.12667568027973175,98
1668411740.12087011,127999417,0,22.45808982849121,24.06461524963379,12.678193092346191,120.24124145507812,2.735607624053955,0.0,0.12671567499637604,98
1668411740.22087097,128099418,0,22.460826873779297,24.01669692993164,12.299424171447754,120.58290100097656,2.743281602859497,0.0,0.12649944424629211,98
1668411740.32084608,128199393,0,22.543378829956055,24.08023452758789,12.133771896362305,120.91990661621094,2.7508788108825684,0.0,0.1266593039035797,98
1668411740.42093706,128299484,0,22.60825538635254,24.126819610595703,11.954855918884277,121.25231170654297,2.7583940029144287,0.0,0.12702490389347076,98
1668411740.52094507,128399492,0,22.577112197875977,24.063772201538086,11.707503318786621,121.57757568359375,2.765737533569336,0.0,0.12698358297348022,98
1668411740.62095308,128499500,0,22.495561599731445,23.978675842285156,11.67957592010498,121.90206146240234,2.7730369567871094,0.0,0.12698358297348022,98
1668411740.72095203,128599499,0,22.568771362304688,24.053815841674805,11.69522762298584,122.2269515991211,2.780369281768799,0.0,0.12697863578796387,98
1668411740.82093811,128699485,0,22.624643325805664,24.154298782348633,11.997819900512695,122.5602035522461,2.7879090309143066,0.0,0.1274944394826889,98
1668411740.92101812,128799565,0,22.516353607177734,24.01298713684082,11.73880672454834,122.88656616210938,2.795257568359375,0.0,0.1274944394826889,98
1668411741.02098703,128899534,0,22.553058624267578,24.010318756103516,11.455854415893555,123.2047119140625,2.8024327754974365,0.0,0.12720651924610138,98
1668411741.12084198,128999389,0,22.565706253051758,24.022356033325195,11.46570873260498,123.52276611328125,2.809609889984131,0.0,0.12704402208328247,98
1668411741.22088909,129099436,0,22.62215232849121,24.133731842041016,11.898080825805664,123.85344696044922,2.8170907497406006,0.0,0.12704402208328247,98
1668411741.31998610,129198533,0,22.577016830444336,24.0971736907959,11.965597152709961,124.18284606933594,2.8245275020599365,0.0,0.12704402208328247,98
1668411741.42013812,129298685,0,22.6224365234375,24.130733489990234,11.84161376953125,124.51226043701172,2.831979751586914,0.0,0.12737257778644562,98
1668411741.52095413,129399501,0,22.605764389038086,24.094383239746094,11.680804252624512,124.83944702148438,2.8393759727478027,0.0,0.1274414211511612,98
1668411741.62094307,129499490,0,22.5306339263916,23.99605941772461,11.498818397521973,125.15885162353516,2.8465723991394043,0.0,0.1274414211511612,98
1668411741.72087407,129599421,0,22.598194122314453,24.09856414794922,11.75905990600586,125.48529052734375,2.8539493083953857,0.0,0.12759269773960114,98
1668411741.82104397,129699591,0,22.55420684814453,24.03288459777832,11.589044570922852,125.80778503417969,2.861222743988037,0.0,0.12759269773960114,98
1668411741.92093396,129799481,0,22.613941192626953,24.086294174194336,11.53117847442627,126.12775421142578,2.8684585094451904,0.0,0.1276845932006836,98
1668411742.02091694,129899464,0,22.624065399169922,24.08533477783203,11.438362121582031,126.44546508789062,2.8756465911865234,0.0,0.12775155901908875,98
1668411742.12084413,129999391,0,22.606529235839844,24.037322998046875,11.217095375061035,126.7568130493164,2.8826849460601807,0.0,0.12755471467971802,98
1668411742.22088814,130099435,0,22.56992530822754,24.023540496826172,11.396011352539062,127.07357025146484,2.88983416557312,0.0,0.12755471467971802,98
1668411742.32093096,130199478,0,22.547788619995117,24.026052474975586,11.571244239807129,127.3951644897461,2.897085428237915,0.0,0.12775321304798126,98
1668411742.42094207,130299489,0,22.506675720214844,24.013568878173828,11.772256851196289,127.72223663330078,2.904446601867676,0.0,0.12800373136997223,98
1668411742.52093816,130399485,0,22.495561599731445,23.9608154296875,11.446954727172852,128.04022216796875,2.91159987449646,0.0,0.12800373136997223,98
1668411742.62085700,130499404,0,22.450902938842773,23.97446060180664,11.868619918823242,128.36965942382812,2.9189960956573486,0.0,0.1283685266971588,98
1668411742.72104907,130599596,0,22.450712203979492,23.996665954589844,12.02492904663086,128.70436096191406,2.9265100955963135,0.0,0.12856245040893555,98
1668411742.82086802,130699415,0,22.517982482910156,24.102872848510742,12.371611595153809,129.04742431640625,2.934235095977783,0.0,0.12810702621936798,98
1668411742.92085314,130799400,0,22.482912063598633,24.105159759521484,12.7048921585083,129.4003143310547,2.942168951034546,0.0,0.12768688797950745,98
1668411743.02083015,130899377,0,22.41094207763672,24.07349967956543,13.039708137512207,129.76248168945312,2.9502851963043213,0.0,0.12749962508678436,98
1668411743.12085915,130999406,0,22.401552200317383,24.047147750854492,12.907745361328125,130.1211700439453,2.958320140838623,0.0,0.12748906016349792,98
1668411743.22087312,131099420,0,22.444772720336914,24.16343879699707,13.555587768554688,130.497802734375,2.966773509979248,0.0,0.12678658962249756,98
1668411743.32082105,131199368,0,22.455408096313477,24.22554588317871,14.072696685791016,130.88853454589844,2.9755475521087646,0.0,0.125785231590271,98
1668411743.42097402,131299521,0,22.471221923828125,24.254457473754883,14.298566818237305,131.28636169433594,2.9844870567321777,0.0,0.12471424788236618,98
1668411743.52095294,131399500,0,22.510604858398438,24.319215774536133,14.502033233642578,131.68896484375,2.9935498237609863,0.0,0.12471424788236618,98
1668411743.62094307,131499490,0,22.509489059448242,24.350908279418945,14.765105247497559,132.0992889404297,3.0027859210968018,0.0,0.12471424788236618,98
1668411743.72091198,131599459,0,22.54443359375,24.478275299072266,15.506174087524414,132.52989196777344,3.01249361038208,0.0,0.12471424788236618,98
1668411743.82094598,131699493,0,22.653295516967773,24.680408477783203,16.254060745239258,132.9816131591797,3.022726535797119,0.0,0.12471424788236618,98
1668411743.92101908,131799566,0,22.721715927124023,24.812593460083008,16.765338897705078,133.44769287109375,3.0333166122436523,0.0,0.12471424788236618,98
1668411744.02093315,131899480,0,22.75966453552246,24.877561569213867,16.982004165649414,133.91905212402344,3.0440444946289062,0.0,0.12471424788236618,98
1668411744.12082815,131999375,0,22.723918914794922,24.82803726196289,16.871522903442383,134.38719177246094,3.054682493209839,0.0,0.12471424788236618,98
1668411744.22104406,132099591,0,22.68827247619629,24.801576614379883,16.945175170898438,134.8590087890625,3.06538724899292,0.0,0.12471424788236618,98
1668411744.32087612,132199423,0,22.68961524963379,24.86343002319336,17.43036651611328,135.3424072265625,3.076355457305908,0.0,0.12471424788236618,98
1668411744.42088199,132299429,0,22.564002990722656,24.69660758972168,17.16395378112793,135.81922912597656,3.0871143341064453,0.0,0.12424897402524948,98
1668411744.52096200,132399509,0,22.321535110473633,24.40346908569336,16.575376510620117,136.28009033203125,3.0974013805389404,0.0,0.1256040781736374,98
1668411744.62082815,132499375,0,22.34999656677246,24.35630226135254,15.973258972167969,136.72323608398438,3.1073055267333984,0.0,0.1256040781736374,98
