timestamp,TimeUS,Instance,Volt,VoltR,Curr,CurrTot,EnrgTot,Temp,Res,RemPct
1666075016.37947106,78522288,0,24.711238861083984,24.77486801147461,0.4029012620449066,10.03490161895752,0.24819345772266388,0.0,0.15792755782604218,99
1666075016.47977996,78622597,0,24.745901107788086,24.82170295715332,0.4799741804599762,10.048273086547852,0.24852435290813446,0.0,0.15792755782604218,99
1666075016.57976699,78722584,0,24.721275329589844,24.788400650024414,0.4250410795211792,10.06008243560791,0.24881629645824432,0.0,0.15792755782604218,99
1666075016.67981195,78822629,0,24.668664932250977,24.71703338623047,0.3062750995159149,10.068594932556152,0.24902628362178802,0.0,0.15792755782604218,99
1666075016.77983809,78922655,0,24.725683212280273,24.794843673706055,0.4379304051399231,10.080763816833496,0.2493271678686142,0.0,0.15792755782604218,99
1666075016.87975287,79022570,0,24.742164611816406,24.81563949584961,0.46524351835250854,10.093677520751953,0.24964667856693268,0.0,0.15792755782604218,99
1666075016.97993994,79122757,0,24.747085571289062,24.82193946838379,0.47397279739379883,10.106868743896484,0.2499731332063675,0.0,0.15792755782604218,99
1666075017.07974100,79222558,0,24.697603225708008,24.755277633666992,0.3651977479457855,10.11699390411377,0.25022318959236145,0.0,0.15792755782604218,99
1666075017.17993999,79322757,0,24.669431686401367,24.717607498168945,0.30504754185676575,10.12548542022705,0.25043267011642456,0.0,0.15792755782604218,99
1666075017.27990794,79422725,0,24.747243881225586,24.822948455810547,0.4793603718280792,10.138797760009766,0.25076210498809814,0.0,0.15792755782604218,99
1666075017.37989998,79522717,0,24.73277473449707,24.803098678588867,0.4452957808971405,10.151166915893555,0.25106802582740784,0.0,0.15792755782604218,99
1666075017.47974110,79622558,0,24.74695587158203,24.822757720947266,0.4799741804599762,10.16447925567627,0.2513974606990814,0.0,0.15792755782604218,99
1666075017.57998395,79722801,0,24.747817993164062,24.824975967407227,0.4885670840740204,10.178084373474121,0.2517341673374176,0.0,0.15792755782604218,99
1666075017.67986202,79822679,0,24.666364669799805,24.713085174560547,0.295840859413147,10.18629264831543,0.2519366443157196,0.0,0.15792755782604218,99
1666075017.77984095,79922658,0,24.705942153930664,24.76662254333496,0.3842248320579529,10.196964263916016,0.25220030546188354,0.0,0.15792755782604218,99
1666075017.88000703,80022824,0,24.726110458374023,24.79563331604004,0.4402150511741638,10.209214210510254,0.2525031864643097,0.0,0.15792755782604218,99
1666075017.97995400,80122771,0,24.74628448486328,24.822328567504883,0.48150861263275146,10.222583770751953,0.2528340220451355,0.0,0.15792755782604218,99
1666075018.07981586,80222633,0,24.729419708251953,24.798192977905273,0.43547526001930237,10.234664916992188,0.25313276052474976,0.0,0.15792755782604218,99
1666075018.17992187,80322739,0,24.677288055419922,24.728662490844727,0.3253021836280823,10.243711471557617,0.253356009721756,0.0,0.15792755782604218,99
1666075018.27982402,80422641,0,24.724533081054688,24.79136848449707,0.42319974303245544,10.255456924438477,0.2536464035511017,0.0,0.15792755782604218,99
1666075018.37981892,80522636,0,24.73948097229004,24.81193733215332,0.4587988555431366,10.26820182800293,0.2539617121219635,0.0,0.15792755782604218,99
1666075018.47996306,80622780,0,24.741493225097656,24.817052841186523,0.47843971848487854,10.281512260437012,0.25429102778434753,0.0,0.15792755782604218,99
1666075018.57991099,80722728,0,24.69108772277832,24.74590301513672,0.34709128737449646,10.291149139404297,0.2545289695262909,0.0,0.15792755782604218,99
1666075018.67974997,80822567,0,24.645475387573242,24.768369674682617,0.7724393010139465,10.312573432922363,0.2550569772720337,0.0,0.15909846127033234,99
1666075018.77973509,80922552,0,24.297649383544922,24.746017456054688,2.7926888465881348,10.390129089355469,0.25694140791893005,0.0,0.16055072844028473,99
1666075018.87984300,81022660,0,24.429189682006836,24.77080535888672,2.124591588973999,10.449224472045898,0.2583850622177124,0.0,0.16079126298427582,99
1666075018.97983503,81122652,0,24.575040817260742,24.803186416625977,1.4279539585113525,10.488889694213867,0.25935983657836914,0.0,0.15977099537849426,99
1666075019.07978296,81222600,0,24.574752807617188,24.80291748046875,1.435932993888855,10.528759956359863,0.260339617729187,0.0,0.1588962972164154,99
1666075019.17995906,81322776,0,24.491670608520508,24.704254150390625,1.3134844303131104,10.565312385559082,0.261234849691391,0.0,0.16184702515602112,99
1666075019.27977800,81422595,0,24.533065795898438,24.750152587890625,1.334352731704712,10.602313995361328,0.2621425986289978,0.0,0.16269126534461975,99
1666075019.37998700,81522804,0,24.573984146118164,24.797311782836914,1.3727139234542847,10.640527725219727,0.2630816698074341,0.0,0.16269126534461975,99
1666075019.47982597,81622643,0,24.58979606628418,24.811426162719727,1.3622796535491943,10.67831039428711,0.2640107274055481,0.0,0.16269126534461975,99
1666075019.57984495,81722662,0,24.570249557495117,24.780973434448242,1.2953779697418213,10.714303016662598,0.26489508152008057,0.0,0.16267338395118713,99
1666075019.67989397,81822711,0,24.51236915588379,24.6989803314209,1.1471505165100098,10.746186256408691,0.2656766176223755,0.0,0.16267338395118713,99
1666075019.77988696,81922704,0,24.56682014465332,24.775663375854492,1.2838184833526611,10.781847953796387,0.26655271649360657,0.0,0.16267338395118713,99
1666075019.87976789,82022585,0,24.574464797973633,24.787084579467773,1.3070396184921265,10.818114280700684,0.2674439549446106,0.0,0.16267338395118713,99
1666075019.97999191,82122809,0,24.5909481048584,24.8098087310791,1.3454008102416992,10.855573654174805,0.26836511492729187,0.0,0.16267338395118713,99
1666075020.07978988,82222607,0,24.544567108154297,24.744157791137695,1.226941704750061,10.889578819274902,0.26919975876808167,0.0,0.16267338395118713,99
1666075020.17970204,82322519,0,24.50728988647461,24.69554901123047,1.1572779417037964,10.921710014343262,0.26998719573020935,0.0,0.16267338395118713,99
1666075020.27981806,82422635,0,24.569673538208008,24.782243728637695,1.3067327737808228,10.958053588867188,0.2708801329135895,0.0,0.16267338395118713,99
1666075020.37981987,82522637,0,24.582706451416016,24.7977237701416,1.321770429611206,10.994772911071777,0.271782785654068,0.0,0.16267338395118713,99
1666075020.47974586,82622563,0,24.57494354248047,24.788862228393555,1.3150187730789185,11.03127670288086,0.27267986536026,0.0,0.16267338395118713,99
1666075020.57981205,82722629,0,24.58979606628418,24.809106826782227,1.3481627702713013,11.068754196166992,0.2736014127731323,0.0,0.16267338395118713,99
1666075020.67978287,82822600,0,24.50857925415039,24.696565628051758,1.1556071043014526,11.100847244262695,0.2743879556655884,0.0,0.16267338395118713,99
1666075020.77981806,82922635,0,24.567949295043945,24.779621124267578,1.301208734512329,11.137007713317871,0.2752763330936432,0.0,0.16267338395118713,99
1666075020.87984204,83022659,0,24.544662475585938,24.747947692871094,1.249651551246643,11.171730995178223,0.2761286199092865,0.0,0.16267338395118713,99
1666075020.97988892,83122706,0,24.574176788330078,24.789243698120117,1.3220771551132202,11.208475112915039,0.2770315706729889,0.0,0.16267338395118713,99
1666075021.07982087,83222638,0,24.555587768554688,24.764019012451172,1.2800335884094238,11.244010925292969,0.2779041528701782,0.0,0.16283252835273743,99
1666075021.17991304,83322730,0,24.52875328063965,24.725540161132812,1.2085282802581787,11.27761459350586,0.2787284255027771,0.0,0.16283252835273743,99
1666075021.27977204,83422589,0,24.58088493347168,24.797910690307617,1.3328182697296143,11.31458854675293,0.27963727712631226,0.0,0.16283252835273743,99
1666075021.37979007,83522607,0,24.577722549438477,24.79494857788086,1.3340458869934082,11.351655006408691,0.2805482745170593,0.0,0.16283252835273743,99
1666075021.47995400,83622771,0,24.55299949645996,24.761280059814453,1.2791128158569336,11.387247085571289,0.2814221680164337,0.0,0.16283252835273743,99
1666075021.57988691,83722704,0,24.522418975830078,24.71780776977539,1.1999354362487793,11.42055892944336,0.28223904967308044,0.0,0.16283252835273743,99
1666075021.67974997,83822567,0,24.520225524902344,24.714065551757812,1.1904219388961792,11.453582763671875,0.2830488085746765,0.0,0.16283252835273743,99
1666075021.77974796,83922565,0,24.571876525878906,24.78790283203125,1.3266805410385132,11.490437507629395,0.283954381942749,0.0,0.16283252835273743,99
1666075021.87977409,84022591,0,24.568906784057617,24.782684326171875,1.3128706216812134,11.5269193649292,0.28485068678855896,0.0,0.16283252835273743,99
1666075021.97977304,84122590,0,24.58318519592285,24.801759719848633,1.342331886291504,11.564208984375,0.2857673764228821,0.0,0.16283252835273743,99
1666075022.08010507,84222922,0,24.58011817932129,24.79894256591797,1.3438663482666016,11.601665496826172,0.28668805956840515,0.0,0.16283252835273743,99
1666075022.17989397,84322711,0,24.494735717773438,24.679729461669922,1.1361026763916016,11.633159637451172,0.28745949268341064,0.0,0.16283252835273743,99
1666075022.27981400,84422631,0,24.531248092651367,24.73273277282715,1.2373759746551514,11.667506217956543,0.28830206394195557,0.0,0.16283252835273743,99
1666075022.37991691,84522734,0,24.560667037963867,24.771047592163086,1.2920020818710327,11.703434944152832,0.2891845107078552,0.0,0.16283252835273743,99
1666075022.47983503,84622652,0,24.568098068237305,24.780977249145508,1.3073465824127197,11.739723205566406,0.29007604718208313,0.0,0.16283252835273743,99
1666075022.57984209,84722659,0,24.546674728393555,24.752058029174805,1.2613131999969482,11.774765014648438,0.2909362018108368,0.0,0.16283252835273743,99
1666075022.67984509,84822662,0,24.50383949279785,24.694931030273438,1.1735429763793945,11.807367324829102,0.29173508286476135,0.0,0.16283252835273743,99
1666075022.77990103,84922718,0,24.557024002075195,24.76710319519043,1.2901607751846313,11.843228340148926,0.29261571168899536,0.0,0.16283252835273743,99
1666075022.87996006,85022777,0,24.559707641601562,24.773136138916016,1.3107224702835083,11.879661560058594,0.2935104966163635,0.0,0.16283252835273743,99
1666075022.97999406,85122811,0,24.578968048095703,24.79829216003418,1.3469352722167969,11.917091369628906,0.2944304943084717,0.0,0.16283252835273743,99
1666075023.07986188,85222679,0,24.52137565612793,24.718263626098633,1.2091420888900757,11.950636863708496,0.29525309801101685,0.0,0.16283252835273743,99
1666075023.17998004,85322797,0,24.48773956298828,24.672433853149414,1.1342613697052002,11.982183456420898,0.2960256040096283,0.0,0.16283252835273743,99
1666075023.28000689,85422824,0,24.578872680664062,24.79899787902832,1.3518455028533936,12.019747734069824,0.2969488799571991,0.0,0.16283252835273743,99
1666075023.37993789,85522755,0,24.553829193115234,24.7646541595459,1.2947299480438232,12.05569076538086,0.2978314161300659,0.0,0.16283252835273743,99
1666075023.47983503,85622652,0,24.58002281188965,24.800148010253906,1.3518455028533936,12.093206405639648,0.2987535297870636,0.0,0.16283252835273743,99
1666075023.57976604,85722583,0,24.58625030517578,24.808673858642578,1.3659623861312866,12.131126403808594,0.29968583583831787,0.0,0.16283252835273743,99
1666075023.67979193,85822609,0,24.490903854370117,24.677396774291992,1.145309329032898,12.162951469421387,0.30046525597572327,0.0,0.16283252835273743,99
1666075023.77990007,85922717,0,24.536710739135742,24.74179458618164,1.2594718933105469,12.197977066040039,0.30132466554641724,0.0,0.16283252835273743,99
1666075023.87986994,86022687,0,24.563827514648438,24.777305603027344,1.311029314994812,12.234386444091797,0.302219033241272,0.0,0.16283252835273743,99
1666075023.97992992,86122747,0,24.57733917236328,24.797264099121094,1.3506178855895996,12.271928787231445,0.303141713142395,0.0,0.16283252835273743,99
1666075024.07988310,86222700,0,24.54322624206543,24.749258041381836,1.2653027772903442,12.307062149047852,0.3040040135383606,0.0,0.16283252835273743,99
1666075024.18010998,86322927,0,24.514955520629883,24.71014404296875,1.198707938194275,12.340431213378906,0.30482205748558044,0.0,0.16283252835273743,99
1666075024.27980995,86422627,0,24.549646377563477,24.757827758789062,1.2784990072250366,12.375847816467285,0.30569154024124146,0.0,0.16283252835273743,99
1666075024.37983704,86522654,0,24.574378967285156,24.793920516967773,1.3482651710510254,12.413312911987305,0.3066122233867645,0.0,0.16283252835273743,99
1666075024.47977996,86622597,0,24.56622314453125,24.782350540161133,1.3272943496704102,12.450154304504395,0.30751729011535645,0.0,0.16283252835273743,99
1666075024.57981801,86722635,0,24.508056640625,24.702495574951172,1.1941046714782715,12.48334789276123,0.30833080410957336,0.0,0.16283252835273743,99
1666075024.67976308,86822580,0,24.528850555419922,24.730785369873047,1.2401379346847534,12.517779350280762,0.30917537212371826,0.0,0.16283252835273743,99
1666075024.77986193,86922679,0,24.536901473999023,24.74128532409668,1.2551754713058472,12.552682876586914,0.31003180146217346,0.0,0.16283252835273743,99
1666075024.87982607,87022643,0,24.56191062927246,24.779037475585938,1.3334320783615112,12.58971118927002,0.31094127893447876,0.0,0.16283252835273743,99
1666075024.97982287,87122640,0,24.56919288635254,24.78706932067871,1.3380354642868042,12.626882553100586,0.3118545413017273,0.0,0.16283252835273743,99
1666075025.07980609,87222623,0,24.578201293945312,24.799875259399414,1.3613590002059937,12.664694786071777,0.3127838969230652,0.0,0.16283252835273743,99
1666075025.17977190,87322589,0,24.491191864013672,24.681182861328125,1.166791558265686,12.697096824645996,0.31357747316360474,0.0,0.16283252835273743,99
1666075025.27983093,87422648,0,24.546483993530273,24.756641387939453,1.2906380891799927,12.732972145080566,0.31445807218551636,0.0,0.16283252835273743,99
1666075025.37981296,87522630,0,24.55807876586914,24.773256301879883,1.3214634656906128,12.769676208496094,0.3153594434261322,0.0,0.16283252835273743,99
1666075025.47986794,87622685,0,24.3275146484375,24.878124237060547,3.464775323867798,12.86598014831543,0.3177022933959961,0.0,0.1589161604642868,99
1666075025.57992005,87722737,0,23.682588577270508,24.878925323486328,8.881670951843262,13.112841606140137,0.3235486149787903,0.0,0.13469728827476501,99
1666075025.67994905,87822766,0,24.116500854492188,24.79353141784668,5.042797565460205,13.252970695495605,0.326928049325943,0.0,0.1342570036649704,99
1666075025.77995491,87922772,0,22.854150772094727,24.8287296295166,14.76288890838623,13.663104057312012,0.3363012969493866,0.0,0.13375288248062134,99
1666075025.87985706,88022674,0,23.953208923339844,24.851791381835938,6.746951580047607,13.85035228729248,0.34078648686408997,0.0,0.13318338990211487,99
1666075025.98002386,88122841,0,23.549772262573242,24.854969024658203,9.83885669708252,14.124129295349121,0.3472338914871216,0.0,0.13265737891197205,99
1666075026.07981110,88222628,0,22.931198120117188,24.683135986328125,13.126251220703125,14.488003730773926,0.3555779755115509,0.0,0.13346824049949646,99
1666075026.17981005,88322627,0,22.482240676879883,24.552486419677734,15.32326889038086,14.913675308227539,0.36514803767204285,0.0,0.13510474562644958,99
1666075026.27989793,88422715,0,21.959218978881836,24.524946212768555,18.805126190185547,15.436546325683594,0.37662988901138306,0.0,0.13643763959407806,99
1666075026.38000298,88522820,0,21.398420333862305,24.547529220581055,22.93840789794922,16.074438095092773,0.39027976989746094,0.0,0.13728538155555725,99
1666075026.47979689,88622614,0,20.93422508239746,24.50130844116211,25.82162857055664,16.790285110473633,0.4052654802799225,0.0,0.13814327120780945,99
1666075026.57984495,88722662,0,20.85334587097168,24.520919799804688,26.42405128479004,17.52470588684082,0.42058059573173523,0.0,0.1387968212366104,99
1666075026.68002987,88822847,0,20.681142807006836,24.269901275634766,25.556476593017578,18.235971450805664,0.4352903664112091,0.0,0.14042462408542633,99
1666075026.77996206,88922779,0,20.616844177246094,24.26311683654785,25.6951904296875,18.94930648803711,0.44999706745147705,0.0,0.14190490543842316,99
1666075026.87985206,89022669,0,20.90682029724121,24.732248306274414,27.077110290527344,19.700681686401367,0.465705931186676,0.0,0.14127905666828156,99
1666075026.97988009,89122697,0,21.068769454956055,24.804363250732422,26.6026611328125,20.439910888671875,0.4812805652618408,0.0,0.1404217779636383,99
1666075027.07987809,89222695,0,20.849609375,24.422239303588867,25.3005313873291,21.142745971679688,0.495934396982193,0.0,0.1412077397108078,99
1666075027.17985606,89322673,0,20.754016876220703,24.302370071411133,24.916990280151367,21.834787368774414,0.5102970600128174,0.0,0.14240694046020508,99
1666075027.27986407,89422681,0,20.6873722076416,24.227558135986328,24.618932723999023,22.518756866455078,0.5244465470314026,0.0,0.14379934966564178,99
1666075027.37988400,89522701,0,20.689958572387695,24.298330307006836,24.923059463500977,23.211257934570312,0.5387743711471558,0.0,0.14478042721748352,99
1666075027.47988987,89622707,0,20.75406837463379,24.344568252563477,24.67938804626465,23.89688491821289,0.5530039072036743,0.0,0.1454857736825943,99
1666075027.57995486,89722772,0,20.680471420288086,24.216384887695312,24.111644744873047,24.567148208618164,0.5668652653694153,0.0,0.14664751291275024,99
1666075027.67997098,89822788,0,20.645301818847656,24.242778778076172,24.372806549072266,25.244333267211914,0.5808459520339966,0.0,0.1476021111011505,99
1666075027.77999687,89922814,0,20.74026870727539,24.406497955322266,24.803678512573242,25.93355941772461,0.5951406955718994,0.0,0.14780989289283752,99
1666075027.87984300,90022660,0,20.73490333557129,24.35540008544922,24.428661346435547,26.611143112182617,0.6091903448104858,0.0,0.1482069194316864,99
1666075027.97990108,90122718,0,20.868295669555664,24.308406829833984,23.211538314819336,27.25633430480957,0.622654378414154,0.0,0.1482069194316864,99
1666075028.07986498,90222682,0,21.021909713745117,24.327478408813477,22.352420806884766,27.87706184387207,0.6357032656669617,0.0,0.14788413047790527,99
1666075028.17988992,90322707,0,21.021045684814453,24.19399642944336,21.55832862854004,28.476102828979492,0.6482957005500793,0.0,0.14717978239059448,99
1666075028.27981901,90422636,0,21.12042236328125,24.183876037597656,20.89606285095215,29.05609130859375,0.660545289516449,0.0,0.14660435914993286,99
1666075028.38009691,90522914,0,21.26876449584961,24.22919464111328,20.23287582397461,29.619813919067383,0.6725349426269531,0.0,0.14631785452365875,99
1666075028.47991896,90622736,0,21.44652557373047,24.365478515625,19.915552139282227,30.172082901000977,0.6843792200088501,0.0,0.1465664654970169,99
1666075028.57999492,90722812,0,21.428316116333008,24.140888214111328,18.581506729125977,30.688663482666016,0.6954486966133118,0.0,0.14598233997821808,99
1666075028.67988801,90822705,0,21.396215438842773,24.077680587768555,18.45292091369629,31.200742721557617,0.7064052224159241,0.0,0.14531388878822327,99
1666075028.77995992,90922777,0,21.237714767456055,23.800878524780273,17.819808959960938,31.69613265991211,0.7169262170791626,0.0,0.14383786916732788,99
1666075028.87995791,91022775,0,21.347055435180664,23.997207641601562,18.483610153198242,32.209598541259766,0.7278871536254883,0.0,0.14337851107120514,99
1666075028.97998095,91122798,0,21.301536560058594,23.86315155029297,17.968957901000977,32.708892822265625,0.7385228276252747,0.0,0.14255782961845398,99
1666075029.07990503,91222722,0,21.34634017944336,23.973939895629883,18.464481353759766,33.2214469909668,0.7494639754295349,0.0,0.1423056721687317,99
1666075029.17994499,91322762,0,21.206090927124023,23.90384292602539,18.957447052001953,33.748294830322266,0.7606363892555237,0.0,0.1423056721687317,99
1666075029.27990508,91422722,0,21.33210563659668,24.136417388916016,19.706254959106445,34.295509338378906,0.7723096609115601,0.0,0.1423056721687317,99
1666075029.37998009,91522797,0,21.336227416992188,24.138574600219727,19.69244384765625,34.84297561645508,0.7839905023574829,0.0,0.1423056721687317,99
1666075029.47987700,91622694,0,21.34284019470215,24.138591766357422,19.64610481262207,35.388187408447266,0.7956268787384033,0.0,0.1423056721687317,99
1666075029.58007193,91722889,0,21.314760208129883,24.125316619873047,19.750141143798828,35.93791198730469,0.8073440790176392,0.0,0.1423056721687317,99
1666075029.67984295,91822660,0,21.295978546142578,24.052621841430664,19.38125991821289,36.47509002685547,0.8187838196754456,0.0,0.14223237335681915,99
1666075029.77999401,91922811,0,21.098188400268555,23.80851936340332,19.05565071105957,37.0052604675293,0.8299694657325745,0.0,0.14223237335681915,99
1666075029.87983799,92022655,0,20.99229621887207,23.719955444335938,19.1774845123291,37.53717803955078,0.8411356806755066,0.0,0.14223237335681915,99
1666075029.97994995,92122767,0,21.06694793701172,23.88743019104004,19.781713485717773,38.08732986450195,0.8527256846427917,0.0,0.1425802856683731,99
1666075030.07987309,92222690,0,21.013572692871094,23.9654483795166,20.703031539916992,38.662017822265625,0.8648019433021545,0.0,0.14258180558681488,99
1666075030.18000603,92322823,0,21.003511428833008,24.009977340698242,21.112112045288086,39.249290466308594,0.877136766910553,0.0,0.14240482449531555,99
1666075030.27989006,92422707,0,21.03244972229004,24.046226501464844,21.208782196044922,39.83778762817383,0.8895142674446106,0.0,0.14210039377212524,99
1666075030.37995386,92522771,0,21.092247009277344,23.985881805419922,20.36790657043457,40.40396499633789,0.9014562368392944,0.0,0.14206835627555847,99
1666075030.48003602,92622853,0,21.16910171508789,23.987850189208984,19.836376190185547,40.95547866821289,0.9131312370300293,0.0,0.14209997653961182,99
1666075030.57999587,92722813,0,21.21030616760254,23.995281219482422,19.591785430908203,41.49951934814453,0.9246705174446106,0.0,0.14215010404586792,99
1666075030.67990088,92822718,0,21.2352237701416,23.884798049926758,18.684314727783203,42.0180778503418,0.9356821775436401,0.0,0.1418074071407318,99
1666075030.77995706,92922774,0,21.32607078552246,23.881038665771484,18.052738189697266,42.519859313964844,0.9463831782341003,0.0,0.14152799546718597,99
1666075030.87992501,93022742,0,21.41853141784668,23.972370147705078,18.032108306884766,43.02063751220703,0.9571090936660767,0.0,0.14162734150886536,99
1666075030.97997308,93122790,0,21.48130989074707,23.9960880279541,17.73633575439453,43.51358413696289,0.9676982164382935,0.0,0.14178681373596191,99
1666075031.07994008,93222757,0,21.441543579101562,23.82724380493164,16.88103675842285,43.982383728027344,0.9777500033378601,0.0,0.1413242220878601,99
1666075031.17997909,93322796,0,21.450359344482422,23.80548095703125,16.716236114501953,44.44694519042969,0.9877150654792786,0.0,0.1408883035182953,99
1666075031.27986598,93422683,0,21.52146339416504,23.905475616455078,16.920316696166992,44.91646194458008,0.997819721698761,0.0,0.14089642465114594,99
1666075031.37991095,93522728,0,21.525487899780273,23.934600830078125,17.085424423217773,45.39130783081055,1.0080410242080688,0.0,0.14100393652915955,99
1666075031.47986102,93622678,0,21.61173439025879,23.98624610900879,16.808610916137695,45.85801696777344,1.01812744140625,0.0,0.1412675678730011,99
1666075031.57993293,93722750,0,21.594003677368164,23.911577224731445,16.411802291870117,46.31426239013672,1.0279796123504639,0.0,0.14121383428573608,99
1666075031.67987609,93822693,0,21.59141731262207,23.87848663330078,16.213857650756836,46.76443099975586,1.0376993417739868,0.0,0.14105649292469025,99
1666075031.78000808,93922825,0,21.650650024414062,23.920759201049805,16.090864181518555,47.2120246887207,1.047390103340149,0.0,0.14108067750930786,99
1666075031.87986708,94022684,0,21.683700561523438,23.942869186401367,16.002412796020508,47.65594482421875,1.0570158958435059,0.0,0.1411767154932022,99
1666075031.98001194,94122829,0,21.655719757080078,23.899328231811523,15.900832176208496,48.09831237792969,1.0665956735610962,0.0,0.14110012352466583,99
1666075032.07990694,94222724,0,21.735641479492188,23.974578857421875,15.844980239868164,48.53802490234375,1.076153039932251,0.0,0.14130260050296783,99
1666075032.17994094,94322758,0,21.64354705810547,23.831260681152344,15.519984245300293,48.96931838989258,1.085487723350525,0.0,0.14096103608608246,99
1666075032.27990699,94422724,0,21.636838912963867,23.825794219970703,15.560493469238281,49.40141296386719,1.0948368310928345,0.0,0.14067384600639343,99
1666075032.37991810,94522735,0,21.713407516479492,23.98389434814453,16.102766036987305,49.84877395629883,1.1045506000518799,0.0,0.14099977910518646,99
1666075032.47997808,94622795,0,21.744550704956055,24.007383346557617,16.010086059570312,50.293853759765625,1.1142287254333496,0.0,0.14133797585964203,99
1666075032.58011198,94722929,0,21.755094528198242,23.914133071899414,15.282144546508789,50.718955993652344,1.1234768629074097,0.0,0.14127852022647858,99
1666075032.67988706,94822704,0,21.601139068603516,23.691274642944336,14.79443073272705,51.12902069091797,1.1323347091674805,0.0,0.14127852022647858,99
1666075032.77997208,94922789,0,21.700185775756836,23.87700843811035,15.41226577758789,51.55754089355469,1.1416337490081787,0.0,0.14123964309692383,99
1666075032.87996793,95022785,0,21.614225387573242,23.787668228149414,15.388328552246094,51.98501205444336,1.1508731842041016,0.0,0.14123964309692383,99
1666075032.97993994,95122757,0,21.746660232543945,23.977924346923828,15.79771900177002,52.42356491088867,1.1604102849960327,0.0,0.14123964309692383,99
1666075033.07953501,95222352,0,21.658594131469727,23.842004776000977,15.45891284942627,52.85145568847656,1.169677734375,0.0,0.14123964309692383,99
1666075033.17998791,95322805,0,21.730464935302734,23.90398597717285,15.379734992980957,53.2806396484375,1.1790040731430054,0.0,0.1413237452507019,99
1666075033.27986908,95422686,0,21.79035758972168,24.00798797607422,15.691842079162598,53.71603775024414,1.1884914636611938,0.0,0.1413237452507019,99
1666075033.37993097,95522748,0,21.7491512298584,23.959810256958008,15.621562957763672,54.1502799987793,1.1979358196258545,0.0,0.14151330292224884,99
1666075033.47993207,95622749,0,21.823036193847656,24.06105613708496,15.814903259277344,54.589622497558594,1.2075235843658447,0.0,0.14151330292224884,99
1666075033.57999492,95722812,0,21.7574462890625,23.911895751953125,15.235326766967773,55.013126373291016,1.216737985610962,0.0,0.14141137897968292,99
1666075033.67987800,95822695,0,21.717145919799805,23.84440803527832,15.043078422546387,55.43053436279297,1.2258028984069824,0.0,0.14141137897968292,99
1666075033.77999902,95922816,0,21.73075294494629,23.927885055541992,15.537168502807617,55.86267852783203,1.2351937294006348,0.0,0.14141137897968292,99
1666075033.87987709,96022694,0,21.738611221313477,23.941038131713867,15.574610710144043,56.2947998046875,1.2445874214172363,0.0,0.14141137897968292,99
1666075033.97991300,96122730,0,21.793519973754883,23.99329948425293,15.555889129638672,56.72711181640625,1.2540090084075928,0.0,0.14141137897968292,99
1666075034.07988596,96222703,0,21.759790420532227,23.95974349975586,15.557117462158203,57.1591682434082,1.2634104490280151,0.0,0.14141137897968292,99
1666075034.17993999,96322757,0,21.632625579833984,23.820602416992188,15.472417831420898,57.589229583740234,1.2727137804031372,0.0,0.14141137897968292,99
1666075034.27981997,96422637,0,21.732860565185547,23.965665817260742,15.789432525634766,58.0273323059082,1.282235026359558,0.0,0.14141137897968292,99
1666075034.37991500,96522732,0,21.835397720336914,24.03183364868164,15.492364883422852,58.45807647705078,1.2916405200958252,0.0,0.14177541434764862,99
1666075034.47987890,96622696,0,21.79620361328125,23.954980850219727,15.224757194519043,58.88090896606445,1.3008567094802856,0.0,0.14179383218288422,99
1666075034.57994795,96722765,0,21.783842086791992,23.8112735748291,14.34797477722168,59.27976989746094,1.3095453977584839,0.0,0.1413043588399887,99
1666075034.68006992,96822887,0,21.801185607910156,23.89439582824707,14.823346138000488,59.69206619262695,1.3185338973999023,0.0,0.14121031761169434,99
1666075034.77999687,96922814,0,21.50603485107422,23.69892692565918,15.43651008605957,60.120574951171875,1.3277493715286255,0.0,0.14205880463123322,99
1666075034.87995887,97022776,0,21.470195770263672,23.89516830444336,17.072534561157227,60.59467315673828,1.3379284143447876,0.0,0.14203935861587524,99
1666075034.97999096,97122808,0,21.5289363861084,24.04275131225586,17.773160934448242,61.08856964111328,1.3485615253448486,0.0,0.1414387971162796,99
1666075035.07992291,97222740,0,21.46128273010254,23.993045806884766,17.942564010620117,61.586669921875,1.3592513799667358,0.0,0.14110378921031952,99
1666075035.18000197,97322819,0,21.36737060546875,23.87856674194336,17.777151107788086,62.08091354370117,1.3698121309280396,0.0,0.14125971496105194,99
1666075035.27991104,97422728,0,21.25266456604004,23.818004608154297,18.111967086791992,62.5836067199707,1.3804956674575806,0.0,0.1416378915309906,99
1666075035.37998700,97522804,0,21.30801010131836,23.96734046936035,18.809558868408203,63.10653305053711,1.391638159751892,0.0,0.1413818895816803,99
1666075035.47987604,97622693,0,21.150413513183594,23.76215934753418,18.396760940551758,63.61690139770508,1.4024326801300049,0.0,0.14196772873401642,99
1666075035.58008003,97722897,0,21.156166076660156,23.878555297851562,19.167970657348633,64.15060424804688,1.4137237071990967,0.0,0.14202803373336792,99
1666075035.67989993,97822717,0,21.155975341796875,23.811574935913086,18.655773162841797,64.66787719726562,1.4246671199798584,0.0,0.1423473060131073,99
1666075035.77998090,97922798,0,21.169963836669922,23.802227020263672,18.450159072875977,65.18077087402344,1.4355250597000122,0.0,0.14266881346702576,99
1666075035.87994695,98022764,0,21.319934844970703,24.008546829223633,18.845125198364258,65.70423889160156,1.4466853141784668,0.0,0.14266881346702576,99
1666075035.97988987,98122707,0,21.499710083007812,24.175537109375,18.755512237548828,66.22496795654297,1.4578807353973389,0.0,0.14266881346702576,99
1666075036.07989502,98222712,0,21.650161743164062,24.32896614074707,18.77638053894043,66.7466049194336,1.4691742658615112,0.0,0.14266881346702576,99
1666075036.17993188,98322749,0,21.710342407226562,24.30459976196289,18.05365753173828,67.24832153320312,1.4800666570663452,0.0,0.14369702339172363,99
1666075036.27989697,98422714,0,21.781829833984375,24.431543350219727,18.43958854675293,67.76039123535156,1.491220474243164,0.0,0.14369702339172363,99
1666075036.38000107,98522818,0,21.727781295776367,24.474136352539062,19.112117767333984,68.29188537597656,1.502768635749817,0.0,0.14369702339172363,99
1666075036.47996402,98622781,0,21.601863861083984,24.425745010375977,19.651628494262695,68.83760070800781,1.514557123184204,0.0,0.14369702339172363,99
1666075036.58001089,98722828,0,21.6743106842041,24.52747344970703,19.855403900146484,69.38944244384766,1.5265179872512817,0.0,0.14369702339172363,99
1666075036.67994595,98822763,0,21.565065383911133,24.393779754638672,19.74829864501953,69.93769836425781,1.5383411645889282,0.0,0.143238365650177,99
1666075036.78009605,98922913,0,21.581546783447266,24.422040939331055,19.83054542541504,70.48941802978516,1.550248146057129,0.0,0.143238365650177,99
1666075036.87990308,99022720,0,21.504980087280273,24.42378044128418,20.440641403198242,71.05615997314453,1.5624359846115112,0.0,0.14279398322105408,99
1666075036.97997594,99122793,0,21.367082595825195,24.26619529724121,20.270009994506836,71.61967468261719,1.5744765996932983,0.0,0.143024742603302,99
1666075037.07991099,99222728,0,21.085634231567383,23.979961395263672,20.047515869140625,72.17623138427734,1.586211919784546,0.0,0.1443733423948288,99
1666075037.18001604,99322833,0,20.81257438659668,23.74411392211914,20.007108688354492,72.73261260986328,1.5977916717529297,0.0,0.14652489125728607,99
1666075037.27987409,99422691,0,20.943140029907227,24.08002281188965,21.321718215942383,73.32408905029297,1.61017906665802,0.0,0.14712148904800415,99
1666075037.38005710,99522874,0,20.97447395324707,24.15775489807129,21.604055404663086,73.92534637451172,1.6227900981903076,0.0,0.14734646677970886,99
1666075037.47994494,99622762,0,21.05362892150879,24.16608428955078,21.099224090576172,74.51081848144531,1.635116457939148,0.0,0.1475151777267456,99
1666075037.58000207,99722819,0,21.040786743164062,24.089641571044922,20.604211807250977,75.08353424072266,1.6471668481826782,0.0,0.14797243475914001,99
1666075037.67987490,99822692,0,21.17715072631836,24.20879554748535,20.487899780273438,75.65190887451172,1.6592034101486206,0.0,0.14797243475914001,99
1666075037.77996707,99922784,0,21.332489013671875,24.355382919311523,20.35317611694336,76.21788787841797,1.6712771654129028,0.0,0.14852195978164673,99
1666075037.87993193,100022749,0,21.412220001220703,24.429262161254883,20.221214294433594,76.7794418334961,1.683301329612732,0.0,0.1492018699645996,99
1666075037.97997308,100122790,0,21.44959259033203,24.596765518188477,21.09339141845703,77.36565399169922,1.6958754062652588,0.0,0.1492018699645996,99
1666075038.07994699,100222764,0,21.372535705566406,24.627531051635742,21.81604766845703,77.97154998779297,1.708824872970581,0.0,0.1492018699645996,99
1666075038.17997694,100322794,0,21.329519271850586,24.545238494873047,21.552804946899414,78.57046508789062,1.7215994596481323,0.0,0.1492018699645996,99
1666075038.28001499,100422832,0,21.29157066345215,24.55145263671875,21.934268951416016,79.1800308227539,1.734578013420105,0.0,0.14862053096294403,99
1666075038.37999892,100522816,0,21.419885635375977,24.755069732666016,22.440940856933594,79.80333709716797,1.7479292154312134,0.0,0.14862053096294403,99
1666075038.47991300,100622730,0,21.115821838378906,24.24161148071289,21.032012939453125,80.38710021972656,1.7602559328079224,0.0,0.14862053096294403,99
1666075038.58003688,100722854,0,20.914772033691406,24.005897521972656,20.798778533935547,80.9655990600586,1.7723551988601685,0.0,0.14862053096294403,99
1666075038.67987990,100822697,0,20.883342742919922,24.02632713317871,21.1477108001709,81.55216217041016,1.784604549407959,0.0,0.14862053096294403,99
1666075038.78000307,100922820,0,20.840410232543945,23.966564178466797,21.034469604492188,82.13722229003906,1.796797513961792,0.0,0.14862053096294403,99
1666075038.88003087,101022848,0,20.998241424560547,24.278642654418945,22.088327407836914,82.75100708007812,1.8096859455108643,0.0,0.14851288497447968,99
1666075038.97996902,101122786,0,21.16937828063965,24.487430572509766,22.34185218811035,83.37127685546875,1.8228167295455933,0.0,0.14851288497447968,99
1666075039.07987809,101222695,0,21.21577262878418,24.450733184814453,21.78235626220703,83.97583770751953,1.8356430530548096,0.0,0.14851288497447968,99
1666075039.18002295,101322840,0,21.249406814575195,24.37806510925293,21.038150787353516,84.56112670898438,1.848080039024353,0.0,0.14871352910995483,98
1666075039.27988100,101422698,0,21.051712036132812,23.99119758605957,19.766098022460938,85.10945129394531,1.8596231937408447,0.0,0.14871352910995483,98
1666075039.37994909,101522766,0,21.034271240234375,23.937429428100586,19.52181625366211,85.65213775634766,1.8710381984710693,0.0,0.14871352910995483,98
1666075039.47989297,101622710,0,21.0631160736084,24.028114318847656,19.93764877319336,86.20569610595703,1.8826978206634521,0.0,0.14871352910995483,98
1666075039.58001208,101722829,0,21.018266677856445,23.90106964111328,19.38494110107422,86.74484252929688,1.8940298557281494,0.0,0.14871352910995483,98
1666075039.67990589,101822723,0,21.016637802124023,23.83782958984375,18.97064208984375,87.27128601074219,1.905094027519226,0.0,0.14871352910995483,98
1666075039.77998900,101922806,0,21.062349319458008,23.973630905151367,19.576440811157227,87.8155746459961,1.916558027267456,0.0,0.14871352910995483,98
1666075039.87994599,102022763,0,21.01434898376465,23.85854148864746,19.125314712524414,88.34664916992188,1.927718162536621,0.0,0.14871352910995483,98
1666075039.98000193,102122819,0,21.0029354095459,23.875789642333984,19.31804084777832,88.88336181640625,1.9389907121658325,0.0,0.14871352910995483,98
1666075040.07995391,102222771,0,21.067237854003906,24.053640365600586,20.081581115722656,89.44120788574219,1.9507430791854858,0.0,0.14871352910995483,98
1666075040.17995596,102322773,0,21.352996826171875,24.39503288269043,20.455678939819336,90.00947570800781,1.9628773927688599,0.0,0.14871352910995483,98
1666075040.27996397,102422781,0,21.503448486328125,24.299787521362305,18.707637786865234,90.5290298461914,1.974049687385559,0.0,0.1494757980108261,98
1666075040.37997890,102522796,0,21.604930877685547,24.373567581176758,18.41793441772461,91.04093933105469,1.9851093292236328,0.0,0.15032286942005157,98
1666075040.47981405,102622631,0,21.468564987182617,24.127283096313477,17.709636688232422,91.5321044921875,1.9956538677215576,0.0,0.15012837946414948,98
1666075040.57999206,102722809,0,21.269052505493164,23.87271499633789,17.342905044555664,92.01473999023438,2.0059192180633545,0.0,0.15012837946414948,98
1666075040.67986608,102822683,0,21.265600204467773,23.779375076293945,16.744165420532227,92.47928619384766,2.0157980918884277,0.0,0.15012837946414948,98
1666075040.77992797,102922745,0,21.42630386352539,23.90348243713379,16.562110900878906,92.93968963623047,2.025662899017334,0.0,0.14956898987293243,98
1666075040.87991190,103022729,0,21.50766372680664,23.87158966064453,15.86308479309082,93.3801040649414,2.035135269165039,0.0,0.14902062714099884,98
1666075040.98012400,103122941,0,21.59084129333496,23.93514633178711,15.753219604492188,93.81884765625,2.0446081161499023,0.0,0.1488143652677536,98
1666075041.07992005,103222737,0,21.617292404174805,23.96397590637207,15.775622367858887,94.2562026977539,2.054062604904175,0.0,0.1487537920475006,98
1666075041.17999697,103322814,0,21.439626693725586,23.774831771850586,15.773473739624023,94.6947250366211,2.063464403152466,0.0,0.1480463147163391,98
1666075041.27992296,103422740,0,21.548391342163086,23.905956268310547,15.934897422790527,95.1370620727539,2.072996139526367,0.0,0.14794979989528656,98
1666075041.37996793,103522785,0,21.97310447692871,24.338716506958008,15.835772514343262,95.57717895507812,2.0826668739318848,0.0,0.1493840366601944,98
1666075041.47987604,103622693,0,22.060977935791016,24.246667861938477,14.552669525146484,95.9810791015625,2.0915772914886475,0.0,0.15019166469573975,98
1666075041.57999802,103722815,0,22.04791259765625,24.206836700439453,14.327277183532715,96.37957763671875,2.100363254547119,0.0,0.15068623423576355,98
1666075041.67983699,103822654,0,22.00836753845215,24.048656463623047,13.554974555969238,96.75552368164062,2.1086373329162598,0.0,0.15051954984664917,98
1666075041.77995706,103922774,0,22.098159790039062,24.088882446289062,13.224761962890625,97.12335205078125,2.1167657375335693,0.0,0.15052993595600128,98
1666075041.87997699,104022794,0,22.049671173095703,23.978397369384766,12.845447540283203,97.48027038574219,2.124635696411133,0.0,0.15014857053756714,98
1666075041.97997594,104122793,0,22.10601806640625,23.953977584838867,12.339387893676758,97.82305145263672,2.1322133541107178,0.0,0.14976096153259277,98
1666075042.07981396,104222631,0,22.118282318115234,23.8675479888916,11.728371620178223,98.1483383178711,2.1394081115722656,0.0,0.14914821088314056,98
1666075042.18000102,104322818,0,22.006547927856445,23.83056640625,12.280158042907715,98.49011993408203,2.1469295024871826,0.0,0.1485338658094406,98
1666075042.27986288,104422680,0,21.963041305541992,23.847076416015625,12.720850944519043,98.8429946899414,2.154679775238037,0.0,0.14810611307621002,98
1666075042.38000607,104522823,0,21.862035751342773,23.75702476501465,12.794811248779297,99.19895935058594,2.162461996078491,0.0,0.14810611307621002,98
1666075042.47987890,104622696,0,21.99180030822754,23.980531692504883,13.427751541137695,99.5715103149414,2.1706550121307373,0.0,0.14810611307621002,98
1666075042.57997298,104722790,0,21.817575454711914,23.828866958618164,13.546381950378418,99.94818115234375,2.178873062133789,0.0,0.14847443997859955,98
1666075042.67988110,104822698,0,21.76611328125,23.93868064880371,14.642894744873047,100.35458374023438,2.1877188682556152,0.0,0.14837001264095306,98
1666075042.78000808,104922825,0,21.632625579833984,23.996143341064453,15.964052200317383,100.79862976074219,2.197324752807617,0.0,0.14805243909358978,98
1666075042.87993598,105022753,0,21.535070419311523,24.01674461364746,16.803085327148438,101.26508331298828,2.207369804382324,0.0,0.14769160747528076,98
1666075042.97997594,105122793,0,21.372161865234375,24.0346622467041,18.07513999938965,101.76741027832031,2.2181055545806885,0.0,0.1473018229007721,98
1666075043.08002901,105222846,0,21.071548461914062,23.883827209472656,19.05902671813965,102.29714965820312,2.2292680740356445,0.0,0.14755629003047943,98
1666075043.17998600,105322803,0,21.07059097290039,23.916534423828125,19.274770736694336,102.83236694335938,2.2405455112457275,0.0,0.14765119552612305,98
1666075043.27984595,105422663,0,20.997087478637695,23.706308364868164,18.23564338684082,103.33824920654297,2.2511675357818604,0.0,0.1485673487186432,98
1666075043.37997293,105522790,0,21.298215866088867,24.213163375854492,19.780351638793945,103.88844299316406,2.262885808944702,0.0,0.1473657637834549,98
1666075043.47987604,105622693,0,21.26023292541504,24.238779067993164,20.37404441833496,104.45388793945312,2.274907350540161,0.0,0.14619319140911102,98
1666075043.57998896,105722806,0,21.100391387939453,23.99972915649414,19.8443546295166,105.00578308105469,2.2865524291992188,0.0,0.14610391855239868,98
1666075043.67997408,105822791,0,21.082185745239258,23.73823356628418,18.061023712158203,105.5074462890625,2.297128677368164,0.0,0.1470596194267273,98
1666075043.77998996,105922807,0,21.12578773498535,23.771724700927734,17.992279052734375,106.0073471069336,2.3076894283294678,0.0,0.1470596194267273,98
1666075043.87988305,106022700,0,21.155780792236328,23.910924911499023,18.72850799560547,106.52706909179688,2.3186845779418945,0.0,0.14710961282253265,98
1666075043.97994995,106122767,0,21.153963088989258,23.90740394592285,18.70948028564453,107.04717254638672,2.3296868801116943,0.0,0.14716821908950806,98
1666075044.07993388,106222751,0,21.05286407470703,23.760009765625,18.31574249267578,107.55590057373047,2.3403971195220947,0.0,0.14780433475971222,98
1666075044.17999005,106322807,0,20.86647605895996,23.519916534423828,17.95238494873047,108.05489349365234,2.350809335708618,0.0,0.14780433475971222,98
1666075044.27986908,106422686,0,20.9114933013916,23.624610900878906,18.251022338867188,108.5613021850586,2.361398935317993,0.0,0.14865562319755554,98
1666075044.37994194,106522759,0,20.956554412841797,23.649456024169922,18.115034103393555,109.06490325927734,2.371952772140503,0.0,0.14865562319755554,98
1666075044.47990894,106622726,0,21.025453567504883,23.69207763671875,17.938268661499023,109.56305694580078,2.3824267387390137,0.0,0.14865562319755554,98
1666075044.58005595,106722873,0,21.057077407836914,23.767377853393555,18.22950553894043,110.07022094726562,2.39310622215271,0.0,0.14867661893367767,98
1666075044.67988992,106822707,0,21.245094299316406,24.04113006591797,18.806150436401367,110.59178924560547,2.404186964035034,0.0,0.14867661893367767,98
1666075044.77995396,106922771,0,21.52146339416504,24.278532028198242,18.5440673828125,111.1072769165039,2.415280818939209,0.0,0.14867661893367767,98
1666075044.87994099,107022758,0,21.635211944580078,24.330738067626953,17.94747543334961,111.605712890625,2.4260644912719727,0.0,0.15018969774246216,98
1666075044.97999096,107122808,0,21.64929962158203,24.352210998535156,17.847429275512695,112.10184478759766,2.436805248260498,0.0,0.1514453887939453,98
1666075045.07993293,107222750,0,21.608379364013672,24.318674087524414,17.79464340209961,112.5958480834961,2.4474799633026123,0.0,0.1523095667362213,98
1666075045.18010807,107322925,0,21.6751708984375,24.38091278076172,17.661455154418945,113.08720397949219,2.458130121231079,0.0,0.1532004028558731,98
1666075045.27986002,107422677,0,21.638830184936523,24.35746955871582,17.674753189086914,113.5771713256836,2.4687323570251465,0.0,0.15381482243537903,98
1666075045.38001990,107522837,0,21.62505340576172,24.395553588867188,18.01192283630371,114.0783462524414,2.479570150375366,0.0,0.15381482243537903,98
1666075045.47991800,107622735,0,21.60655975341797,24.38081932067871,17.98276710510254,114.57740020751953,2.4903531074523926,0.0,0.15427325665950775,98
1666075045.57996988,107722787,0,21.646041870117188,24.39674186706543,17.782367706298828,115.07164764404297,2.501051664352417,0.0,0.15468691289424896,98
1666075045.67986488,107822682,0,21.548198699951172,24.297332763671875,17.774696350097656,115.5649185180664,2.5116806030273438,0.0,0.15466561913490295,98
1666075045.77997494,107922792,0,21.607900619506836,24.433643341064453,18.2700138092041,116.0730209350586,2.5226595401763916,0.0,0.15466561913490295,98
1666075045.87988305,108022700,0,21.418926239013672,24.0996150970459,17.332162857055664,116.55406188964844,2.5329630374908447,0.0,0.15466561913490295,98
1666075045.97997403,108122791,0,21.379638671875,24.126543045043945,17.760272979736328,117.04788970947266,2.543520927429199,0.0,0.15466561913490295,98
1666075046.07993698,108222754,0,21.291717529296875,24.044275283813477,17.79682731628418,117.54209899902344,2.5540435314178467,0.0,0.15466561913490295,98
1666075046.17998886,108322806,0,21.23148536682129,23.916542053222656,17.360395431518555,118.02462768554688,2.564288377761841,0.0,0.15466561913490295,98
1666075046.27989292,108422710,0,21.365644454956055,24.10538101196289,17.713932037353516,118.51616668701172,2.5747904777526855,0.0,0.15466561913490295,98
1666075046.38000107,108522818,0,21.433013916015625,24.179807662963867,17.75229263305664,119.00994110107422,2.585373640060425,0.0,0.1547289341688156,98
1666075046.47981596,108622633,0,21.42084312438965,24.15184211730957,17.655624389648438,119.49950408935547,2.595860481262207,0.0,0.1546815037727356,98
1666075046.57998800,108722805,0,21.44662094116211,24.199787139892578,17.798940658569336,119.99481201171875,2.606483221054077,0.0,0.1546815037727356,98
1666075046.67987108,108822688,0,21.460229873657227,24.15245819091797,17.411338806152344,120.47793579101562,2.6168510913848877,0.0,0.15462496876716614,98
1666075046.77995396,108922771,0,21.460708618164062,24.122779846191406,17.232728958129883,120.95706176757812,2.627133369445801,0.0,0.15447768568992615,98
1666075046.87994099,109022758,0,21.47230339050293,24.172649383544922,17.47394561767578,121.44242858886719,2.6375551223754883,0.0,0.15453559160232544,98
1666075046.98001504,109122832,0,21.44770622253418,24.164356231689453,17.57756996154785,121.93109130859375,2.648035764694214,0.0,0.15455211699008942,98
1666075047.07986498,109222682,0,21.467512130737305,24.15934181213379,17.417478561401367,122.41423034667969,2.65840744972229,0.0,0.15454766154289246,98
1666075047.17995310,109322770,0,21.366796493530273,24.00408363342285,17.064556121826172,122.88870239257812,2.6685454845428467,0.0,0.15454766154289246,98
1666075047.28005195,109422869,0,21.32319450378418,23.994630813598633,17.28551483154297,123.36930847167969,2.678793430328369,0.0,0.15454766154289246,98
1666075047.37994695,109522764,0,21.355392456054688,24.057859420776367,17.46259117126465,123.85397338867188,2.689143657684326,0.0,0.1547575443983078,98
1666075047.47990799,109622725,0,21.40177345275879,24.093603134155273,17.39384651184082,124.33698272705078,2.6994807720184326,0.0,0.1547575443983078,98
1666075047.57997799,109722795,0,21.33555793762207,23.997180938720703,17.198667526245117,124.81510162353516,2.709681749343872,0.0,0.1547575443983078,98
1666075047.67988706,109822704,0,21.240589141845703,23.927717208862305,17.363466262817383,125.2970199584961,2.7199180126190186,0.0,0.1547575443983078,98
1666075047.77995586,109922773,0,21.267040252685547,23.994482040405273,17.594858169555664,125.78614044189453,2.7303202152252197,0.0,0.15501351654529572,98
1666075047.87989998,110022717,0,21.24370002746582,23.963937759399414,17.509033203125,126.27226257324219,2.740647315979004,0.0,0.15536199510097504,98
1666075047.97998500,110122802,0,21.2409725189209,23.958454132080078,17.453998565673828,126.75755310058594,2.75095534324646,0.0,0.15569396317005157,98
1666075048.07991409,110222731,0,21.1785888671875,23.90680503845215,17.466886520385742,127.2423095703125,2.7612218856811523,0.0,0.1561935693025589,98
1666075048.18002295,110322840,0,21.200437545776367,23.893709182739258,17.243165969848633,127.72196960449219,2.771390914916992,0.0,0.1561935693025589,98
1666075048.27980399,110422621,0,21.222000122070312,23.914840698242188,17.240402221679688,128.19985961914062,2.7815327644348145,0.0,0.1561935693025589,98
1666075048.37995601,110522773,0,21.247297286987305,23.977624893188477,17.47732162475586,128.6861114501953,2.7918643951416016,0.0,0.15622112154960632,98
1666075048.47985792,110622675,0,21.28371238708496,24.029333114624023,17.575218200683594,129.1738739013672,2.802245855331421,0.0,0.15622112154960632,98
1666075048.57993507,110722752,0,21.26426124572754,23.96903419494629,17.313751220703125,129.65521240234375,2.812481164932251,0.0,0.15622112154960632,98
1666075048.67986989,110822687,0,21.17839813232422,23.843618392944336,17.06056785583496,130.12884521484375,2.822511911392212,0.0,0.15622112154960632,98
1666075048.77994990,110922767,0,21.240398406982422,23.940414428710938,17.283300399780273,130.60935974121094,2.8327183723449707,0.0,0.15622112154960632,98
1666075048.87991095,111022728,0,21.28783416748047,24.01264762878418,17.442028045654297,131.0937042236328,2.843029022216797,0.0,0.15622112154960632,98
1666075048.97997689,111122794,0,21.308340072631836,24.025146484375,17.390777587890625,131.5771484375,2.853330373764038,0.0,0.15622112154960632,98
1666075049.07995701,111222774,0,21.283233642578125,24.00402069091797,17.416250228881836,132.0608673095703,2.8636255264282227,0.0,0.15622112154960632,98
1666075049.17998791,111322805,0,21.242027282714844,23.90432357788086,17.041847229003906,132.53443908691406,2.873685121536255,0.0,0.15622112154960632,98
1666075049.27989888,111422716,0,21.280359268188477,23.97828483581543,17.26648712158203,133.01364135742188,2.883882761001587,0.0,0.15625210106372833,98
1666075049.38007402,111522891,0,21.294830322265625,24.033611297607422,17.527957916259766,133.50144958496094,2.894270658493042,0.0,0.15625210106372833,98
1666075049.47985697,111622674,0,21.343318939208984,24.0894832611084,17.575218200683594,133.98851013183594,2.9046661853790283,0.0,0.15625210106372833,98
1666075049.57998610,111722803,0,21.297990798950195,23.93800926208496,16.919090270996094,134.45924377441406,2.914691925048828,0.0,0.1560378521680832,98
1666075049.67986488,111822682,0,21.305561065673828,23.932031631469727,16.852630615234375,134.92684936523438,2.924654483795166,0.0,0.15584927797317505,98
1666075049.77992606,111922743,0,21.305082321166992,23.9677677154541,17.08757209777832,135.40182495117188,2.9347739219665527,0.0,0.15582583844661713,98
1666075049.87992406,112022741,0,21.315048217773438,23.964712142944336,17.00716781616211,135.874267578125,2.9448440074920654,0.0,0.1557968556880951,98
1666075049.98009300,112122910,0,21.333641052246094,23.943178176879883,16.760120391845703,136.3406524658203,2.954793691635132,0.0,0.1556992381811142,98
1666075050.07987595,112222693,0,21.333927154541016,23.97201156616211,16.940879821777344,136.81024169921875,2.9648120403289795,0.0,0.15572300553321838,98
1666075050.17993307,112322750,0,21.27240562438965,23.87957000732422,16.74232292175293,137.27561950683594,2.9747116565704346,0.0,0.15572300553321838,98
1666075050.27985501,112422672,0,21.31926727294922,23.957067489624023,16.937196731567383,137.7457275390625,2.984733819961548,0.0,0.15574012696743011,98
1666075050.37994790,112522765,0,21.318689346313477,23.942581176757812,16.851882934570312,138.21435546875,2.9947242736816406,0.0,0.15570320188999176,98
1666075050.47989988,112622717,0,21.333162307739258,24.003643035888672,17.151100158691406,138.69056701660156,3.004883289337158,0.0,0.15570320188999176,98
1666075050.57983708,112722654,0,21.295116424560547,23.92713165283203,16.904052734375,139.15988159179688,3.0148773193359375,0.0,0.15570320188999176,98
1666075050.67991400,112822731,0,21.257539749145508,23.836896896362305,16.565860748291016,139.6204376220703,3.024667501449585,0.0,0.15570320188999176,98
1666075050.77984810,112922665,0,21.271638870239258,23.914020538330078,16.961748123168945,140.09132385253906,3.034684181213379,0.0,0.1557847112417221,98
1666075050.88000798,113022825,0,21.26972198486328,23.940839767456055,17.149869918823242,140.56851196289062,3.0448336601257324,0.0,0.15575148165225983,98
1666075050.97978687,113122604,0,21.336610794067383,23.9899959564209,17.0360164642334,141.0407257080078,3.0549092292785645,0.0,0.15575148165225983,98
1666075051.07984304,113222660,0,21.372451782226562,24.011777877807617,16.919702529907227,141.51101684570312,3.064960479736328,0.0,0.15599128603935242,98
1666075051.17984986,113322667,0,21.31150245666504,23.934234619140625,16.822113037109375,141.97836303710938,3.074920415878296,0.0,0.15590976178646088,98
1666075051.27987409,113422691,0,21.33574867248535,23.95437240600586,16.795106887817383,142.44503784179688,3.0848774909973145,0.0,0.15591585636138916,98
1666075051.37974286,113522560,0,21.39228630065918,24.031095504760742,16.895151138305664,142.9137725830078,3.094904661178589,0.0,0.15618734061717987,98
1666075051.48001289,113622830,0,21.419692993164062,24.06669807434082,16.9476318359375,143.38584899902344,3.1050164699554443,0.0,0.15618734061717987,98
1666075051.57982993,113722647,0,21.426410675048828,24.07775115966797,16.975385665893555,143.85653686523438,3.1151015758514404,0.0,0.15618734061717987,98
1666075051.67985892,113822676,0,21.381267547607422,23.995893478393555,16.74232292175293,144.32180786132812,3.125049591064453,0.0,0.1561686098575592,98
1666075051.77985001,113922667,0,21.37676429748535,24.018802642822266,16.917863845825195,144.79173278808594,3.1350951194763184,0.0,0.1561686098575592,98
1666075051.87990594,114022723,0,21.3782958984375,24.066871643066406,17.215850830078125,145.270263671875,3.145325183868408,0.0,0.1561686098575592,98
1666075051.97982502,114122642,0,21.410015106201172,24.125429153442383,17.38770866394043,145.75289916992188,3.155658483505249,0.0,0.1561686098575592,98
1666075052.07988596,114222703,0,21.398420333862305,24.050893783569336,16.977705001831055,146.22482299804688,3.165756940841675,0.0,0.15623274445533752,98
1666075052.17981291,114322630,0,21.302974700927734,23.961153030395508,17.014225006103516,146.6971435546875,3.175818681716919,0.0,0.15623274445533752,98
1666075052.27957296,114422390,0,21.331436157226562,24.012128829956055,17.15324592590332,147.17251586914062,3.1859588623046875,0.0,0.1562790721654892,98
1666075052.38097405,114523791,0,21.366891860961914,24.083459854125977,17.382801055908203,147.6621856689453,3.1964213848114014,0.0,0.1562790721654892,98
1666075052.47989893,114622716,0,21.40650177001953,24.105974197387695,17.27341079711914,148.1368865966797,3.206583023071289,0.0,0.1562790721654892,98
1666075052.57978797,114722605,0,21.31763458251953,23.997499465942383,17.127466201782227,148.61215209960938,3.21671462059021,0.0,0.15646596252918243,98
1666075052.68101406,114823831,0,21.314186096191406,23.983535766601562,17.060258865356445,149.09190368652344,3.226940155029297,0.0,0.15646596252918243,98
1666075052.77974606,114922563,0,21.330093383789062,23.991519927978516,17.00962257385254,149.55844116210938,3.236891508102417,0.0,0.15646596252918243,98
1666075052.87985706,115022674,0,21.326740264892578,24.03130531311035,17.288583755493164,150.0392303466797,3.247145414352417,0.0,0.1564365029335022,98
1666075052.97972488,115122542,0,21.316871643066406,24.032337188720703,17.361623764038086,150.52090454101562,3.257413387298584,0.0,0.1564062237739563,98
1666075053.07986307,115222680,0,21.297225952148438,23.971555709838867,17.09861946105957,150.99656677246094,3.2675435543060303,0.0,0.1564062237739563,98
1666075053.17982197,115322639,0,21.21375846862793,23.875560760498047,17.018522262573242,151.46914672851562,3.277568817138672,0.0,0.1564062237739563,98
1666075053.27985907,115422676,0,21.17705535888672,23.848026275634766,17.077136993408203,151.9437255859375,3.28761887550354,0.0,0.1564062237739563,98
1666075053.37975907,115522576,0,21.239439010620117,23.926483154296875,17.16156768798828,152.4199981689453,3.297734498977661,0.0,0.1565733253955841,98
1666075053.47986698,115622684,0,21.22324562072754,23.920639038085938,17.20879364013672,152.89857482910156,3.307891607284546,0.0,0.1567450612783432,98
1666075053.57989907,115722716,0,21.19689178466797,23.90496253967285,17.253292083740234,153.37802124023438,3.318054437637329,0.0,0.15695969760417938,98
1666075053.67986298,115822680,0,21.120134353637695,23.803255081176758,17.094324111938477,153.8527374267578,3.328080415725708,0.0,0.15695969760417938,98
1666075053.77984691,115922664,0,21.14389991760254,23.807510375976562,16.970033645629883,154.3240966796875,3.3380465507507324,0.0,0.15695969760417938,98
1666075053.87988091,116022698,0,21.153484344482422,23.891510009765625,17.436811447143555,154.80865478515625,3.348296642303467,0.0,0.15702563524246216,98
1666075053.97975087,116122568,0,21.10527801513672,23.829248428344727,17.313751220703125,155.28900146484375,3.3584346771240234,0.0,0.15732991695404053,98
1666075054.07991886,116222736,0,21.154821395874023,23.878971099853516,17.306690216064453,155.77059936523438,3.3686227798461914,0.0,0.15740448236465454,98
1666075054.17975307,116322570,0,21.079980850219727,23.729015350341797,16.829477310180664,156.2373504638672,3.3784618377685547,0.0,0.15740448236465454,98
1666075054.27945495,116422272,0,21.04448127746582,23.721044540405273,17.004369735717773,156.7083282470703,3.3883731365203857,0.0,0.15740448236465454,98
1666075054.38095808,116523775,0,21.093109130859375,23.785232543945312,17.10322380065918,157.1904296875,3.3985421657562256,0.0,0.15740448236465454,98
1666075054.47993994,116622757,0,21.193920135498047,23.889570236206055,17.125627517700195,157.6614990234375,3.4085259437561035,0.0,0.15740448236465454,98
1666075054.57981396,116722631,0,21.222000122070312,23.924943923950195,17.171966552734375,158.13790893554688,3.4186363220214844,0.0,0.15740448236465454,98
1666075054.68090200,116823719,0,21.157026290893555,23.830503463745117,16.984764099121094,158.6149139404297,3.4287281036376953,0.0,0.15740448236465454,98
1666075054.77979207,116922609,0,21.25285530090332,23.929851531982422,16.978012084960938,159.08132934570312,3.438640832901001,0.0,0.15767425298690796,98
1666075054.87985992,117022677,0,21.35472297668457,24.07217025756836,17.23457145690918,159.5604248046875,3.4488718509674072,0.0,0.15767425298690796,98
1666075054.97976589,117122583,0,21.37532615661621,24.10598373413086,17.3183536529541,160.04107666015625,3.459146022796631,0.0,0.15767425298690796,98
1666075055.07989788,117222715,0,21.37906265258789,24.0579776763916,16.944868087768555,160.51242065429688,3.4692230224609375,0.0,0.15809592604637146,98
1666075055.17978501,117322602,0,21.29534149169922,23.927886962890625,16.66440773010254,160.97483825683594,3.4790701866149902,0.0,0.15797412395477295,98
1666075055.27988696,117422704,0,21.23589515686035,23.948047637939453,17.16521453857422,161.45217895507812,3.4892067909240723,0.0,0.1580028235912323,98
1666075055.37987494,117522692,0,21.183475494384766,23.873323440551758,17.024045944213867,161.925048828125,3.4992237091064453,0.0,0.1580028235912323,98
1666075055.47988987,117622707,0,21.24854278564453,23.957639694213867,17.14588165283203,162.4014434814453,3.5093462467193604,0.0,0.1580028235912323,98
1666075055.57981110,117722628,0,21.13527488708496,23.806259155273438,16.904664993286133,162.8706817626953,3.519263744354248,0.0,0.1580028235912323,98
1666075055.67999387,117822811,0,21.123199462890625,23.859195709228516,17.289505004882812,163.35186767578125,3.529428005218506,0.0,0.15824604034423828,98
1666075055.77972007,117922537,0,21.164981842041016,23.860912322998047,17.03632164001465,163.82383728027344,3.539417266845703,0.0,0.15824604034423828,98
1666075055.87988091,118022698,0,21.19861602783203,23.895177841186523,17.040311813354492,164.29798889160156,3.549468517303467,0.0,0.15824604034423828,98
