timestamp,TimeUS,Instance,Volt,VoltR,Curr,CurrTot,EnrgTot,Temp,Res,RemPct
1666076467.84007215,72732021,0,24.855051040649414,24.918140411376953,0.46756711602211,9.803857803344727,0.2437615692615509,0.0,0.13493166863918304,99
1666076467.93996596,72831915,0,24.79755401611328,24.84360122680664,0.3412604033946991,9.81332778930664,0.24399641156196594,0.0,0.13493166863918304,99
1666076468.03991604,72931865,0,24.836076736450195,24.8940486907959,0.4296444058418274,9.825257301330566,0.24429269134998322,0.0,0.13493166863918304,99
1666076468.13995504,73031904,0,24.86185646057129,24.926372528076172,0.47813287377357483,9.838544845581055,0.24462305009365082,0.0,0.13493166863918304,99
1666076468.23991704,73131866,0,24.866647720336914,24.933151245117188,0.49286356568336487,9.852231979370117,0.2449633926153183,0.0,0.13493166863918304,99
1666076468.33996916,73231918,0,24.81212043762207,24.861604690551758,0.3667322099208832,9.862424850463867,0.24521631002426147,0.0,0.13493166863918304,99
1666076468.43989110,73331840,0,24.82076644897461,24.873586654663086,0.3914538025856018,9.873291015625,0.24548602104187012,0.0,0.13493166863918304,99
1666076468.54027510,73432224,0,24.85821533203125,24.92231559753418,0.4750639796257019,9.8865385055542,0.24581533670425415,0.0,0.13493166863918304,99
1666076468.63969016,73531639,0,24.8686580657959,24.935699462890625,0.4968530535697937,9.900259971618652,0.24615657329559326,0.0,0.13493166863918304,99
1666076468.74002409,73631973,0,24.852367401123047,24.91456413269043,0.46094706654548645,9.913107872009277,0.24647587537765503,0.0,0.13493166863918304,99
1666076468.83996797,73731917,0,24.80771255493164,24.856409072875977,0.3609012961387634,9.923128128051758,0.2467244565486908,0.0,0.13493166863918304,99
1666076468.94005704,73832006,0,24.832914352416992,24.890846252441406,0.4293375015258789,9.935065269470215,0.2470209002494812,0.0,0.13493166863918304,99
1666076469.03992796,73931877,0,24.868467330932617,24.93617057800293,0.5017632842063904,9.948986053466797,0.24736709892749786,0.0,0.13493166863918304,99
1666076469.13997602,74031925,0,24.85849952697754,24.923553466796875,0.48212242126464844,9.962385177612305,0.24770018458366394,0.0,0.13493166863918304,99
1666076469.23993301,74131882,0,24.863386154174805,24.929805755615234,0.4922496974468231,9.976053237915039,0.24804000556468964,0.0,0.13493166863918304,99
1666076469.33992505,74231874,0,24.83098793029785,24.88758087158203,0.41941478848457336,9.98770523071289,0.24832932651042938,0.0,0.13493166863918304,99
1666076469.43991804,74331867,0,24.839048385620117,24.898056030273438,0.4373166561126709,9.999853134155273,0.2486310601234436,0.0,0.13493166863918304,99
1666076469.53990316,74431852,0,24.81125831604004,24.862232208251953,0.37778016924858093,10.010346412658691,0.2488914132118225,0.0,0.13493166863918304,99
1666076469.63988900,74531838,0,24.86693572998047,24.934598922729492,0.5014563798904419,10.024274826049805,0.2492377758026123,0.0,0.13493166863918304,99
1666076469.74018216,74632131,0,24.864635467529297,24.931758880615234,0.4974668622016907,10.038134574890137,0.24958239495754242,0.0,0.13493166863918304,99
1666076469.83998108,74731930,0,24.804931640625,24.85338020324707,0.35905998945236206,10.048089027404785,0.24982932209968567,0.0,0.13493166863918304,99
1666076469.94004011,74831989,0,24.82601547241211,24.880882263183594,0.40662774443626404,10.059391975402832,0.2501099109649658,0.0,0.13493166863918304,99
1666076470.03990602,74931855,0,24.854379653930664,24.9171142578125,0.46493661403656006,10.072290420532227,0.25043049454689026,0.0,0.13493166863918304,99
1666076470.14002705,75031976,0,24.82026481628418,24.943265914916992,0.9292594194412231,10.098136901855469,0.2510719895362854,0.0,0.13236401975154877,99
1666076470.23994517,75131894,0,24.55723762512207,24.97429656982422,3.2076704502105713,10.187172889709473,0.25325846672058105,0.0,0.13001909852027893,99
1666076470.34021997,75232169,0,24.600435256958008,24.9005184173584,2.298290967941284,10.251194953918457,0.2548334300518036,0.0,0.13056804239749908,99
1666076470.43967700,75331626,0,24.715620040893555,24.91681671142578,1.5418096780776978,10.293793678283691,0.2558862864971161,0.0,0.1304941177368164,99
1666076470.54005003,75431999,0,24.738330841064453,24.951894760131836,1.6519826650619507,10.33985710144043,0.257025808095932,0.0,0.12927688658237457,99
1666076470.63991714,75531866,0,24.722423553466797,24.93631362915039,1.6614964008331299,10.38595199584961,0.2581653892993927,0.0,0.128732830286026,99
1666076470.74006009,75632009,0,24.73737335205078,24.944381713867188,1.6173043251037598,10.43094539642334,0.25927838683128357,0.0,0.12799561023712158,99
1666076470.83992004,75731869,0,24.71964454650879,24.913991928100586,1.5141897201538086,10.47295093536377,0.26031672954559326,0.0,0.12835103273391724,99
1666076470.93991899,75831868,0,24.69032096862793,24.87104034423828,1.4080060720443726,10.512064933776855,0.26128247380256653,0.0,0.12835103273391724,99
1666076471.03989697,75931846,0,24.736892700195312,24.928207397460938,1.4905593395233154,10.553457260131836,0.2623063921928406,0.0,0.12835103273391724,99
1666076471.13991308,76031862,0,24.752620697021484,24.9468994140625,1.5136440992355347,10.595518112182617,0.2633475065231323,0.0,0.12835103273391724,99
1666076471.23991108,76131860,0,24.754911422729492,24.951780319213867,1.5338305234909058,10.638128280639648,0.2644023299217224,0.0,0.12835103273391724,99
1666076471.33994603,76231895,0,24.70555877685547,24.888208389282227,1.4230436086654663,10.677674293518066,0.2653793394565582,0.0,0.12835103273391724,99
1666076471.43995714,76331906,0,24.70488929748535,24.88852310180664,1.4307159185409546,10.717424392700195,0.2663613557815552,0.0,0.12835103273391724,99
1666076471.54018116,76432130,0,24.74187660217285,24.935043334960938,1.5049829483032227,10.759326934814453,0.26739808917045593,0.0,0.12835103273391724,99
1666076471.63999414,76531943,0,24.753087997436523,24.950586318969727,1.5387407541275024,10.801993370056152,0.2684542238712311,0.0,0.12835103273391724,99
1666076471.74003005,76631979,0,24.73133659362793,24.921878814697266,1.4838076829910278,10.843228340148926,0.2694740295410156,0.0,0.12841393053531647,99
1666076471.83998203,76731931,0,24.689842224121094,24.86785125732422,1.3862169981002808,10.881718635559082,0.27042433619499207,0.0,0.12841393053531647,99
1666076471.94001102,76831960,0,24.729419708251953,24.91905403137207,1.4767491817474365,10.922755241394043,0.2714391350746155,0.0,0.12841393053531647,99
1666076472.03972316,76931672,0,24.74921417236328,24.94542694091797,1.5279655456542969,10.965080261230469,0.2724866271018982,0.0,0.12841393053531647,99
1666076472.14001918,77031968,0,24.730091094970703,24.92072296142578,1.4847283363342285,11.006447792053223,0.2735096514225006,0.0,0.12839464843273163,99
1666076472.23991704,77131866,0,24.738428115844727,24.931304931640625,1.5022209882736206,11.048136711120605,0.2745409607887268,0.0,0.12839464843273163,99
1666076472.33999300,77231942,0,24.692049026489258,24.871726989746094,1.3994132280349731,11.087042808532715,0.2755016088485718,0.0,0.12839464843273163,99
1666076472.43993402,77331883,0,24.71954917907715,24.90887451171875,1.4727596044540405,11.127931594848633,0.27651235461235046,0.0,0.12855133414268494,99
1666076472.54006696,77432016,0,24.721561431884766,24.910799026489258,1.4712251424789429,11.168856620788574,0.27752408385276794,0.0,0.12862534821033478,99
1666076472.63994908,77531898,0,24.736989974975586,24.933134078979492,1.524930715560913,11.211169242858887,0.2785707712173462,0.0,0.12862534821033478,99
1666076472.73998499,77631934,0,24.74609375,24.942750930786133,1.5289204120635986,11.253658294677734,0.2796221971511841,0.0,0.12862534821033478,99
1666076472.84001708,77731966,0,24.671443939208984,24.84674644470215,1.3628934621810913,11.291531562805176,0.2805565893650055,0.0,0.12862534821033478,99
1666076472.94022512,77832174,0,24.70087242126465,24.884950637817383,1.4311251640319824,11.331371307373047,0.2815406620502472,0.0,0.12862534821033478,99
1666076473.03997707,77931926,0,24.72539520263672,24.917118072509766,1.4905593395233154,11.372675895690918,0.2825619578361511,0.0,0.12862534821033478,99
1666076473.14001513,78031964,0,24.747722625732422,24.946157455444336,1.5427303314208984,11.415548324584961,0.28362295031547546,0.0,0.12862534821033478,99
1666076473.24003100,78131980,0,24.71811294555664,24.907468795776367,1.472145915031433,11.456451416015625,0.284633994102478,0.0,0.12862534821033478,99
1666076473.34003806,78231987,0,24.689266204833984,24.870332717895508,1.4076992273330688,11.495559692382812,0.28559955954551697,0.0,0.12862534821033478,99
1666076473.43971515,78331664,0,24.725202560424805,24.91700553894043,1.4911730289459229,11.536850929260254,0.28662049770355225,0.0,0.12862534821033478,99
1666076473.54006505,78432014,0,24.741302490234375,24.937959671020508,1.5289204120635986,11.579472541809082,0.28767502307891846,0.0,0.12862534821033478,99
1666076473.63972211,78531671,0,24.723478317260742,24.915557861328125,1.4933212995529175,11.620814323425293,0.28869715332984924,0.0,0.12862534821033478,99
1666076473.74006295,78632012,0,24.74407958984375,24.94124984741211,1.532909870147705,11.663543701171875,0.2897544503211975,0.0,0.12862534821033478,99
1666076473.83995605,78731905,0,24.70225715637207,24.88703727722168,1.4365808963775635,11.703409194946289,0.2907392382621765,0.0,0.12862534821033478,99
1666076473.94028997,78832239,0,24.67719268798828,24.854904174804688,1.3816137313842773,11.741918563842773,0.29168954491615295,0.0,0.12862534821033478,99
1666076474.03992009,78931869,0,24.72702407836914,24.91938018798828,1.4954694509506226,11.783308982849121,0.2927130162715912,0.0,0.12862534821033478,99
1666076474.14009595,79032045,0,24.743122100830078,24.94068717956543,1.5359787940979004,11.826053619384766,0.2937706410884857,0.0,0.12862534821033478,99
1666076474.23989701,79131846,0,24.74005699157715,24.936359405517578,1.526158332824707,11.868366241455078,0.2948174476623535,0.0,0.12862534821033478,99
1666076474.34032512,79232274,0,24.674989700317383,24.852344512939453,1.3788516521453857,11.906834602355957,0.2957666516304016,0.0,0.12862534821033478,99
1666076474.43996310,79331912,0,24.70785903930664,24.895004272460938,1.4549602270126343,11.947107315063477,0.296761691570282,0.0,0.12862534821033478,99
1666076474.53997803,79431927,0,24.735265731811523,24.93030548095703,1.5163379907608032,11.989237785339355,0.2978037893772125,0.0,0.12862534821033478,99
1666076474.63998199,79531931,0,24.73660659790039,24.933067321777344,1.527385950088501,12.031670570373535,0.29885342717170715,0.0,0.12862534821033478,99
1666076474.74004316,79631992,0,24.738990783691406,24.93592071533203,1.5310343503952026,12.074228286743164,0.29990628361701965,0.0,0.12862534821033478,99
1666076474.83980703,79731756,0,24.729705810546875,24.923442840576172,1.506210446357727,12.115972518920898,0.30093860626220703,0.0,0.12862534821033478,99
1666076474.94003415,79831983,0,24.677480697631836,24.8569278717041,1.3951168060302734,12.154816627502441,0.30189719796180725,0.0,0.12862534821033478,99
1666076475.04000902,79931958,0,24.69568634033203,24.879751205444336,1.4310227632522583,12.194560050964355,0.3028787076473236,0.0,0.12862534821033478,99
1666076475.14004207,80031991,0,24.736797332763672,24.932785034179688,1.5237032175064087,12.236902236938477,0.30392611026763916,0.0,0.12862534821033478,99
1666076475.23975205,80131701,0,24.737565994262695,24.93446159362793,1.5307615995407104,12.279302597045898,0.3049750030040741,0.0,0.12862534821033478,99
1666076475.34010315,80232052,0,24.696840286254883,24.883472442626953,1.4509705305099487,12.319751739501953,0.30597397685050964,0.0,0.12862534821033478,99
1666076475.43999100,80331940,0,24.348405838012695,24.985187530517578,5.017940044403076,12.458995819091797,0.30936434864997864,0.0,0.12690085172653198,99
1666076475.54005313,80432002,0,24.41720962524414,25.012903213500977,4.772735595703125,12.59166431427002,0.31260374188423157,0.0,0.12481177598237991,99
1666076475.63993502,80531884,0,24.2312068939209,25.014951705932617,6.95955753326416,12.784772872924805,0.3172830045223236,0.0,0.11261409521102905,99
1666076475.74007297,80632022,0,24.150806427001953,24.98482322692871,7.471209526062012,12.992607116699219,0.32230237126350403,0.0,0.11163079738616943,99
1666076475.83991098,80731860,0,24.06398582458496,24.928327560424805,7.744033336639404,13.207389831542969,0.32747089862823486,0.0,0.11161395907402039,99
1666076475.94030595,80832255,0,24.11017608642578,24.942325592041016,7.469982147216797,13.415725708007812,0.3324939012527466,0.0,0.11139912158250809,99
1666076476.03997707,80931926,0,23.765480041503906,24.958942413330078,10.743258476257324,13.713191986083984,0.3395633101463318,0.0,0.11108943819999695,99
1666076476.14005399,81032003,0,23.439374923706055,24.92371368408203,13.352734565734863,14.084412574768066,0.3482644855976105,0.0,0.11116369068622589,99
1666076476.24013400,81132083,0,22.951894760131836,24.628870010375977,14.783143997192383,14.495416641235352,0.35769781470298767,0.0,0.11343833804130554,99
1666076476.34005308,81232002,0,22.354595184326172,24.494937896728516,18.47624397277832,15.008275985717773,0.36916258931159973,0.0,0.11584299802780151,99
1666076476.43982697,81331776,0,21.82619857788086,24.493837356567383,22.691055297851562,15.637202262878418,0.38288965821266174,0.0,0.11756346374750137,99
1666076476.54004407,81431993,0,21.50956916809082,24.61170196533203,26.207286834716797,16.3668270111084,0.3985835909843445,0.0,0.11836906522512436,99
1666076476.63975406,81531703,0,21.504980087280273,24.7465763092041,27.35576820373535,17.12455940246582,0.41487860679626465,0.0,0.11849775165319443,99
1666076476.74013805,81632087,0,21.479969024658203,24.70389175415039,27.140945434570312,17.881437301635742,0.4311363399028778,0.0,0.11878446489572525,99
1666076476.84003496,81731984,0,21.425058364868164,24.556066513061523,26.17117691040039,18.607715606689453,0.4466969072818756,0.0,0.11963570863008499,99
1666076476.94004607,81831995,0,21.149456024169922,24.3232479095459,26.156139373779297,19.334413528442383,0.4620661735534668,0.0,0.12134025990962982,99
1666076477.04003811,81931987,0,21.10259437561035,24.233421325683594,25.40610122680664,20.040138244628906,0.4769588112831116,0.0,0.12323132902383804,99
1666076477.14004397,82031993,0,21.296552658081055,24.494382858276367,25.812116622924805,20.75724983215332,0.4922308027744293,0.0,0.12388875335454941,99
1666076477.23991799,82131867,0,21.18798065185547,24.33199119567871,25.124685287475586,21.454326629638672,0.5070004463195801,0.0,0.12513631582260132,99
1666076477.33999205,82231941,0,21.20619010925293,24.283384323120117,24.33321762084961,22.130809783935547,0.5213460922241211,0.0,0.12646061182022095,99
1666076477.43992615,82331875,0,21.329944610595703,24.331005096435547,23.543149948120117,22.784406661987305,0.5352872610092163,0.0,0.12747064232826233,99
1666076477.54022098,82432170,0,21.424678802490234,24.425743103027344,23.4438533782959,23.437597274780273,0.549281656742096,0.0,0.12801067531108856,99
1666076477.63996601,82531915,0,21.38327980041504,24.4309024810791,23.720361709594727,24.094867706298828,0.5633362531661987,0.0,0.12848132848739624,99
1666076477.74002409,82631973,0,21.311790466308594,24.424835205078125,24.144174575805664,24.765981674194336,0.5776389241218567,0.0,0.12893566489219666,99
1666076477.84000111,82731950,0,21.264545440673828,24.445247650146484,24.60542869567871,25.449356079101562,0.5921705961227417,0.0,0.1292683482170105,99
1666076477.94017601,82832125,0,21.084102630615234,24.299976348876953,24.707931518554688,26.136951446533203,0.6066679358482361,0.0,0.130155548453331,99
1666076478.04004502,82931994,0,21.270488739013672,24.479328155517578,24.637346267700195,26.820480346679688,0.6212069392204285,0.0,0.13024289906024933,99
1666076478.14005709,83032006,0,21.227750778198242,24.328750610351562,23.809358596801758,27.481983184814453,0.6352491974830627,0.0,0.13024289906024933,99
1666076478.23976016,83131709,0,21.314952850341797,24.402523040771484,23.70624351501465,28.138561248779297,0.6492441296577454,0.0,0.13024289906024933,99
1666076478.34020901,83232158,0,21.32877540588379,24.33608055114746,23.089977264404297,28.782907485961914,0.662987232208252,0.0,0.13024289906024933,99
1666076478.43998909,83331938,0,21.397172927856445,24.373991012573242,22.894216537475586,29.417503356933594,0.6765657663345337,0.0,0.13002492487430573,99
1666076478.54003716,83431986,0,21.42697525024414,24.343997955322266,22.4808349609375,30.042327880859375,0.6899538636207581,0.0,0.12975600361824036,99
1666076478.64002609,83531975,0,21.465307235717773,24.32184600830078,22.06254768371582,30.65515899658203,0.7031084299087524,0.0,0.12947453558444977,99
1666076478.74006104,83632010,0,21.484188079833984,24.288864135742188,21.716989517211914,31.258655548095703,0.7160740494728088,0.0,0.12914662063121796,99
1666076478.84000301,83731952,0,21.631282806396484,24.35598373413086,21.10167694091797,31.844526290893555,0.7287471890449524,0.0,0.12912249565124512,99
1666076478.94001508,83831964,0,21.632144927978516,24.212324142456055,20.061325073242188,32.40190124511719,0.7408044338226318,0.0,0.12861458957195282,99
1666076479.03993607,83931885,0,21.74991798400879,24.33473014831543,20.093242645263672,32.959651947021484,0.7529354095458984,0.0,0.12864084541797638,99
1666076479.14007616,84032025,0,21.859161376953125,24.371278762817383,19.50616455078125,33.50229263305664,0.7647970914840698,0.0,0.12878581881523132,99
1666076479.24000716,84131956,0,21.900978088378906,24.40088653564453,19.379348754882812,34.040279388427734,0.7765795588493347,0.0,0.1289985626935959,99
1666076479.34006715,84232016,0,21.912925720214844,24.317821502685547,18.660070419311523,34.55896759033203,0.7879455089569092,0.0,0.12887927889823914,99
1666076479.43999910,84331948,0,21.856191635131836,24.17679214477539,18.086803436279297,35.06107711791992,0.7989197373390198,0.0,0.12830346822738647,99
1666076479.54011798,84432067,0,21.88062858581543,24.1878719329834,18.04015350341797,35.562828063964844,0.8098983764648438,0.0,0.12789487838745117,99
1666076479.64003515,84531984,0,21.901519775390625,24.210908889770508,18.090484619140625,36.064964294433594,0.8208959102630615,0.0,0.12765762209892273,99
1666076479.74019098,84632140,0,21.895864486694336,24.17902183532715,17.926298141479492,36.5637321472168,0.8318169116973877,0.0,0.12736359238624573,99
1666076479.84005594,84732005,0,21.706125259399414,23.97224235534668,17.792495727539062,37.05733871459961,0.8425312638282776,0.0,0.12736359238624573,99
1666076479.94008899,84832038,0,21.711299896240234,24.185741424560547,19.419620513916016,37.59681701660156,0.8542439937591553,0.0,0.1274196356534958,99
1666076480.03999805,84931947,0,21.65802001953125,24.16569709777832,19.6605281829834,38.142669677734375,0.8660660982131958,0.0,0.12754882872104645,99
1666076480.14004016,85031989,0,21.603160858154297,24.14990234375,19.93891143798828,38.69680404663086,0.87803715467453,0.0,0.1277271956205368,99
1666076480.24002194,85131971,0,21.722415924072266,24.400779724121094,20.969409942626953,39.27922821044922,0.8906888365745544,0.0,0.1277271956205368,99
1666076480.34005308,85232002,0,21.59371566772461,24.155757904052734,20.01559829711914,39.83543395996094,0.9026994109153748,0.0,0.1280023157596588,99
1666076480.44008613,85332035,0,21.789783477783203,24.31313133239746,19.663597106933594,40.381591796875,0.9146000146865845,0.0,0.12832580506801605,99
1666076480.53999996,85431949,0,21.86012077331543,24.24909210205078,18.611581802368164,40.898433685302734,0.9258982539176941,0.0,0.12835943698883057,99
1666076480.64004803,85531997,0,21.92241096496582,24.421327590942383,19.37542724609375,41.436946868896484,0.9377037882804871,0.0,0.12897346913814545,99
1666076480.74008012,85632029,0,21.866348266601562,24.338054656982422,19.13574981689453,41.96870803833008,0.9493314623832703,0.0,0.12916699051856995,99
1666076480.83997416,85731923,0,21.86280632019043,24.31069564819336,18.943021774291992,42.494388580322266,0.9608243107795715,0.0,0.12922383844852448,99
1666076480.94009209,85832041,0,22.016321182250977,24.38416290283203,18.28167724609375,43.00282287597656,0.9720181822776794,0.0,0.129519984126091,99
1666076481.04001498,85931964,0,21.97007942199707,24.334985733032227,18.25033950805664,43.50945281982422,0.9831488728523254,0.0,0.1295815259218216,99
1666076481.14015913,86032108,0,22.013446807861328,24.36931800842285,18.157386779785156,44.014564514160156,0.9942681789398193,0.0,0.12974722683429718,99
1666076481.24002099,86131970,0,22.06576919555664,24.374942779541016,17.777151107788086,44.50773620605469,1.0051504373550415,0.0,0.12989556789398193,99
1666076481.34009910,86232048,0,22.05235481262207,24.28928565979004,17.244701385498047,44.98719024658203,1.0157235860824585,0.0,0.12971703708171844,99
1666076481.44002008,86331969,0,22.00127601623535,24.150541305541992,16.648107528686523,45.44930648803711,1.0258907079696655,0.0,0.12909966707229614,99
1666076481.54013801,86432087,0,22.14195442199707,24.32486915588379,16.893312454223633,45.91915512084961,1.0362941026687622,0.0,0.1292176991701126,99
1666076481.64000201,86531951,0,22.039033889770508,24.25577163696289,17.174421310424805,46.39561462402344,1.0467948913574219,0.0,0.12907199561595917,99
1666076481.74005914,86632008,0,22.09576416015625,24.37354850769043,17.607749938964844,46.885032653808594,1.057608962059021,0.0,0.129362553358078,99
1666076481.84002900,86731978,0,22.029640197753906,24.179250717163086,16.673887252807617,47.34809875488281,1.0678101778030396,0.0,0.1289207637310028,99
1666076481.93998909,86831938,0,22.11339569091797,24.22399139404297,16.395708084106445,47.80339050292969,1.0778782367706299,0.0,0.12872855365276337,99
1666076482.03995800,86931907,0,22.18910026550293,24.280818939208984,16.24332046508789,48.25448989868164,1.0878877639770508,0.0,0.12877410650253296,99
1666076482.14002514,87031974,0,22.191497802734375,24.299768447875977,16.359018325805664,48.70924758911133,1.0979795455932617,0.0,0.12887513637542725,99
1666076482.23997402,87131923,0,22.154794692993164,24.243732452392578,16.223373413085938,49.15970230102539,1.107959270477295,0.0,0.12876099348068237,99
1666076482.34006596,87232015,0,22.121158599853516,24.197704315185547,16.158313751220703,49.60898971557617,1.1178979873657227,0.0,0.12851257622241974,99
1666076482.44002700,87331976,0,22.018526077270508,24.11349105834961,16.3016300201416,50.06167221069336,1.1278654336929321,0.0,0.12851257622241974,99
1666076482.54025102,87432200,0,22.0808162689209,24.211750030517578,16.581512451171875,50.523338317871094,1.138059377670288,0.0,0.12851257622241974,99
1666076482.64000702,87531956,0,22.044015884399414,24.16879653930664,16.53363800048828,50.98152160644531,1.1481596231460571,0.0,0.12851257622241974,99
1666076482.74012017,87632069,0,22.088003158569336,24.245044708251953,16.784671783447266,51.44832992553711,1.1584705114364624,0.0,0.12851257622241974,99
1666076482.84002209,87731971,0,22.106367111206055,24.21390151977539,16.403209686279297,51.903564453125,1.1685340404510498,0.0,0.12848301231861115,99
1666076482.94011307,87832062,0,22.065481185913086,24.143796920776367,16.175804138183594,52.353336334228516,1.1784584522247314,0.0,0.12848301231861115,99
1666076483.03974700,87931696,0,22.06797218322754,24.16474151611328,16.319429397583008,52.805030822753906,1.1884263753890991,0.0,0.12848301231861115,99
1666076483.14011002,88032059,0,22.086660385131836,24.22226905822754,16.621715545654297,53.268455505371094,1.1986618041992188,0.0,0.12848301231861115,99
1666076483.23999715,88131946,0,22.07477569580078,24.201271057128906,16.54928970336914,53.72768020629883,1.208799123764038,0.0,0.12849465012550354,99
1666076483.34016514,88232114,0,22.031558990478516,24.107421875,16.155244827270508,54.17722702026367,1.2187033891677856,0.0,0.12849465012550354,99
1666076483.43996406,88331913,0,22.088481903076172,24.205707550048828,16.46919059753418,54.63382339477539,1.2287888526916504,0.0,0.12855669856071472,99
1666076483.53999305,88431942,0,22.120677947998047,24.204166412353516,16.201278686523438,55.08402633666992,1.2387475967407227,0.0,0.12860028445720673,99
1666076483.63996005,88531909,0,22.197086334228516,24.28290367126465,16.18088722229004,55.533348083496094,1.2487212419509888,0.0,0.12890629470348358,99
1666076483.74004602,88631995,0,22.248994827270508,24.291309356689453,15.810300827026367,55.97297286987305,1.2585023641586304,0.0,0.12917618453502655,99
1666076483.83999205,88731941,0,22.220436096191406,24.21731948852539,15.463822364807129,56.402313232421875,1.2680424451828003,0.0,0.12913261353969574,99
1666076483.94003010,88831979,0,22.2016544342041,24.19085121154785,15.419323921203613,56.830833435058594,1.277556300163269,0.0,0.1290067583322525,99
1666076484.04001307,88931962,0,22.204721450805664,24.201257705688477,15.483771324157715,57.260902404785156,1.287105917930603,0.0,0.12894375622272491,99
1666076484.14010096,89032050,0,22.228389739990234,24.237503051757812,15.572155952453613,57.693878173828125,1.2967302799224854,0.0,0.12901954352855682,99
1666076484.24009705,89132046,0,22.28952980041504,24.24251365661621,15.128087043762207,58.11411666870117,1.306097149848938,0.0,0.12909656763076782,99
1666076484.34012008,89232069,0,22.26614761352539,24.10875701904297,14.317899703979492,58.511962890625,1.314955711364746,0.0,0.12869276106357574,99
1666076484.44002700,89331976,0,22.298248291015625,24.166107177734375,14.527504920959473,58.9151611328125,1.3239463567733765,0.0,0.1285739690065384,99
1666076484.54014516,89432094,0,22.3259220123291,24.10306167602539,13.855690956115723,59.3005256652832,1.332550048828125,0.0,0.12826058268547058,99
1666076484.64008403,89532033,0,22.783525466918945,24.327726364135742,11.989227294921875,59.633384704589844,1.3401336669921875,0.0,0.1287989616394043,99
1666076484.74012518,89632074,0,22.57950782775879,24.278776168823242,13.167374610900879,59.999324798583984,1.3483964204788208,0.0,0.12905141711235046,99
1666076484.84001899,89731968,0,22.294702529907227,24.173725128173828,14.539474487304688,60.402801513671875,1.3573918342590332,0.0,0.12923595309257507,99
1666076484.94013906,89832088,0,22.222450256347656,24.281993865966797,15.968042373657227,60.846927642822266,1.3672614097595215,0.0,0.12897911667823792,99
1666076485.03996706,89931916,0,22.073339462280273,24.226633071899414,16.6962890625,61.30995178222656,1.3774819374084473,0.0,0.12896840274333954,99
1666076485.14011717,90032066,0,22.130355834960938,24.35787582397461,17.341981887817383,61.79243469238281,1.3881595134735107,0.0,0.12844668328762054,99
1666076485.24123716,90133186,0,22.12594985961914,24.29660987854004,16.92829704284668,62.2679557800293,1.3986809253692627,0.0,0.12822672724723816,99
1666076485.34007907,90232028,0,22.043825149536133,24.201587677001953,16.80461883544922,62.7293815612793,1.4088525772094727,0.0,0.1284029483795166,99
1666076485.44007111,90332020,0,21.965288162231445,24.18191909790039,17.231809616088867,63.207977294921875,1.4193650484085083,0.0,0.12863600254058838,99
1666076485.54004002,90431989,0,21.975595474243164,24.270612716674805,17.860626220703125,63.70407485961914,1.430267095565796,0.0,0.12849585711956024,99
1666076485.64003396,90531983,0,21.902572631835938,24.212566375732422,17.962820053100586,64.20304870605469,1.4411959648132324,0.0,0.12859858572483063,99
1666076485.74010897,90632058,0,21.85513687133789,24.179304122924805,18.041996002197266,64.70462799072266,1.4521580934524536,0.0,0.12881986796855927,99
1666076485.84007502,90732024,0,21.789112091064453,24.144489288330078,18.237178802490234,65.2110824584961,1.4631932973861694,0.0,0.12915246188640594,99
1666076485.94010115,90832050,0,21.868650436401367,24.22563934326172,18.252830505371094,65.71827697753906,1.4742850065231323,0.0,0.12913008034229279,99
1666076486.03977895,90931728,0,22.029640197753906,24.405216217041016,18.396760940551758,66.22769165039062,1.4855072498321533,0.0,0.12913008034229279,99
1666076486.14014196,91032091,0,22.117324829101562,24.526941299438477,18.660377502441406,66.74795532226562,1.4970141649246216,0.0,0.12913008034229279,99
1666076486.24004912,91131998,0,22.13256072998047,24.568965911865234,18.867835998535156,67.27159881591797,1.508603811264038,0.0,0.12913008034229279,99
1666076486.34014702,91232096,0,22.019271850585938,24.471784591674805,19.06768798828125,67.80182647705078,1.520279049873352,0.0,0.12862135469913483,99
1666076486.44001007,91331959,0,21.91148567199707,24.43744659423828,19.68753433227539,68.3479995727539,1.532246470451355,0.0,0.12830255925655365,99
1666076486.54009509,91432044,0,21.85494613647461,24.50774574279785,20.76747703552246,68.9254150390625,1.5448658466339111,0.0,0.12773819267749786,99
1666076486.63996506,91531914,0,21.759214401245117,24.510461807250977,21.625537872314453,69.525390625,1.5579208135604858,0.0,0.12722212076187134,99
1666076486.74019694,91632146,0,21.647287368774414,24.567731857299805,23.081418991088867,70.16806030273438,1.5718328952789307,0.0,0.12652795016765594,99
1666076486.83996296,91731912,0,21.545133590698242,24.46864891052246,23.147092819213867,70.80952453613281,1.585653305053711,0.0,0.1263016313314438,99
1666076486.94020295,91832152,0,21.33938980102539,24.331829071044922,23.62860107421875,71.46758270263672,1.5996958017349243,0.0,0.1266447752714157,99
1666076487.04001403,91931963,0,21.087167739868164,24.22018051147461,24.591312408447266,72.1494369506836,1.6140742301940918,0.0,0.12740321457386017,99
1666076487.14008117,92032030,0,20.89714241027832,24.133684158325195,25.198951721191406,72.84986114501953,1.6287111043930054,0.0,0.1284395456314087,99
1666076487.24129415,92133243,0,20.852867126464844,24.160587310791016,25.587778091430664,73.56938171386719,1.6437151432037354,0.0,0.12926951050758362,99
1666076487.34013009,92232079,0,20.7530574798584,24.03594207763672,25.151927947998047,74.25997161865234,1.6580469608306885,0.0,0.13052217662334442,99
1666076487.43983102,92331780,0,20.78483009338379,24.132524490356445,25.501235961914062,74.96627044677734,1.6727272272109985,0.0,0.13127578794956207,99
1666076487.54011416,92432063,0,20.780134201049805,24.21232795715332,26.072050094604492,75.69261169433594,1.6878206729888916,0.0,0.1316426545381546,99
1666076487.64007211,92532021,0,20.754547119140625,24.163251876831055,25.789405822753906,76.40873718261719,1.702683448791504,0.0,0.13217458128929138,99
1666076487.74008203,92632031,0,20.79306983947754,24.155183792114258,25.337665557861328,77.1126937866211,1.7173209190368652,0.0,0.1326923370361328,99
1666076487.84008503,92732034,0,20.83561897277832,24.131956100463867,24.736469268798828,77.79989624023438,1.7316391468048096,0.0,0.1332581788301468,99
1666076487.94017315,92832122,0,20.863983154296875,24.17007827758789,24.741994857788086,78.48782348632812,1.7459920644760132,0.0,0.13362282514572144,99
1666076488.04000616,92931955,0,21.044588088989258,24.251209259033203,23.99871063232422,79.15340423583984,1.7599989175796509,0.0,0.1336163729429245,99
1666076488.14007115,93032020,0,21.166515350341797,24.233015060424805,22.96142578125,79.79168701171875,1.77350914478302,0.0,0.13355004787445068,99
1666076488.23998904,93131938,0,21.228036880493164,24.192047119140625,22.225505828857422,80.40859985351562,1.7866050004959106,0.0,0.13336078822612762,99
1666076488.34013796,93232087,0,21.26023292541504,24.192163467407227,22.00884246826172,81.02091979980469,1.7996230125427246,0.0,0.1332160234451294,99
1666076488.43996310,93331912,0,21.25199317932129,24.066518783569336,21.21307945251465,81.60919189453125,1.8121249675750732,0.0,0.13267876207828522,99
1666076488.54009700,93432046,0,21.3248233795166,24.084924697875977,20.858009338378906,82.18940734863281,1.824497938156128,0.0,0.13232815265655518,99
1666076488.63999009,93531939,0,21.39678955078125,24.097043991088867,20.440948486328125,82.75665283203125,1.8366351127624512,0.0,0.13210026919841766,99
1666076488.74014306,93632092,0,21.441160202026367,24.07402992248535,19.96925926208496,83.31224822998047,1.8485476970672607,0.0,0.1318461000919342,99
1666076488.84020996,93732159,0,21.530567169189453,23.99071502685547,18.72758674621582,83.83284759521484,1.859756588935852,0.0,0.13136489689350128,99
1666076488.94012308,93832072,0,21.527990341186523,23.860370635986328,17.86638832092285,84.32874298095703,1.8704322576522827,0.0,0.1305456906557083,98
1666076489.04005218,93932001,0,21.62514877319336,24.04848289489746,18.56125259399414,84.84400177001953,1.8815748691558838,0.0,0.13055871427059174,98
1666076489.14009118,94032040,0,21.595827102661133,23.92467498779297,17.89438247680664,85.34130096435547,1.8923144340515137,0.0,0.13014402985572815,98
1666076489.23979616,94131745,0,21.779434204101562,24.057697296142578,17.48744773864746,85.82567596435547,1.90286386013031,0.0,0.13027986884117126,98
1666076489.34010100,94232050,0,21.8365478515625,23.94155502319336,16.194217681884766,86.27691650390625,1.9127174615859985,0.0,0.12998509407043457,98
1666076489.44004798,94331997,0,21.858779907226562,23.963966369628906,16.2144718170166,86.72711944580078,1.922558307647705,0.0,0.12983381748199463,98
1666076489.54011798,94432067,0,21.847566604614258,24.078798294067383,17.148643493652344,87.20381164550781,1.9329729080200195,0.0,0.1301112323999405,98
1666076489.64007497,94532024,0,21.767072677612305,24.009668350219727,17.238868713378906,87.68253326416016,1.9433932304382324,0.0,0.13008949160575867,98
1666076489.74010611,94632055,0,21.71762466430664,23.98529052734375,17.445096969604492,88.16730499267578,1.9539214372634888,0.0,0.12998875975608826,98
1666076489.83996010,94731909,0,21.749460220336914,23.971553802490234,17.111099243164062,88.64196014404297,1.9642449617385864,0.0,0.1298626959323883,98
1666076489.94003606,94831985,0,21.844308853149414,24.00795555114746,16.657621383666992,89.10505676269531,1.9743610620498657,0.0,0.12988926470279694,98
1666076490.03999496,94931944,0,21.80856704711914,23.95730972290039,16.562484741210938,89.56497192382812,1.9843910932540894,0.0,0.12973546981811523,98
1666076490.14009213,95032041,0,21.87401580810547,24.033905029296875,16.630001068115234,90.02740478515625,1.9945063591003418,0.0,0.12987910211086273,98
1666076490.24112511,95133074,0,21.88062858581543,24.012577056884766,16.409961700439453,90.48798370361328,2.0045840740203857,0.0,0.1299179196357727,98
1666076490.34123516,95233184,0,21.858779907226562,24.007951736450195,16.54069709777832,90.94782257080078,2.0146355628967285,0.0,0.12993232905864716,98
1666076490.44002509,95331974,0,21.803678512573242,23.974857330322266,16.723295211791992,91.40694427490234,2.024646043777466,0.0,0.12982961535453796,98
1666076490.54027104,95432220,0,21.889636993408203,24.01683807373047,16.376510620117188,91.86299896240234,2.0346288681030273,0.0,0.1298934817314148,98
1666076490.64005113,95532000,0,21.909568786621094,24.0041446685791,16.124555587768555,92.30995178222656,2.044421434402466,0.0,0.12989972531795502,98
1666076490.74010706,95632056,0,21.877872467041016,23.9859561920166,16.23578453063965,92.76123809814453,2.0542945861816406,0.0,0.1298418641090393,98
1666076490.84012198,95732071,0,21.909950256347656,23.9273681640625,15.567244529724121,93.19376373291016,2.0637712478637695,0.0,0.12959377467632294,98
1666076490.94020915,95832158,0,22.11492919921875,23.97200584411621,14.334471702575684,93.59232330322266,2.072585344314575,0.0,0.1295531839132309,98
1666076491.04002309,95931972,0,22.220054626464844,24.025650024414062,13.920478820800781,93.97831726074219,2.081162214279175,0.0,0.12970785796642303,98
1666076491.14005303,96032002,0,22.220340728759766,24.00128936767578,13.726524353027344,94.35974884033203,2.0896377563476562,0.0,0.1297449916601181,98
1666076491.24006915,96132018,0,22.246692657470703,24.013986587524414,13.613590240478516,94.73799896240234,2.098052501678467,0.0,0.12981842458248138,98
1666076491.34008503,96232034,0,22.19111442565918,23.902692794799805,13.218009948730469,95.10525512695312,2.1062023639678955,0.0,0.12948831915855408,98
1666076491.44001007,96331959,0,22.187088012695312,23.80660057067871,12.56495189666748,95.45404815673828,2.113940954208374,0.0,0.12889130413532257,98
1666076491.54006505,96432014,0,22.422060012817383,23.99205207824707,12.164154052734375,95.79215240478516,2.1215219497680664,0.0,0.12906715273857117,98
1666076491.63998604,96531935,0,22.397476196289062,23.97130012512207,12.187579154968262,96.13045501708984,2.129099130630493,0.0,0.1291334182024002,98
1666076491.74009299,96632042,0,22.387754440307617,24.0418701171875,12.779772758483887,96.48585510253906,2.1370558738708496,0.0,0.12943235039710999,98
1666076491.84000516,96731954,0,22.326997756958008,23.89133071899414,12.113210678100586,96.82205963134766,2.144562244415283,0.0,0.12914268672466278,98
1666076491.94012809,96832077,0,22.50197982788086,23.95085334777832,11.221083641052246,97.13417053222656,2.151585340499878,0.0,0.12912069261074066,98
1666076492.03985310,96931802,0,22.461734771728516,23.892322540283203,11.098636627197266,97.44164276123047,2.158491611480713,0.0,0.12889763712882996,98
1666076492.14014006,97032089,0,22.518081665039062,23.96916961669922,11.249625205993652,97.75505065917969,2.1655490398406982,0.0,0.12898984551429749,98
1666076492.24002600,97131975,0,22.655691146850586,24.02323341369629,10.580301284790039,98.04863739013672,2.1722004413604736,0.0,0.1292535960674286,98
1666076492.34020400,97232153,0,22.478504180908203,23.836578369140625,10.543474197387695,98.34205627441406,2.1787960529327393,0.0,0.12880714237689972,98
1666076492.44005299,97332002,0,22.466365814208984,23.93024444580078,11.36716365814209,98.65735626220703,2.185879707336426,0.0,0.12878134846687317,98
1666076492.54008913,97432038,0,22.376733779907227,23.997848510742188,12.61129093170166,99.00782775878906,2.1937220096588135,0.0,0.12854476273059845,98
1666076492.64004397,97531993,0,22.326326370239258,23.907127380371094,12.284148216247559,99.34893035888672,2.2013375759124756,0.0,0.12868620455265045,98
1666076492.74007607,97632025,0,22.274003982543945,23.97164535522461,13.204813957214355,99.71587371826172,2.2095108032226562,0.0,0.12856228649616241,98
1666076492.84005117,97732000,0,22.23758888244629,23.94573211669922,13.287367820739746,100.08490753173828,2.217717170715332,0.0,0.12855397164821625,98
1666076492.94023299,97832182,0,22.13562774658203,23.85540771484375,13.342607498168945,100.45624542236328,2.2259368896484375,0.0,0.12889382243156433,98
1666076493.04016399,97932113,0,21.99811363220215,23.899925231933594,14.740487098693848,100.86540985107422,2.2349376678466797,0.0,0.1290195882320404,98
1666076493.14004016,98031989,0,21.952882766723633,24.101930618286133,16.744470596313477,101.33003997802734,2.2451376914978027,0.0,0.12834374606609344,98
1666076493.24008703,98132036,0,21.988149642944336,24.2489070892334,17.776844024658203,101.8241195678711,2.2560014724731445,0.0,0.1271742731332779,98
1666076493.34010315,98232052,0,21.899911880493164,24.121950149536133,17.545177459716797,102.31159973144531,2.266677141189575,0.0,0.12664666771888733,98
1666076493.44003797,98331987,0,21.85417938232422,24.161405563354492,18.30745506286621,102.8198471069336,2.277784585952759,0.0,0.12602657079696655,98
1666076493.54011917,98432068,0,21.819971084594727,24.227863311767578,19.229965209960938,103.3544921875,2.2894506454467773,0.0,0.12521566450595856,98
1666076493.64004207,98531991,0,21.894811630249023,24.39261817932129,20.168428421020508,103.91433715820312,2.301708459854126,0.0,0.12384738028049469,98
1666076493.74018002,98632129,0,21.823898315429688,24.240341186523438,19.608356475830078,104.45980072021484,2.313612699508667,0.0,0.12323532998561859,98
1666076493.84004498,98731994,0,21.53536033630371,23.957807540893555,19.566619873046875,105.00263214111328,2.325302839279175,0.0,0.12380509078502655,98
1666076493.94013810,98832087,0,21.32827377319336,23.653366088867188,18.52596092224121,105.51775360107422,2.336289644241333,0.0,0.12550455331802368,98
1666076494.04003000,98931979,0,21.50392723083496,23.843154907226562,18.525346755981445,106.0318374633789,2.347344398498535,0.0,0.12627173960208893,98
1666076494.14019895,99032148,0,21.63923454284668,23.993457794189453,18.629995346069336,106.55024719238281,2.358562469482422,0.0,0.12636739015579224,98
1666076494.24004006,99131989,0,21.718154907226562,24.108896255493164,18.97425651550293,107.07649993896484,2.3699917793273926,0.0,0.12599921226501465,98
1666076494.34007001,99232019,0,21.639522552490234,24.03898048400879,19.05166244506836,107.60592651367188,2.38144850730896,0.0,0.12594477832317352,98
1666076494.43998218,99331931,0,21.50823974609375,23.99047088623047,19.686614990234375,108.15233612060547,2.3932008743286133,0.0,0.12608720362186432,98
1666076494.54001808,99431967,0,21.557016372680664,24.10763931274414,20.28289794921875,108.71599578857422,2.4053516387939453,0.0,0.12575235962867737,98
1666076494.64001012,99531959,0,21.67507553100586,24.305274963378906,20.91570472717285,109.29698181152344,2.4179446697235107,0.0,0.12575235962867737,98
1666076494.74009514,99632044,0,21.73659896850586,24.29949378967285,20.380489349365234,109.86363983154297,2.4302618503570557,0.0,0.12575235962867737,98
1666076494.84005594,99732005,0,21.850635528564453,24.332061767578125,19.732646942138672,110.41150665283203,2.442233085632324,0.0,0.12575235962867737,98
1666076494.94007301,99832022,0,21.90094566345215,24.16761589050293,18.016525268554688,110.91209411621094,2.4531965255737305,0.0,0.1258106380701065,98
1666076495.04008508,99932034,0,22.006547927856445,24.259626388549805,17.857248306274414,111.4083023071289,2.464116334915161,0.0,0.12617164850234985,98
1666076495.14032006,100032269,0,22.199535369873047,24.515249252319336,18.18691635131836,111.91472625732422,2.475358724594116,0.0,0.1273285299539566,98
1666076495.24003816,100131987,0,22.18478775024414,24.472867965698242,17.863693237304688,112.4095458984375,2.4863362312316895,0.0,0.12808546423912048,98
1666076495.34014797,100232097,0,22.15517807006836,24.3576717376709,17.169204711914062,112.8870620727539,2.496915817260742,0.0,0.1282816231250763,98
1666076495.43974900,100331698,0,22.24276351928711,24.442291259765625,17.086957931518555,113.3598403930664,2.507431745529175,0.0,0.12872551381587982,98
1666076495.54013205,100432081,0,22.15728759765625,24.30493927001953,16.70027732849121,113.82555389404297,2.5177507400512695,0.0,0.12859980762004852,98
1666076495.64004016,100531989,0,22.319236755371094,24.462308883666992,16.607290267944336,114.28648376464844,2.528038263320923,0.0,0.12904410064220428,98
1666076495.74016500,100632114,0,22.260494232177734,24.355224609375,16.235340118408203,114.73806762695312,2.538090705871582,0.0,0.12902294099330902,98
1666076495.84002209,100731971,0,22.088577270507812,24.117263793945312,15.723450660705566,115.17424011230469,2.547725200653076,0.0,0.12902294099330902,98
1666076495.94010496,100832054,0,22.01266860961914,24.040056228637695,15.713391304016113,115.61111450195312,2.557342052459717,0.0,0.12902294099330902,98
1666076496.03998303,100931932,0,21.95115852355957,23.994691848754883,15.838533401489258,116.05057525634766,2.566988706588745,0.0,0.12902294099330902,98
1666076496.14001799,101031967,0,22.029640197753906,24.119184494018555,16.195138931274414,116.5006332397461,2.5769033432006836,0.0,0.12902294099330902,98
1666076496.24000812,101131957,0,22.03184700012207,24.085241317749023,15.914948463439941,116.94270324707031,2.5866429805755615,0.0,0.12902294099330902,98
1666076496.34008002,101232029,0,22.054750442504883,24.140348434448242,16.185317993164062,117.39265441894531,2.5965664386749268,0.0,0.12885735929012299,98
1666076496.44001102,101331960,0,22.09356117248535,24.21112823486328,16.418861389160156,117.84845733642578,2.6066367626190186,0.0,0.128971666097641,98
1666076496.54008698,101432036,0,22.051971435546875,24.17547607421875,16.464895248413086,118.30613708496094,2.616729497909546,0.0,0.128971666097641,98
1666076496.64012909,101532078,0,22.04133415222168,24.196260452270508,16.715007781982422,118.77072143554688,2.626969575881958,0.0,0.12892168760299683,98
1666076496.74012113,101632070,0,21.940235137939453,24.14512825012207,17.082048416137695,119.2452392578125,2.637380599975586,0.0,0.12907667458057404,98
1666076496.84012198,101732071,0,21.894140243530273,24.102624893188477,17.069772720336914,119.71944427490234,2.6477627754211426,0.0,0.12937986850738525,98
1666076496.94011903,101832068,0,21.913541793823242,24.158979415893555,17.348770141601562,120.20132446289062,2.658322334289551,0.0,0.12942922115325928,98
1666076497.03980017,101931749,0,21.878904342651367,24.136184692382812,17.422388076782227,120.68383026123047,2.6688790321350098,0.0,0.12956203520298004,98
1666076497.14012909,102032078,0,21.916658401489258,24.201425552368164,17.653167724609375,121.17584991455078,2.6796624660491943,0.0,0.12942533195018768,98
1666076497.24010396,102132053,0,21.956811904907227,24.23231315612793,17.614500045776367,121.6650619506836,2.690403938293457,0.0,0.12918342649936676,98
1666076497.34013605,102232085,0,21.944259643554688,24.162437438964844,17.163066864013672,122.14200592041016,2.7008700370788574,0.0,0.12924134731292725,98
1666076497.44002604,102331975,0,21.936784744262695,24.1463565826416,17.096471786499023,122.61641693115234,2.7112772464752197,0.0,0.12924134731292725,98
1666076497.54008198,102432031,0,21.967927932739258,24.211450576782227,17.359169006347656,123.09893035888672,2.721877098083496,0.0,0.12924134731292725,98
1666076497.63996315,102531912,0,21.959495544433594,24.197345733642578,17.315282821655273,123.57937622070312,2.7324273586273193,0.0,0.12924134731292725,98
1666076497.74015403,102632103,0,21.960933685302734,24.231664657592773,17.56969451904297,124.06839752197266,2.74316668510437,0.0,0.12924134731292725,98
1666076497.84003115,102731980,0,21.84528923034668,24.06018829345703,17.137699127197266,124.54389953613281,2.753554105758667,0.0,0.12924134731292725,98
1666076497.94007397,102832023,0,21.828401565551758,24.091764450073242,17.472410202026367,125.02949523925781,2.7641537189483643,0.0,0.12953929603099823,98
1666076498.04001999,102931969,0,21.866159439086914,24.16875457763672,17.780221939086914,125.52316284179688,2.7749483585357666,0.0,0.12950317561626434,98
1666076498.14007306,103032022,0,21.868938446044922,24.138837814331055,17.51629638671875,126.00996398925781,2.7855942249298096,0.0,0.12958785891532898,98
1666076498.24008918,103132038,0,21.87612533569336,24.154876708984375,17.5828914642334,126.49852752685547,2.7962820529937744,0.0,0.12960045039653778,98
1666076498.34010696,103232056,0,21.792465209960938,24.06468391418457,17.48345947265625,126.98432922363281,2.8068687915802,0.0,0.12996387481689453,98
1666076498.44005895,103332008,0,21.857341766357422,24.120824813842773,17.416250228881836,127.4679183959961,2.8174386024475098,0.0,0.12996387481689453,98
1666076498.54010606,103432055,0,21.853891372680664,24.153356552124023,17.69858741760254,127.95982360839844,2.82818865776062,0.0,0.12992364168167114,98
1666076498.64010811,103532057,0,21.805042266845703,24.134145736694336,17.92128562927246,128.4576873779297,2.8390445709228516,0.0,0.1299629509449005,98
1666076498.74010205,103632051,0,21.845651626586914,24.177719116210938,17.962820053100586,128.9566650390625,2.849945068359375,0.0,0.12982748448848724,98
1666076498.84004807,103731997,0,21.707468032836914,24.033395767211914,17.854488372802734,129.4522705078125,2.860703468322754,0.0,0.130271315574646,98
1666076498.94014406,103832093,0,21.66904067993164,24.05331802368164,18.257740020751953,129.9600830078125,2.8717072010040283,0.0,0.13058991730213165,98
1666076499.03995395,103931903,0,21.653995513916016,24.071718215942383,18.483917236328125,130.47259521484375,2.882805109024048,0.0,0.13080140948295593,98
1666076499.14009213,104032041,0,21.712066650390625,24.149797439575195,18.65362548828125,130.9915008544922,2.8940718173980713,0.0,0.1306840479373932,98
1666076499.23996115,104131910,0,21.60138511657715,24.07389259338379,18.89177131652832,131.51553344726562,2.9053914546966553,0.0,0.1308775246143341,98
1666076499.34020710,104232156,0,21.614608764648438,24.07685089111328,18.790189743041992,132.03890991210938,2.916703939437866,0.0,0.13103875517845154,98
1666076499.44002509,104331974,0,21.623424530029297,24.147472381591797,19.28152084350586,132.573486328125,2.9282631874084473,0.0,0.13090500235557556,98
1666076499.54014397,104432093,0,21.563127517700195,24.100940704345703,19.377304077148438,133.11251831054688,2.9398863315582275,0.0,0.1309683471918106,98
1666076499.64001513,104531964,0,21.58030128479004,24.14350700378418,19.58779525756836,133.6559600830078,2.9516141414642334,0.0,0.13085731863975525,98
1666076499.74012399,104632073,0,21.57225227355957,24.14908790588379,19.71024513244629,134.2041015625,2.9634389877319336,0.0,0.1307358294725418,98
1666076499.84008408,104732033,0,21.590362548828125,24.084474563598633,19.056264877319336,134.7332000732422,2.974862575531006,0.0,0.1308814436197281,98
1666076499.94017601,104832125,0,21.637990951538086,24.152259826660156,19.23027229309082,135.26797485351562,2.986433982849121,0.0,0.13074536621570587,98
1666076500.03981900,104931768,0,21.63176155090332,24.136869430541992,19.169198989868164,135.798583984375,2.9979121685028076,0.0,0.13068406283855438,98
1666076500.14010501,105032054,0,21.7108211517334,24.191328048706055,18.947011947631836,136.3263702392578,3.009371042251587,0.0,0.13091805577278137,98
1666076500.24120808,105133157,0,21.711395263671875,24.143726348876953,18.576290130615234,136.84817504882812,3.020700216293335,0.0,0.1309373676776886,98
1666076500.34113216,105233081,0,21.646808624267578,24.08275604248047,18.603910446166992,137.36459350585938,3.03187894821167,0.0,0.1309373676776886,98
1666076500.44005299,105332002,0,21.687599182128906,24.10843849182129,18.498920440673828,137.87295532226562,3.0429041385650635,0.0,0.13086386024951935,98
1666076500.54025316,105432202,0,21.726919174194336,24.13625144958496,18.40566062927246,138.38507080078125,3.0540308952331543,0.0,0.13090170919895172,98
1666076500.63996911,105531918,0,21.733436584472656,24.164600372314453,18.554500579833984,138.89926147460938,3.0652060508728027,0.0,0.13102824985980988,98
1666076500.74009204,105632041,0,21.7812557220459,24.20282554626465,18.448930740356445,139.4123992919922,3.076382875442505,0.0,0.131258025765419,98
1666076500.84000802,105731957,0,21.744455337524414,24.1083927154541,18.029720306396484,139.912841796875,3.0872647762298584,0.0,0.13111335039138794,98
1666076500.94012499,105832074,0,21.75710678100586,24.152223587036133,18.26234245300293,140.42068481445312,3.098313808441162,0.0,0.13115060329437256,98
1666076501.03999305,105931942,0,21.79399871826172,24.194637298583984,18.280141830444336,140.92791748046875,3.1093685626983643,0.0,0.13132496178150177,98
1666076501.14010811,106032057,0,21.844022750854492,24.246267318725586,18.248838424682617,141.43545532226562,3.120455265045166,0.0,0.13163821399211884,98
1666076501.24003100,106131980,0,21.79189109802246,24.185754776000977,18.180095672607422,141.94009399414062,3.1314523220062256,0.0,0.13167496025562286,98
1666076501.34020495,106232154,0,21.82388687133789,24.23515510559082,18.284780502319336,142.44894409179688,3.142557382583618,0.0,0.13187295198440552,98
1666076501.44019508,106332144,0,21.790164947509766,24.19743537902832,18.250988006591797,142.95587158203125,3.1536035537719727,0.0,0.13189804553985596,98
1666076501.54011798,106432067,0,21.90928077697754,24.33889389038086,18.420391082763672,143.46722412109375,3.164807081222534,0.0,0.13189804553985596,98
1666076501.63982606,106531775,0,21.829553604125977,24.265562057495117,18.46887969970703,143.97879028320312,3.1759743690490723,0.0,0.13189804553985596,98
1666076501.74012399,106632073,0,21.835683822631836,24.276023864746094,18.5017147064209,144.4943084716797,3.1872310638427734,0.0,0.13189804553985596,98
1666076501.84006095,106732010,0,21.696636199951172,24.13518524169922,18.434507369995117,145.006103515625,3.1983351707458496,0.0,0.13228173553943634,98
1666076501.94013405,106832083,0,21.682167053222656,24.14731788635254,18.59408950805664,145.5230255126953,3.209543228149414,0.0,0.13257716596126556,98
1666076502.04003906,106931988,0,21.594486236572266,24.037424087524414,18.426528930664062,146.034423828125,3.2205867767333984,0.0,0.13257716596126556,98
1666076502.14005613,107032005,0,21.57335090637207,24.06772232055664,18.749204635620117,146.55535888671875,3.231825113296509,0.0,0.1330387443304062,98
1666076502.24009109,107132040,0,21.53142738342285,24.031261444091797,18.712242126464844,147.0753631591797,3.2430217266082764,0.0,0.13359354436397552,98
1666076502.34003615,107231985,0,21.514083862304688,24.05486297607422,18.961437225341797,147.60182189941406,3.254347801208496,0.0,0.13399721682071686,98
1666076502.44001412,107331963,0,21.558454513549805,24.110584259033203,19.025882720947266,148.1302490234375,3.265739917755127,0.0,0.13413986563682556,98
1666076502.54009795,107432047,0,21.583175659179688,24.151620864868164,19.152318954467773,148.66275024414062,3.2772328853607178,0.0,0.13410618901252747,98
1666076502.63999295,107531942,0,21.54800796508789,24.12531089782715,19.207866668701172,149.19578552246094,3.2887187004089355,0.0,0.13417954742908478,98
1666076502.74005508,107632004,0,21.51207160949707,24.080490112304688,19.107208251953125,149.72691345214844,3.3001444339752197,0.0,0.1344214230775833,98
1666076502.84005713,107732006,0,21.42669105529785,24.035167694091797,19.34842300415039,150.26441955566406,3.3116614818573,0.0,0.1348160207271576,98
1666076502.94014215,107832091,0,21.50689697265625,24.153005599975586,19.643648147583008,150.81057739257812,3.3234078884124756,0.0,0.13470560312271118,98
1666076503.03979802,107931747,0,21.446643829345703,24.032583236694336,19.143728256225586,151.34051513671875,3.334773063659668,0.0,0.1350802481174469,98
1666076503.14019203,108032141,0,21.534881591796875,24.159019470214844,19.449695587158203,151.8830108642578,3.3464558124542236,0.0,0.13491925597190857,98
1666076503.24006414,108132013,0,21.5507869720459,24.16353988647461,19.36530113220215,152.4202880859375,3.358034610748291,0.0,0.13491925597190857,98
1666076503.34010196,108232051,0,21.551841735839844,24.099040985107422,18.893918991088867,152.94537353515625,3.3693509101867676,0.0,0.13481585681438446,98
1666076503.44009304,108332042,0,21.591707229614258,24.089033126831055,18.539772033691406,153.46035766601562,3.3804702758789062,0.0,0.1347009837627411,98
1666076503.54021096,108432160,0,21.671817779541016,24.19296646118164,18.679710388183594,153.97988891601562,3.3917295932769775,0.0,0.13496720790863037,98
1666076503.64003611,108531985,0,21.72500228881836,24.194143295288086,18.265718460083008,154.48641967773438,3.4027340412139893,0.0,0.13517893850803375,98
1666076503.74007916,108632028,0,21.73228645324707,24.226415634155273,18.41302490234375,154.99815368652344,3.4138550758361816,0.0,0.13545462489128113,98
1666076503.83999014,108731939,0,21.64881706237793,24.103309631347656,18.148181915283203,155.50186157226562,3.424759864807129,0.0,0.1352473497390747,98
1666076503.94002104,108831970,0,21.631698608398438,24.087059020996094,18.183847427368164,156.00717163085938,3.435690402984619,0.0,0.13502979278564453,98
1666076504.04003406,108931983,0,21.599756240844727,24.052703857421875,18.165979385375977,156.5118865966797,3.446592092514038,0.0,0.13502979278564453,98
1666076504.14008713,109032036,0,21.609817504882812,24.11711883544922,18.565547943115234,157.0279083251953,3.4577431678771973,0.0,0.13505125045776367,98
1666076504.24000812,109131957,0,21.635786056518555,24.09493637084961,18.221527099609375,157.53370666503906,3.46868634223938,0.0,0.13495849072933197,98
1666076504.34013414,109232083,0,21.62677764892578,24.078445434570312,18.1834716796875,158.0394744873047,3.4796245098114014,0.0,0.13482944667339325,98
1666076504.44003105,109331980,0,21.66156578063965,24.1696720123291,18.602067947387695,158.5557098388672,3.490806818008423,0.0,0.13482944667339325,98
1666076504.54012895,109432078,0,21.722606658935547,24.259305953979492,18.814128875732422,159.07888793945312,3.502171516418457,0.0,0.13482944667339325,98
1666076504.64001608,109531965,0,21.641918182373047,24.06387710571289,17.963125228881836,159.5773468017578,3.5129590034484863,0.0,0.13482944667339325,98
1666076504.74012899,109632078,0,21.650161743164062,24.161413192749023,18.625391006469727,160.09535217285156,3.5241737365722656,0.0,0.13482944667339325,98
1666076504.84006500,109732014,0,21.663854598999023,24.177684783935547,18.644521713256836,160.6129608154297,3.5353872776031494,0.0,0.13482944667339325,98
1666076504.94016194,109832111,0,21.619112014770508,24.0839786529541,18.281370162963867,161.1212158203125,3.546375274658203,0.0,0.13482944667339325,98
1666076505.04005504,109932004,0,21.58624267578125,23.973649978637695,17.70687484741211,161.6126708984375,3.5569839477539062,0.0,0.13482944667339325,98
1666076505.14012003,110032069,0,21.640003204345703,24.04505157470703,17.8652286529541,162.10928344726562,3.567730665206909,0.0,0.134621724486351,98
1666076505.24005198,110132001,0,21.66329002380371,24.1205997467041,18.253442764282227,162.61602783203125,3.5787084102630615,0.0,0.134621724486351,98
1666076505.34009099,110232040,0,21.643068313598633,24.057191848754883,17.950849533081055,163.11489868164062,3.589505434036255,0.0,0.1344851702451706,98
1666076505.43999004,110331939,0,21.679101943969727,24.06537628173828,17.754135131835938,163.6076202392578,3.600187063217163,0.0,0.1344067007303238,98
1666076505.54002810,110431977,0,21.721458435058594,24.08889389038086,17.611433029174805,164.0970458984375,3.6108181476593018,0.0,0.1344260275363922,98
1666076505.64019799,110532147,0,21.748767852783203,24.13103485107422,17.700735092163086,164.589599609375,3.621530771255493,0.0,0.13458581268787384,98
1666076505.74008298,110632032,0,21.736364364624023,24.113815307617188,17.656339645385742,165.07952880859375,3.6321799755096436,0.0,0.13465140759944916,98
1666076505.84004402,110731993,0,21.710437774658203,24.052099227905273,17.411338806152344,165.5630340576172,3.642677068710327,0.0,0.13449062407016754,98
1666076505.94011712,110832066,0,21.722511291503906,24.071077346801758,17.47056770324707,166.04872131347656,3.6532273292541504,0.0,0.1344299167394638,98
1666076506.04003906,110931988,0,21.80070686340332,24.149606704711914,17.444177627563477,166.53294372558594,3.6637837886810303,0.0,0.13465236127376556,98
1666076506.14014411,111032093,0,21.752696990966797,24.141109466552734,17.718536376953125,167.0256805419922,3.67450213432312,0.0,0.1347973644733429,98
1666076506.24006701,111132016,0,21.650545120239258,24.023195266723633,17.601612091064453,167.51422119140625,3.685079336166382,0.0,0.1347973644733429,98
1666076506.34058905,111232538,0,21.67229652404785,24.077260971069336,17.83269691467285,168.0122528076172,3.6958730220794678,0.0,0.13486266136169434,97
1666076506.44003296,111331982,0,21.67133903503418,24.09041404724121,17.936426162719727,168.50775146484375,3.706611156463623,0.0,0.13486941158771515,97
1666076506.54053211,111432481,0,21.697885513305664,24.112201690673828,17.901134490966797,169.00750732421875,3.717454671859741,0.0,0.13486941158771515,97
1666076506.64000607,111531955,0,21.626373291015625,24.07806968688965,18.169185638427734,169.5095977783203,3.7283132076263428,0.0,0.1349370926618576,97
1666076506.74060512,111632554,0,21.62965202331543,24.179149627685547,18.941181182861328,170.0389404296875,3.739762783050537,0.0,0.13460072875022888,97
1666076506.84004903,111731998,0,21.515810012817383,24.022851943969727,18.582427978515625,170.5522918701172,3.750808000564575,0.0,0.13491468131542206,97
1666076506.94043708,111832386,0,21.501436233520508,24.04716682434082,18.843284606933594,171.07778930664062,3.7621068954467773,0.0,0.1351001113653183,97
1666076507.03999615,111931945,0,21.423620223999023,24.07851791381836,19.645183563232422,171.62112426757812,3.773746967315674,0.0,0.13514240086078644,97
1666076507.14047503,112032424,0,21.486103057861328,24.2657470703125,20.675716400146484,172.1982421875,3.786147117614746,0.0,0.13444001972675323,97
1666076507.24005795,112132007,0,21.39151954650879,24.14209747314453,20.48053741455078,172.76483154296875,3.798267126083374,0.0,0.1343020349740982,97
1666076507.34055305,112232502,0,21.281700134277344,24.05939292907715,20.651165008544922,173.3413543701172,3.8105366230010986,0.0,0.13450542092323303,97
