timestamp,TimeUS,Instance,Volt,VoltR,Curr,CurrTot,EnrgTot,Temp,Res,RemPct
1670482025.35989404,136522886,0,24.720308303833008,24.793575286865234,0.55035400390625,26.7511043548584,0.6634163856506348,0.0,0.1331261545419693,99
1670482025.45986509,136622857,0,24.73103141784668,24.80841064453125,0.5812475085258484,26.767244338989258,0.6638155579566956,0.0,0.1331261545419693,99
1670482025.55998707,136722979,0,24.745391845703125,24.825958251953125,0.6051848530769348,26.78407859802246,0.6642321348190308,0.0,0.1331261545419693,99
1670482025.65991497,136822907,0,24.76712417602539,24.85320472717285,0.6466148495674133,26.80202865600586,0.6646767258644104,0.0,0.1331261545419693,99
1670482025.75994301,136922935,0,24.733808517456055,24.81053352355957,0.5763372778892517,26.818044662475586,0.6650728583335876,0.0,0.1331261545419693,99
1670482025.85995793,137022950,0,24.720977783203125,24.794597625732422,0.5530137419700623,26.833410263061523,0.6654527187347412,0.0,0.1331261545419693,99
1670482025.95996690,137122959,0,24.756977081298828,24.840974807739258,0.6309635043144226,26.850940704345703,0.6658867001533508,0.0,0.1331261545419693,99
1670482026.05987406,137222866,0,24.765708923339844,24.850324630737305,0.6356009840965271,26.868581771850586,0.6663236021995544,0.0,0.1331261545419693,99
1670482026.15993190,137322924,0,24.760040283203125,24.847469329833984,0.6567422151565552,26.886837005615234,0.6667755842208862,0.0,0.1331261545419693,99
1670482026.25995708,137422949,0,24.751996994018555,24.83477020263672,0.6217568516731262,26.90411376953125,0.6672032475471497,0.0,0.13312827050685883,99
1670482026.35992599,137522918,0,24.721839904785156,24.79468536376953,0.5471828579902649,26.919307708740234,0.6675788760185242,0.0,0.13312827050685883,99
1670482026.45995212,137622944,0,24.735050201416016,24.813003540039062,0.5855439901351929,26.93558120727539,0.6679813861846924,0.0,0.13312827050685883,99
1670482026.55991888,137722911,0,24.753816604614258,24.835691452026367,0.6150052547454834,26.952659606933594,0.6684041619300842,0.0,0.13312827050685883,99
1670482026.65995789,137822950,0,24.76300811767578,24.848968505859375,0.6456941366195679,26.970603942871094,0.6688485145568848,0.0,0.13312827050685883,99
1670482026.75996208,137922954,0,24.76559066772461,24.850284576416016,0.6361806392669678,26.988277435302734,0.6692861914634705,0.0,0.13312827050685883,99
1670482026.85989094,138022883,0,24.713478088378906,24.784021377563477,0.5298947691917419,27.002986907958984,0.6696497201919556,0.0,0.13312827050685883,99
1670482026.95984697,138122839,0,24.734285354614258,24.811420440673828,0.5794061422348022,27.019075393676758,0.6700476408004761,0.0,0.13312827050685883,99
1670482027.05998111,138222973,0,24.74921989440918,24.83109474182129,0.6150052547454834,27.036182403564453,0.6704710721969604,0.0,0.13312827050685883,99
1670482027.15993810,138322930,0,24.762815475463867,24.849102020263672,0.6481492519378662,27.054180145263672,0.670916736125946,0.0,0.13312827050685883,99
1670482027.25992608,138422918,0,24.735435485839844,24.813182830810547,0.5840095281600952,27.070402145385742,0.671317994594574,0.0,0.13312827050685883,99
1670482027.35999894,138522991,0,24.7131290435791,24.7836856842041,0.5299970507621765,27.08513069152832,0.6716820001602173,0.0,0.13312827050685883,99
1670482027.45993590,138622928,0,24.765113830566406,24.851482391357422,0.6487630605697632,27.103147506713867,0.6721282005310059,0.0,0.13312827050685883,99
1670482027.55996799,138722960,0,24.675981521606445,24.89682388305664,1.6995505094528198,27.150375366210938,0.6732935905456543,0.0,0.12994177639484406,99
1670482027.65991402,138822906,0,24.421222686767578,25.050825119018555,5.086376190185547,27.29159927368164,0.6767424941062927,0.0,0.12378209084272385,99
1670482027.75993705,138922929,0,24.492536544799805,24.884254455566406,3.173912763595581,27.379789352416992,0.6789025068283081,0.0,0.12341786921024323,99
1670482027.85992789,139022920,0,24.586944580078125,24.86815071105957,2.278035879135132,27.443069458007812,0.6804583668708801,0.0,0.12344203889369965,99
1670482027.95996189,139122954,0,24.622079849243164,24.91288948059082,2.37317156791687,27.509014129638672,0.6820820569992065,0.0,0.12254033237695694,99
1670482028.05993795,139222930,0,24.618635177612305,24.896696090698242,2.2774221897125244,27.572269439697266,0.6836393475532532,0.0,0.12209484726190567,99
1670482028.15996289,139322955,0,24.64218521118164,24.9112548828125,2.2037689685821533,27.633506774902344,0.6851483583450317,0.0,0.12209484726190567,99
1670482028.25996804,139422960,0,24.626102447509766,24.882978439331055,2.1037230491638184,27.691951751708984,0.6865876317024231,0.0,0.12210536748170853,99
1670482028.35996509,139522957,0,24.59795379638672,24.83987808227539,1.9812744855880737,27.746990203857422,0.6879414319992065,0.0,0.12210536748170853,99
1670482028.45993400,139622926,0,24.63538932800293,24.885520935058594,2.04848313331604,27.803878784179688,0.6893429160118103,0.0,0.12210536748170853,99
1670482028.55995297,139722945,0,24.622314453125,24.867969512939453,2.011826992034912,27.859779357910156,0.6907193064689636,0.0,0.12210536748170853,99
1670482028.65996289,139822955,0,24.64400291442871,24.8946590423584,2.0527796745300293,27.916791915893555,0.6921243071556091,0.0,0.12210536748170853,99
1670482028.75992489,139922917,0,24.611263275146484,24.853300094604492,1.9821951389312744,27.97185516357422,0.6934794783592224,0.0,0.12210536748170853,99
1670482028.85994911,140022941,0,24.598527908325195,24.839290618896484,1.9717609882354736,28.026643753051758,0.6948271989822388,0.0,0.12210536748170853,99
1670482028.95995808,140122950,0,24.639793395996094,24.892621994018555,2.0705792903900146,28.084169387817383,0.6962445974349976,0.0,0.12210536748170853,99
1670482029.05995703,140222949,0,24.6398868560791,24.89234161376953,2.0675103664398193,28.141603469848633,0.6976597905158997,0.0,0.12210536748170853,99
1670482029.15996289,140322955,0,24.63404655456543,24.887025833129883,2.0718066692352295,28.199161529541016,0.6990776658058167,0.0,0.12210536748170853,99
1670482029.25990105,140422893,0,24.585126876831055,24.824052810668945,1.9567233324050903,28.25348472595215,0.7004132270812988,0.0,0.12210536748170853,99
1670482029.35996199,140522954,0,24.612634658813477,24.858705520629883,2.0152368545532227,28.30950164794922,0.7017919421195984,0.0,0.12210536748170853,99
1670482029.45993090,140622923,0,24.646684646606445,24.901012420654297,2.082854747772217,28.367345809936523,0.703217625617981,0.0,0.12210536748170853,99
1670482029.55991888,140722911,0,24.624378204345703,24.87527084350586,2.055541515350342,28.424442291259766,0.7046235799789429,0.0,0.12205654382705688,99
1670482029.65999007,140822982,0,24.63873863220215,24.892253875732422,2.07702374458313,28.482181549072266,0.7060462236404419,0.0,0.12205654382705688,99
1670482029.75996804,140922960,0,24.62897491455078,24.880054473876953,2.0570762157440186,28.53931427001953,0.7074533700942993,0.0,0.12205654382705688,99
1670482029.85999107,141022983,0,24.582828521728516,24.821285247802734,1.953654408454895,28.593599319458008,0.7087878584861755,0.0,0.12205654382705688,99
1670482029.95997310,141122965,0,24.603315353393555,24.847951889038086,2.004291296005249,28.649267196655273,0.7101575136184692,0.0,0.12205654382705688,99
1670482030.05995703,141222949,0,24.619304656982422,24.868024826049805,2.0377421379089355,28.70586585998535,0.7115509510040283,0.0,0.12205654382705688,99
1670482030.15999889,141322991,0,24.636037826538086,24.88970947265625,2.078319549560547,28.763626098632812,0.7129738926887512,0.0,0.12205654382705688,99
1670482030.25997996,141422972,0,24.602550506591797,24.84748649597168,2.006746530532837,28.819364547729492,0.7143452167510986,0.0,0.12205654382705688,99
1670482030.35993910,141522931,0,24.587614059448242,24.82899284362793,1.977591872215271,28.874279022216797,0.7156954407691956,0.0,0.12205654382705688,99
1670482030.45999193,141622984,0,24.64228057861328,24.897180557250977,2.088378667831421,28.93232536315918,0.7171258330345154,0.0,0.12205654382705688,99
1670482030.55997300,141722965,0,24.626293182373047,24.8779354095459,2.0616793632507324,28.989587783813477,0.7185360193252563,0.0,0.12205654382705688,99
1670482030.65995312,141822945,0,24.629070281982422,24.881311416625977,2.066589593887329,29.046985626220703,0.7199496626853943,0.0,0.12205654382705688,99
1670482030.75991511,141922907,0,24.605039596557617,24.850988388061523,2.0150320529937744,29.102941513061523,0.721326470375061,0.0,0.12205654382705688,99
1670482030.86002207,142023014,0,24.59699821472168,24.840436935424805,1.9944709539413452,29.15840721130371,0.722690761089325,0.0,0.12205654382705688,99
1670482030.96005011,142123042,0,24.627059936523438,24.879825592041016,2.0708858966827393,29.215951919555664,0.7241079211235046,0.0,0.12205654382705688,99
1670482031.05995989,142222952,0,24.623910903930664,24.8785400390625,2.0861623287200928,29.273853302001953,0.725533664226532,0.0,0.12205654382705688,99
1670482031.15997791,142322970,0,24.539268493652344,24.953142166137695,3.441758632659912,29.369482040405273,0.7278802990913391,0.0,0.12025061249732971,99
1670482031.25997496,142422967,0,23.861154556274414,25.027830123901367,12.080987930297852,29.705074310302734,0.7358879446983337,0.0,0.09657125174999237,99
1670482031.35997391,142522966,0,22.995685577392578,25.021501541137695,22.741079330444336,30.33683967590332,0.7504158616065979,0.0,0.08908180147409439,99
1670482031.46002793,142623020,0,22.43877601623535,25.0169734954834,30.794761657714844,31.192779541015625,0.7696221470832825,0.0,0.08372192084789276,99
1670482031.55999708,142722989,0,22.55787467956543,24.997060775756836,29.31157112121582,32.00680160522461,0.7879847884178162,0.0,0.08321583271026611,99
1670482031.66002202,142823014,0,22.79894256591797,24.960323333740234,26.068368911743164,32.731163024902344,0.8044994473457336,0.0,0.08291203528642654,99
1670482031.75997305,142922965,0,23.000757217407227,24.8858585357666,22.73647689819336,33.36247253417969,0.8190200328826904,0.0,0.08291087299585342,99
1670482031.86006498,143023057,0,23.13954734802246,24.874187469482422,20.9117488861084,33.94393539428711,0.8324748277664185,0.0,0.08295051753520966,99
1670482031.96003294,143123025,0,23.13967514038086,24.86921501159668,20.837141036987305,34.52259826660156,0.8458649516105652,0.0,0.08300277590751648,99
1670482032.06002212,143223014,0,22.944175720214844,24.851442337036133,22.94822883605957,35.160037994384766,0.8604904413223267,0.0,0.0831117331981659,99
1670482032.15998507,143322977,0,22.933263778686523,24.853464126586914,23.078962326049805,35.800926208496094,0.8751881122589111,0.0,0.08320131152868271,99
1670482032.25998306,143422975,0,22.865192413330078,24.796512603759766,23.134817123413086,36.443599700927734,0.8898829221725464,0.0,0.0834810733795166,99
1670482032.36000299,143522995,0,22.8184757232666,24.842683792114258,24.222124099731445,37.11613464355469,0.9052291512489319,0.0,0.08356859534978867,99
1670482032.46007895,143623071,0,22.8046875,24.874521255493164,24.77820587158203,37.80550003051758,0.9209498763084412,0.0,0.08353447169065475,99
1670482032.56001401,143723006,0,22.84652328491211,24.855836868286133,24.043516159057617,38.47291946411133,0.9361981153488159,0.0,0.08356986939907074,99
1670482032.66001010,143823002,0,22.813720703125,24.86152458190918,24.500642776489258,39.153602600097656,0.951727032661438,0.0,0.08358165621757507,99
1670482032.76006389,143923056,0,22.79425048828125,24.85931968688965,24.701791763305664,39.84018325805664,0.9673771262168884,0.0,0.0836000144481659,99
1670482032.85999703,144022989,0,22.676204681396484,24.792646408081055,25.240074157714844,40.540889739990234,0.9832664728164673,0.0,0.08385240286588669,99
1670482032.96001506,144123007,0,22.643848419189453,24.844472885131836,26.2300968170166,41.269691467285156,0.999769389629364,0.0,0.08389691263437271,99
1670482033.05999494,144222987,0,22.638486862182617,24.843923568725586,26.274290084838867,41.999446868896484,1.0162899494171143,0.0,0.08393894135951996,99
1670482033.15995598,144322948,0,22.623931884765625,24.865766525268555,26.720508575439453,42.741451263427734,1.0330770015716553,0.0,0.08389937877655029,99
1670482033.26001096,144423003,0,22.550024032592773,24.81633758544922,26.96724510192871,43.491004943847656,1.0499794483184814,0.0,0.08403946459293365,99
1670482033.36000800,144523000,0,22.523025512695312,24.790124893188477,26.90617561340332,44.23843765258789,1.0668138265609741,0.0,0.08425944298505783,99
1670482033.46004391,144623036,0,22.543418884277344,24.845577239990234,27.321395874023438,44.99770736694336,1.0839303731918335,0.0,0.08426207304000854,99
1670482033.56007600,144723068,0,22.547460556030273,24.828426361083984,27.04952621459961,45.7491569519043,1.1008737087249756,0.0,0.08432550728321075,99
1670482033.66005301,144823045,0,22.53164291381836,24.818490982055664,27.089385986328125,46.50175094604492,1.1178308725357056,0.0,0.08441857993602753,99
1670482033.75998592,144922978,0,22.511728286743164,24.758087158203125,26.515811920166016,47.23786544799805,1.1344021558761597,0.0,0.08471774309873581,99
1670482033.86002207,145023014,0,22.616466522216797,24.764888763427734,25.359760284423828,47.94261169433594,1.1503410339355469,0.0,0.08471774309873581,99
1670482033.96000600,145122998,0,22.756052017211914,24.780506134033203,23.932727813720703,48.60734939575195,1.1654678583145142,0.0,0.08458936214447021,99
1670482034.06006002,145223052,0,22.748775482177734,24.7275447845459,23.464414596557617,49.259544372558594,1.1803044080734253,0.0,0.08433065563440323,99
1670482034.15999603,145322988,0,22.806888580322266,24.765092849731445,23.244070053100586,49.90485763549805,1.1950219869613647,0.0,0.08424533903598785,99
1670482034.25999999,145422992,0,22.824792861938477,24.72537612915039,22.610036849975586,50.53293991088867,1.2093578577041626,0.0,0.08405928313732147,99
1670482034.35996294,145522955,0,22.834993362426758,24.66177749633789,21.8194580078125,51.13890838623047,1.223195195198059,0.0,0.08372274041175842,99
1670482034.45999789,145622990,0,22.851791381835938,24.689714431762695,21.998409271240234,51.75023651123047,1.2371652126312256,0.0,0.08354799449443817,99
1670482034.56001091,145723003,0,22.827856063842773,24.71257781982422,22.576278686523438,52.37748718261719,1.2514840364456177,0.0,0.08348242193460464,99
1670482034.66005898,145823051,0,22.734704971313477,24.683246612548828,23.340740203857422,53.02620315551758,1.2662323713302612,0.0,0.08348242193460464,99
1670482034.75997210,145922964,0,22.711727142333984,24.66272735595703,23.370201110839844,53.674861907958984,1.2809644937515259,0.0,0.08348242193460464,99
1670482034.85996294,146022955,0,22.67706871032715,24.67462921142578,23.890377044677734,54.338478088378906,1.296013355255127,0.0,0.08361363410949707,99
1670482034.95999002,146122982,0,22.742265701293945,24.693359375,23.347185134887695,54.98723220825195,1.3107675313949585,0.0,0.08356865495443344,99
1670482035.06002212,146223014,0,22.770702362060547,24.688249588012695,22.959583282470703,55.62525939941406,1.3252959251403809,0.0,0.08351835608482361,99
1670482035.16004992,146323042,0,22.737957000732422,24.697763442993164,23.462268829345703,56.27702331542969,1.3401156663894653,0.0,0.08353013545274734,99
1670482035.25998306,146422975,0,22.718618392944336,24.69663429260254,23.67613410949707,56.93450927734375,1.3550528287887573,0.0,0.08354473859071732,99
1670482035.35997701,146522969,0,22.703685760498047,24.624786376953125,22.994874954223633,57.57326889038086,1.3695549964904785,0.0,0.08354473859071732,99
1670482035.46003103,146623023,0,22.755477905273438,24.641435623168945,22.612186431884766,58.20177459716797,1.3838568925857544,0.0,0.08340451866388321,99
1670482035.56004596,146723038,0,22.79243278503418,24.658538818359375,22.389385223388672,58.82384490966797,1.3980354070663452,0.0,0.08334781974554062,99
1670482035.66008401,146823076,0,22.766298294067383,24.665740966796875,22.79539680480957,59.457340240478516,1.412457823753357,0.0,0.08332572132349014,99
1670482035.75998592,146922978,0,22.761032104492188,24.655576705932617,22.749671936035156,60.088706970214844,1.426828384399414,0.0,0.08327785134315491,99
1670482035.85998511,147022977,0,22.76380729675293,24.580564498901367,21.88516616821289,60.69667053222656,1.440667986869812,0.0,0.083013154566288,99
1670482035.95999789,147122990,0,22.84882164001465,24.618698120117188,21.343507766723633,61.28965377807617,1.4542169570922852,0.0,0.08292343467473984,99
1670482036.05999589,147222988,0,22.82158851623535,24.653743743896484,22.084747314453125,61.903175354003906,1.468218445777893,0.0,0.08296018838882446,99
1670482036.15999389,147322986,0,22.796260833740234,24.62729263305664,22.084949493408203,62.51668167114258,1.4822040796279907,0.0,0.08290857821702957,99
1670482036.25994992,147422942,0,22.815696716308594,24.591150283813477,21.453372955322266,63.11239242553711,1.495795726776123,0.0,0.08275869488716125,99
1670482036.35997295,147522965,0,22.900999069213867,24.555130004882812,20.04229736328125,63.66929626464844,1.5085493326187134,0.0,0.08253197371959686,99
1670482036.46001911,147623011,0,22.957294464111328,24.611059188842773,20.039230346679688,64.22624206542969,1.5213353633880615,0.0,0.08252638578414917,99
1670482036.56004095,147723033,0,22.914020538330078,24.59218406677246,20.350109100341797,64.79168701171875,1.5342919826507568,0.0,0.0824645534157753,99
1670482036.65995908,147822951,0,22.90291404724121,24.596208572387695,20.542526245117188,65.36189270019531,1.5473514795303345,0.0,0.0824286937713623,99
1670482036.76008701,147923079,0,22.890180587768555,24.536222457885742,20.020509719848633,65.91876983642578,1.5600985288619995,0.0,0.0822177603840828,99
1670482036.85997510,148022967,0,22.921689987182617,24.53441619873047,19.65589141845703,66.46420288085938,1.5726008415222168,0.0,0.0820479467511177,99
1670482036.95998812,148122980,0,22.961217880249023,24.575971603393555,19.682010650634766,67.01103973388672,1.5851569175720215,0.0,0.0820421501994133,99
1670482037.05999398,148222986,0,22.941497802734375,24.549945831298828,19.62523651123047,67.55625915527344,1.5976650714874268,0.0,0.08195816725492477,99
1670482037.16004801,148323040,0,22.93881607055664,24.58041000366211,20.022964477539062,68.11280059814453,1.610431432723999,0.0,0.08198555558919907,99
1670482037.26010799,148423100,0,22.877351760864258,24.55998420715332,20.511837005615234,68.68295288085938,1.6234750747680664,0.0,0.08203224092721939,99
1670482037.35998702,148522979,0,22.85647964477539,24.51637840270996,20.234716415405273,69.24440002441406,1.636307716369629,0.0,0.08203224092721939,99
1670482037.46000099,148622993,0,22.903871536254883,24.57990837097168,20.431432723999023,69.81206512451172,1.6493093967437744,0.0,0.08203224092721939,99
1670482037.55999994,148722992,0,22.87821388244629,24.58649444580078,20.842971801757812,70.39107513427734,1.6625561714172363,0.0,0.081959567964077,99
1670482037.65998793,148822980,0,22.88775634765625,24.556148529052734,20.356281280517578,70.95649719238281,1.6754974126815796,0.0,0.081959567964077,99
1670482037.76000690,148922999,0,22.852079391479492,24.525348663330078,20.415782928466797,71.52375793457031,1.6884605884552002,0.0,0.081959567964077,99
1670482037.86002707,149023019,0,22.95193099975586,24.501636505126953,18.9488525390625,72.05026245117188,1.700544834136963,0.0,0.08178360015153885,99
1670482037.96003294,149123025,0,22.992523193359375,24.568416595458984,19.25328826904297,72.58514404296875,1.7128431797027588,0.0,0.0818505808711052,99
1670482038.06001091,149223003,0,22.960548400878906,24.554624557495117,19.473018646240234,73.12598419189453,1.7252612113952637,0.0,0.08186080306768417,99
1670482038.16005802,149323050,0,22.952219009399414,24.547510147094727,19.491127014160156,73.66770935058594,1.7376949787139893,0.0,0.08184706419706345,99
1670482038.26000905,149423001,0,22.935562133789062,24.490718841552734,19.043682098388672,74.19647979736328,1.7498226165771484,0.0,0.081662617623806,99
1670482038.36002588,149523018,0,22.958730697631836,24.499109268188477,18.89023780822754,74.72134399414062,1.7618728876113892,0.0,0.08154360949993134,99
1670482038.45999908,149622991,0,22.977779388427734,24.54302406311035,19.18546485900879,75.25416564941406,1.7741159200668335,0.0,0.08158490061759949,99
1670482038.55998802,149722980,0,22.968494415283203,24.52872657775879,19.126678466796875,75.78544616699219,1.7863186597824097,0.0,0.08157359063625336,99
1670482038.66004491,149823037,0,22.96753692626953,24.547204971313477,19.353639602661133,76.32319641113281,1.798669457435608,0.0,0.0816211923956871,99
1670482038.76005197,149923044,0,23.00343894958496,24.511964797973633,18.49803352355957,76.8373031616211,1.8104957342147827,0.0,0.08155064284801483,99
1670482038.86000991,150023002,0,22.99443817138672,24.45598793029785,17.972026824951172,77.33635711669922,1.8219711780548096,0.0,0.08132360875606537,99
1670482038.95997095,150122963,0,22.99769401550293,24.506669998168945,18.560333251953125,77.85175323486328,1.8338240385055542,0.0,0.08130114525556564,99
1670482039.06001997,150223012,0,23.0505428314209,24.510509490966797,17.958829879760742,78.35090637207031,1.845329761505127,0.0,0.08129523694515228,99
1670482039.16000295,150322995,0,23.08012580871582,24.515535354614258,17.654396057128906,78.84125518798828,1.8566471338272095,0.0,0.08130604028701782,99
1670482039.26002407,150423016,0,23.05245590209961,24.503395080566406,17.85172462463379,79.3372802734375,1.8680816888809204,0.0,0.0812772661447525,99
1670482039.35998702,150522979,0,22.96083641052246,24.500263214111328,18.931974411010742,79.86302185058594,1.8801531791687012,0.0,0.08131355047225952,99
1670482039.46003604,150623028,0,22.93632698059082,24.50364875793457,19.270166397094727,80.39860534667969,1.89243745803833,0.0,0.08133409172296524,99
1670482039.55996490,150722957,0,22.969263076782227,24.490474700927734,18.68861198425293,80.91740417480469,1.9043539762496948,0.0,0.08139778673648834,99
1670482039.65997410,150822966,0,23.035127639770508,24.518892288208008,18.220298767089844,81.4236068725586,1.9160144329071045,0.0,0.0814347118139267,99
1670482039.76004195,150923034,0,23.085678100585938,24.518421173095703,17.587800979614258,81.91252899169922,1.9273015260696411,0.0,0.08146233856678009,99
1670482039.86002398,151023016,0,23.05513572692871,24.442827224731445,17.0789794921875,82.38689422607422,1.9382381439208984,0.0,0.08125146478414536,99
1670482039.96006298,151123055,0,22.997406005859375,24.486881256103516,18.324026107788086,82.89613342285156,1.9499493837356567,0.0,0.08128537982702255,99
1670482040.05998492,151222977,0,22.966291427612305,24.510957717895508,19.01544952392578,83.4239730834961,1.9620720148086548,0.0,0.08123216778039932,99
1670482040.16003108,151323023,0,22.971899032592773,24.505016326904297,18.87946128845215,83.94867706298828,1.9741255044937134,0.0,0.08120552450418472,99
1670482040.26001310,151423005,0,22.98046112060547,24.490219116210938,18.58549690246582,84.46489715576172,1.9859883785247803,0.0,0.08123310655355453,98
1670482040.35998297,151522975,0,23.02699089050293,24.46298599243164,17.700429916381836,84.95646667480469,1.9973077774047852,0.0,0.08112774789333344,98
1670482040.46003103,151623023,0,23.09238052368164,24.436508178710938,16.60176658630371,85.41787719726562,2.007962942123413,0.0,0.08096291869878769,98
1670482040.55999088,151722983,0,23.231678009033203,24.483333587646484,15.456764221191406,85.84709930419922,2.017934560775757,0.0,0.08097787201404572,98
1670482040.66001606,151823008,0,23.100133895874023,24.49030876159668,17.160306930541992,86.32392883300781,2.028949499130249,0.0,0.08101104944944382,98
1670482040.76000690,151922999,0,22.907222747802734,24.447385787963867,18.983837127685547,86.85124969482422,2.0410289764404297,0.0,0.08113021403551102,98
1670482040.86003208,152023024,0,22.893436431884766,24.461790084838867,19.31804084777832,87.3880386352539,2.0533180236816406,0.0,0.08118594437837601,98
1670482040.96001697,152123009,0,22.96083641052246,24.493465423583984,18.892078399658203,87.91259765625,2.0653624534606934,0.0,0.08112551271915436,98
1670482041.06004596,152223038,0,22.948007583618164,24.495885848999023,19.09462547302246,88.4433822631836,2.077543020248413,0.0,0.08106350898742676,98
1670482041.16005111,152323043,0,22.90521240234375,24.498943328857422,19.676179885864258,88.99000549316406,2.0900635719299316,0.0,0.08099795877933502,98
1670482041.26000810,152423000,0,22.88730812072754,24.439542770385742,19.128997802734375,89.52117919921875,2.1022207736968994,0.0,0.08114563673734665,98
1670482041.36003995,152523032,0,22.836566925048828,24.4630184173584,20.03125,90.07782745361328,2.1149327754974365,0.0,0.08119570463895798,98
1670482041.46005893,152623051,0,22.77768898010254,24.514150619506836,21.421457290649414,90.67302703857422,2.1284899711608887,0.0,0.08106181025505066,98
1670482041.56001210,152723004,0,22.792816162109375,24.506574630737305,21.165512084960938,91.26072692871094,2.141885280609131,0.0,0.08096940070390701,98
1670482041.66000509,152822997,0,22.815889358520508,24.516576766967773,21.034469604492188,91.84502410888672,2.1552164554595947,0.0,0.08085239678621292,98
1670482041.76003003,152923022,0,22.784893035888672,24.51753807067871,21.458351135253906,92.4412841796875,2.168802261352539,0.0,0.08074454218149185,98
1670482041.86006093,153023053,0,22.623836517333984,24.495424270629883,23.184534072875977,93.0855484008789,2.183377981185913,0.0,0.08072566986083984,98
1670482041.96009302,153123085,0,22.685684204101562,24.52863121032715,22.867517471313477,93.72100830078125,2.19779372215271,0.0,0.08059236407279968,98
1670482042.05997801,153222970,0,22.82526969909668,24.52657127380371,21.109966278076172,94.30677795410156,2.2111639976501465,0.0,0.08059236407279968,98
1670482042.16001892,153323011,0,23.25341033935547,24.400928497314453,14.293042182922363,94.70399475097656,2.220400810241699,0.0,0.08028508722782135,98
1670482042.26001096,153423003,0,22.768592834472656,24.376392364501953,19.938570022583008,95.25784301757812,2.233011245727539,0.0,0.08063764125108719,98
1670482042.36000609,153522998,0,22.671419143676758,24.365219116210938,20.91324806213379,95.83879089355469,2.2461822032928467,0.0,0.0809917226433754,98
1670482042.46002793,153623020,0,22.961122512817383,24.41996192932129,18.036779403686523,96.33995819091797,2.2576894760131836,0.0,0.08088135719299316,98
1670482042.56000996,153723002,0,23.023160934448242,24.427642822265625,17.378196716308594,96.82261657714844,2.268801689147949,0.0,0.08081863075494766,98
1670482042.66005707,153823049,0,23.0535945892334,24.46575927734375,17.458566665649414,97.30786895751953,2.2799885272979736,0.0,0.08088667690753937,98
1670482042.76005697,153923049,0,22.99032211303711,24.421138763427734,17.707487106323242,97.7997817993164,2.291297674179077,0.0,0.08080294728279114,98
1670482042.85998607,154022978,0,22.86605453491211,24.441905975341797,19.501867294311523,98.34115600585938,2.3036768436431885,0.0,0.08080513030290604,98
1670482042.96006298,154123055,0,22.99415397644043,24.495655059814453,18.544374465942383,98.8567123413086,2.3155314922332764,0.0,0.08096804469823837,98
1670482043.06014109,154223133,0,23.080890655517578,24.45704460144043,16.994277954101562,99.32888793945312,2.326429605484009,0.0,0.08097751438617706,98
1670482043.16001010,154323002,0,23.05647850036621,24.447542190551758,17.183013916015625,99.805908203125,2.337428092956543,0.0,0.08095570653676987,98
1670482043.26000690,154422999,0,22.92493438720703,24.406579971313477,18.30193328857422,100.31432342529297,2.349083423614502,0.0,0.08095570653676987,98
1670482043.36003494,154523027,0,22.78841209411621,24.43889045715332,20.381715774536133,100.88068389892578,2.361989974975586,0.0,0.08097842335700989,98
1670482043.46007299,154623065,0,22.78106117248535,24.446109771728516,20.562917709350586,101.45214080810547,2.3750083446502686,0.0,0.08097340911626816,98
1670482043.56003904,154723031,0,22.850257873535156,24.49615478515625,20.37128448486328,102.01779174804688,2.3879337310791016,0.0,0.08079494535923004,98
1670482043.65999699,154822989,0,22.940155029296875,24.48021697998047,19.03999900817871,102.54656219482422,2.4000637531280518,0.0,0.0808856338262558,98
1670482043.76002789,154923020,0,22.875244140625,24.424068450927734,19.148330688476562,103.07866668701172,2.412235736846924,0.0,0.0808856338262558,98
1670482043.86001492,155023007,0,22.873714447021484,24.417724609375,19.088794708251953,103.60888671875,2.424363851547241,0.0,0.0808856338262558,98
1670482043.96001506,155123007,0,22.99836540222168,24.455720901489258,18.010692596435547,104.10922241210938,2.435870885848999,0.0,0.08091610670089722,98
1670482044.05999589,155222988,0,23.055328369140625,24.437068939208984,17.083274841308594,104.58370208740234,2.446810245513916,0.0,0.08088269084692001,98
1670482044.16002107,155323013,0,23.116121292114258,24.438764572143555,16.356870651245117,105.0382080078125,2.4573166370391846,0.0,0.08086159825325012,98
1670482044.26003599,155423028,0,23.074125289916992,24.436138153076172,16.848880767822266,105.50634002685547,2.46811842918396,0.0,0.08083699643611908,98
1670482044.36000896,155523001,0,23.069210052490234,24.35634422302246,15.97510051727295,105.95001220703125,2.478353500366211,0.0,0.0805712640285492,98
1670482044.46007109,155623063,0,23.151643753051758,24.392311096191406,15.417177200317383,106.37857055664062,2.4882752895355225,0.0,0.08047300577163696,98
1670482044.56003499,155723027,0,23.174808502197266,24.413644790649414,15.396614074707031,106.80613708496094,2.4981839656829834,0.0,0.08046156913042068,98
1670482044.66001296,155823005,0,23.121675491333008,24.4309139251709,16.262657165527344,107.2578125,2.508627414703369,0.0,0.0805058404803276,98
1670482044.75999594,155922988,0,23.132972717285156,24.40560531616211,15.816437721252441,107.6971206665039,2.518789768218994,0.0,0.08046267926692963,98
1670482044.86001396,156023006,0,23.15690803527832,24.340007781982422,14.747237205505371,108.10687255859375,2.528278350830078,0.0,0.08022512495517731,98
1670482044.96004391,156123036,0,23.165620803833008,24.394733428955078,15.324188232421875,108.53270721435547,2.5381431579589844,0.0,0.08020734786987305,98
1670482045.05999589,156222988,0,23.107315063476562,24.42986488342285,16.489139556884766,108.99055480957031,2.548722743988037,0.0,0.08020734786987305,98
1670482045.16008401,156323076,0,23.098411560058594,24.422887802124023,16.52627182006836,109.44986724853516,2.5593321323394775,0.0,0.08014369010925293,98
1670482045.26002097,156423013,0,23.156524658203125,24.362947463989258,15.0786771774292,109.86865997314453,2.5690300464630127,0.0,0.08000857383012772,98
1670482045.36008406,156523076,0,23.235031127929688,24.357913970947266,14.056124687194824,110.25938415527344,2.578108549118042,0.0,0.07988568395376205,98
1670482045.46003103,156623023,0,23.21013641357422,24.426254272460938,15.201433181762695,110.68145751953125,2.587904930114746,0.0,0.08000021427869797,98
1670482045.56001806,156723010,0,23.08586883544922,24.412466049194336,16.593481063842773,111.1423568725586,2.5985453128814697,0.0,0.0799468457698822,98
1670482045.66000700,156822999,0,23.103103637695312,24.42745590209961,16.58580780029297,111.60305786132812,2.609189033508301,0.0,0.07984853535890579,98
1670482045.75997996,156922972,0,23.14321517944336,24.413318634033203,15.899604797363281,112.04463195800781,2.61940860748291,0.0,0.07988271862268448,98
1670482045.86003089,157023023,0,23.154333114624023,24.381383895874023,15.374451637268066,112.47195434570312,2.629302978515625,0.0,0.07981107383966446,98
1670482045.96003699,157123029,0,23.163034439086914,24.32951545715332,14.655477523803711,112.87910461425781,2.6387338638305664,0.0,0.07959350198507309,98
1670482046.06004000,157223032,0,23.190895080566406,24.404991149902344,15.241942405700684,113.30254364013672,2.6485538482666016,0.0,0.07965493947267532,98
1670482046.16008806,157323080,0,23.164661407470703,24.411195755004883,15.64918327331543,113.73748779296875,2.6586291790008545,0.0,0.07965493947267532,98
1670482046.26001501,157423007,0,23.169160842895508,24.3653507232666,15.033258438110352,114.1548080444336,2.6682980060577393,0.0,0.07956963032484055,98
1670482046.35999393,157522986,0,23.201906204223633,24.34730339050293,14.41733169555664,114.55523681640625,2.677588701248169,0.0,0.07944585382938385,98
1670482046.46003795,157623030,0,23.20802879333496,24.3960018157959,14.943339347839355,114.97054290771484,2.6872270107269287,0.0,0.07949847728013992,98
1670482046.56006002,157723052,0,23.234071731567383,24.40852165222168,14.758286476135254,115.38062286376953,2.6967549324035645,0.0,0.07957900315523148,98
1670482046.66003299,157823025,0,23.24355125427246,24.416292190551758,14.720539093017578,115.78939819335938,2.70625638961792,0.0,0.07966703176498413,98
1670482046.75998902,157922981,0,23.112207412719727,24.35861587524414,15.621665954589844,116.22322845458984,2.716283082962036,0.0,0.07978717982769012,98
1670482046.86001396,158023006,0,23.07122230529785,24.376920700073242,16.35594940185547,116.67770385742188,2.7267684936523438,0.0,0.07983014732599258,98
1670482046.96004200,158123034,0,23.09103775024414,24.425167083740234,16.73894691467285,117.1428451538086,2.73750901222229,0.0,0.07970212399959564,98
1670482047.06000900,158223001,0,23.085773468017578,24.409975051879883,16.62693214416504,117.6045913696289,2.7481689453125,0.0,0.07964199781417847,98
1670482047.16003799,158323030,0,23.068252563476562,24.433815002441406,17.175342559814453,118.08186340332031,2.759178638458252,0.0,0.07950712740421295,98
1670482047.26003408,158423026,0,23.0181827545166,24.426563262939453,17.734800338745117,118.57451629638672,2.7705185413360596,0.0,0.07941339910030365,98
1670482047.35998893,158522981,0,22.932113647460938,24.375991821289062,18.160762786865234,119.07879638671875,2.7820827960968018,0.0,0.07950537651777267,98
1670482047.46002603,158623018,0,22.93862533569336,24.40285873413086,18.419469833374023,119.5906753540039,2.7938246726989746,0.0,0.07949375361204147,98
1670482047.56003094,158723023,0,22.880414962768555,24.422216415405273,19.414133071899414,120.13002014160156,2.8061652183532715,0.0,0.07941640913486481,98
1670482047.66007495,158823067,0,22.92244529724121,24.433834075927734,19.05718421936035,120.65966033935547,2.8183059692382812,0.0,0.07930804789066315,98
1670482047.76006889,158923061,0,22.93402862548828,24.388626098632812,18.327096939086914,121.16875457763672,2.829981565475464,0.0,0.07936866581439972,98
1670482047.85999703,159022989,0,22.90884780883789,24.368759155273438,18.365764617919922,121.67859649658203,2.8416614532470703,0.0,0.07949087023735046,98
1670482047.96005607,159123048,0,22.92885971069336,24.411388397216797,18.65945816040039,122.197265625,2.8535537719726562,0.0,0.07945186644792557,98
1670482048.06009007,159223082,0,22.92005157470703,24.431764602661133,19.05196762084961,122.7267074584961,2.8656885623931885,0.0,0.07934683561325073,98
1670482048.16001105,159323003,0,22.763233184814453,24.455121994018555,21.369897842407227,123.31982421875,2.8791897296905518,0.0,0.07917161285877228,98
1670482048.26010990,159423102,0,22.50780487060547,24.389537811279297,23.745527267456055,123.9802017211914,2.8940534591674805,0.0,0.07924580574035645,98
1670482048.36001205,159523004,0,22.455446243286133,24.40928077697754,24.656475067138672,124.66442108154297,2.9094178676605225,0.0,0.07924222946166992,98
1670482048.46000195,159622994,0,22.518047332763672,24.433921813964844,24.204938888549805,125.33683013916016,2.9245591163635254,0.0,0.07915220409631729,98
1670482048.56001592,159723008,0,22.63207244873047,24.398069381713867,22.29854393005371,125.95638275146484,2.9385809898376465,0.0,0.07919784635305405,98
1670482048.66001511,159823007,0,22.719959259033203,24.408287048339844,21.316499710083008,126.54853057861328,2.9520344734191895,0.0,0.07920282334089279,98
1670482048.76000810,159923000,0,22.716991424560547,24.41045379638672,21.38217544555664,127.14250183105469,2.9655277729034424,0.0,0.07919971644878387,98
1670482048.86003590,160023028,0,22.79233741760254,24.340957641601562,19.605287551879883,127.68728637695312,2.977944850921631,0.0,0.07898997515439987,98
1670482048.96006107,160123053,0,22.787933349609375,24.375438690185547,20.11227035522461,128.2461395263672,2.990679979324341,0.0,0.07893217355012894,98
1670482049.06001210,160223004,0,22.80631446838379,24.39374351501465,20.10858726501465,128.8044891357422,3.0034139156341553,0.0,0.07894288748502731,98
1670482049.16007304,160323065,0,22.87892723083496,24.403324127197266,19.30092430114746,129.34100341796875,3.01568865776062,0.0,0.07898054271936417,98
1670482049.26008892,160423081,0,22.879648208618164,24.350194931030273,18.650556564331055,129.85919189453125,3.0275447368621826,0.0,0.07884731888771057,98
1670482049.36000896,160523001,0,22.853130340576172,24.310056686401367,18.53117561340332,130.3735809326172,3.039299964904785,0.0,0.07862027734518051,98
1670482049.46003199,160623024,0,22.827375411987305,24.363325119018555,19.539920806884766,130.91635131835938,3.051689863204956,0.0,0.07860568165779114,98
1670482049.56000996,160723002,0,22.761510848999023,24.37545394897461,20.539766311645508,131.4870147705078,3.064678907394409,0.0,0.0785764753818512,98
1670482049.66006589,160823058,0,22.603160858154297,24.397029876708984,22.85923194885254,132.1223907470703,3.079040288925171,0.0,0.07847456634044647,98
1670482049.75999689,160922989,0,22.548494338989258,24.337574005126953,22.764095306396484,132.7543487548828,3.093289852142334,0.0,0.0785922110080719,98
1670482049.86009407,161023086,0,22.724456787109375,24.328954696655273,20.415475845336914,133.32205200195312,3.1061904430389404,0.0,0.0785922110080719,98
1670482049.96000791,161123000,0,22.82648277282715,24.355772018432617,19.46255111694336,133.8622589111328,3.1185214519500732,0.0,0.07857594639062881,98
1670482050.06001711,161223009,0,22.890277862548828,24.341352462768555,18.480541229248047,134.37570190429688,3.1302740573883057,0.0,0.07851901650428772,98
1670482050.16000795,161323000,0,22.83245086669922,24.366395950317383,19.5279541015625,134.9181365966797,3.1426591873168945,0.0,0.0785512626171112,98
1670482050.26001096,161423003,0,22.832258224487305,24.35848617553711,19.429441452026367,135.45790100097656,3.1549832820892334,0.0,0.07855236530303955,98
1670482050.35997009,161522962,0,22.772520065307617,24.310199737548828,19.575214385986328,136.00148010253906,3.1673619747161865,0.0,0.07855236530303955,98
1670482050.46002412,161623016,0,22.805740356445312,24.342754364013672,19.572452545166016,136.54550170898438,3.1797685623168945,0.0,0.07852941006422043,98
1670482050.56003404,161723026,0,22.821537017822266,24.32645034790039,19.180248260498047,137.07838439941406,3.191929817199707,0.0,0.07846161723136902,98
1670482050.66000700,161822999,0,22.77385902404785,24.36477279663086,20.295175552368164,137.64202880859375,3.204766273498535,0.0,0.0783887505531311,98
1670482050.76007700,161923069,0,22.899456024169922,24.31569480895996,18.08837127685547,138.14488220214844,3.2162811756134033,0.0,0.07829557359218597,98
1670482050.86007500,162023067,0,22.95758056640625,24.25181770324707,16.587343215942383,138.6056365966797,3.2268590927124023,0.0,0.07802560180425644,98
1670482050.96000195,162122994,0,22.958730697631836,24.32069969177246,17.455223083496094,139.0902099609375,3.2379844188690186,0.0,0.0780264139175415,98
1670482051.06002998,162223022,0,22.867874145507812,24.338268280029297,18.844818115234375,139.6137237548828,3.2499561309814453,0.0,0.0780264139175415,98
1670482051.16008711,162323079,0,22.922636032104492,24.3138427734375,17.836687088012695,140.10964965820312,3.261323928833008,0.0,0.07799690961837769,98
1670482051.26006508,162423057,0,22.819812774658203,24.259729385375977,18.46120834350586,140.6223907470703,3.273024559020996,0.0,0.07799690961837769,98
1670482051.35999203,162522984,0,22.67572784423828,24.315568923950195,21.02863883972168,141.20614624023438,3.286261558532715,0.0,0.07798134535551071,98
1670482051.46008992,162623082,0,22.741403579711914,24.354883193969727,20.730649948120117,141.78260803222656,3.2993710041046143,0.0,0.07783064991235733,98
1670482051.55999494,162722987,0,22.740957260131836,24.318843841552734,20.275466918945312,142.3453369140625,3.3121678829193115,0.0,0.07782246917486191,98
1670482051.66002703,162823019,0,22.779794692993164,24.33588981628418,20.012531280517578,142.90145874023438,3.324836254119873,0.0,0.07775599509477615,98
1670482051.76004696,162923039,0,22.735946655273438,24.3192195892334,20.362382888793945,143.4672393798828,3.3376996517181396,0.0,0.07775484025478363,98
1670482051.85997510,163022967,0,22.702054977416992,24.27716827392578,20.219680786132812,144.02854919433594,3.350442409515381,0.0,0.07789997011423111,98
1670482051.96000004,163122992,0,22.752317428588867,24.30946159362793,19.984603881835938,144.5838623046875,3.36307692527771,0.0,0.07791715860366821,98
1670482052.05997705,163222969,0,22.733936309814453,24.31954002380371,20.355018615722656,145.14920043945312,3.375929117202759,0.0,0.07789743691682816,98
1670482052.16007304,163323065,0,22.764284133911133,24.333003997802734,20.154926300048828,145.7096405029297,3.3886871337890625,0.0,0.07783310115337372,98
1670482052.26005507,163423047,0,22.732406616210938,24.292882919311523,20.027875900268555,146.2659149169922,3.4013326168060303,0.0,0.0779152512550354,98
1670482052.36002803,163523020,0,22.716703414916992,24.277360916137695,19.997560501098633,146.82130432128906,3.4139492511749268,0.0,0.07804235070943832,98
1670482052.46001291,163623005,0,22.781230926513672,24.315561294555664,19.655925750732422,147.3672637939453,3.426386833190918,0.0,0.07805940508842468,98
1670482052.56004500,163723037,0,22.782381057739258,24.326778411865234,19.772850036621094,147.91673278808594,3.4389050006866455,0.0,0.07810696959495544,98
1670482052.66001296,163823005,0,22.773189544677734,24.310638427734375,19.686922073364258,148.46339416503906,3.4513542652130127,0.0,0.07809494435787201,98
1670482052.76006293,163923055,0,22.710479736328125,24.25356101989746,19.7590389251709,149.01263427734375,3.4638278484344482,0.0,0.07809494435787201,98
1670482052.85999608,164022988,0,22.7008113861084,24.29204559326172,20.365144729614258,149.57798767089844,3.4766619205474854,0.0,0.078135184943676,98
1670482052.96001196,164123004,0,22.68472671508789,24.329458236694336,21.075286865234375,150.16355895996094,3.489945411682129,0.0,0.07804076373577118,98
1670482053.05999708,164222989,0,22.655622482299805,24.334672927856445,21.543291091918945,150.76194763183594,3.503502130508423,0.0,0.07793841511011124,98
1670482053.15999508,164322987,0,22.627241134643555,24.333621978759766,21.918684005737305,151.37083435058594,3.517279624938965,0.0,0.07785052806138992,98
1670482053.25999093,164422983,0,22.661941528320312,24.322132110595703,21.335834503173828,151.96351623535156,3.5307109355926514,0.0,0.0778123289346695,98
1670482053.36000109,164522993,0,22.55385398864746,24.265518188476562,21.95114517211914,152.57337951660156,3.5444657802581787,0.0,0.07797609269618988,98
1670482053.46002412,164623016,0,22.58257484436035,24.296443939208984,21.968639373779297,153.18380737304688,3.558250904083252,0.0,0.0780143290758133,98
1670482053.55996799,164722960,0,22.595306396484375,24.309675216674805,21.97846031188965,153.7940216064453,3.5720388889312744,0.0,0.0780021995306015,98
1670482053.66003394,164823026,0,22.66423797607422,24.30890464782715,21.082958221435547,154.3800811767578,3.5853216648101807,0.0,0.07800930738449097,98
1670482053.76000190,164922994,0,22.630634307861328,24.296531677246094,21.34503936767578,154.97286987304688,3.5987367630004883,0.0,0.07804613560438156,98
1670482053.86002493,165023017,0,22.66490936279297,24.253206253051758,20.392765045166016,155.5395050048828,3.611579656600952,0.0,0.07788535952568054,98
1670482053.96000195,165122994,0,22.71074676513672,24.31137466430664,20.537343978881836,156.10989379882812,3.6245338916778564,0.0,0.07793739438056946,98
1670482054.06001592,165223008,0,22.710289001464844,24.318309783935547,20.615873336791992,156.68267822265625,3.6375420093536377,0.0,0.07799912989139557,98
1670482054.15999389,165322986,0,22.75815773010254,24.303396224975586,19.810291290283203,157.23287963867188,3.6500637531280518,0.0,0.07800183445215225,98
1670482054.26000309,165422995,0,22.699377059936523,24.231781005859375,19.700424194335938,157.78021240234375,3.662487745285034,0.0,0.07778537273406982,98
1670482054.36008096,165523073,0,22.694589614868164,24.249650955200195,20.021121978759766,158.3368377685547,3.6751201152801514,0.0,0.07767105847597122,98
1670482054.46000695,165622999,0,22.777400970458984,24.302331924438477,19.615108489990234,158.88133239746094,3.6875224113464355,0.0,0.07774263620376587,98
1670482054.56000304,165722995,0,22.822303771972656,24.291606903076172,18.893918991088867,159.40618896484375,3.699500799179077,0.0,0.07776596397161484,98
1670482054.66001701,165823009,0,22.86356544494629,24.30170249938965,18.481460571289062,159.919677734375,3.7112410068511963,0.0,0.07781513780355453,98
1670482054.76000309,165922995,0,22.874351501464844,24.285573959350586,18.138154983520508,160.42349243164062,3.7227652072906494,0.0,0.07780411094427109,98
1670482054.85999894,166022991,0,22.877351760864258,24.214574813842773,17.237333297729492,160.90232849121094,3.73371958732605,0.0,0.07757709920406342,98
1670482054.95999789,166122990,0,22.875627517700195,24.251192092895508,17.746463775634766,161.3951416015625,3.744992971420288,0.0,0.0775119960308075,98
1670482055.05997896,166222971,0,22.837331771850586,24.27803611755371,18.57935905456543,161.91136169433594,3.756782054901123,0.0,0.07754328101873398,98
1670482055.16002488,166323017,0,22.849300384521484,24.293964385986328,18.612810134887695,162.4286651611328,3.768602132797241,0.0,0.0776166021823883,98
1670482055.26007009,166423062,0,22.88252067565918,24.235742568969727,17.461977005004883,162.91397094726562,3.779707193374634,0.0,0.07749536633491516,98
1670482055.36003089,166523023,0,22.871990203857422,24.246891021728516,17.75567054748535,163.40704345703125,3.790984630584717,0.0,0.0774344950914383,98
1670482055.46003008,166623022,0,22.7971248626709,24.26231575012207,18.921541213989258,163.93267822265625,3.8029675483703613,0.0,0.07743503153324127,98
1670482055.55999494,166722987,0,22.775318145751953,24.282424926757812,19.480281829833984,164.47364807128906,3.8152883052825928,0.0,0.07736579328775406,98
1670482055.66003895,166823031,0,22.74236297607422,24.27826690673828,19.86461067199707,165.02572631835938,3.8278439044952393,0.0,0.07731863111257553,98
1670482055.75999904,166922991,0,22.730873107910156,24.21940040588379,19.211549758911133,165.55921936035156,3.839970588684082,0.0,0.07748083025217056,98
1670482055.86002803,167023020,0,22.74350929260254,24.264318466186523,19.631067276000977,166.10472106933594,3.85237717628479,0.0,0.07746949046850204,98
1670482055.96005988,167123052,0,22.769742965698242,24.29056167602539,19.65684700012207,166.650634765625,3.864807367324829,0.0,0.07736840099096298,98
1670482056.05998707,167222979,0,22.719287872314453,24.283802032470703,20.239013671875,167.2128143310547,3.8775794506073,0.0,0.07730190455913544,98
1670482056.16004801,167323040,0,22.693437576293945,24.289216995239258,20.66436195373535,167.7871856689453,3.8906137943267822,0.0,0.0772237703204155,98
1670482056.26000309,167422995,0,22.690853118896484,24.28390121459961,20.6425724029541,168.3604278564453,3.903620958328247,0.0,0.0771729052066803,97
1670482056.36001611,167523008,0,22.723215103149414,24.218236923217773,19.372360229492188,168.89866638183594,3.915851354598999,0.0,0.0771729052066803,97
1670482056.46001101,167623003,0,22.75925636291504,24.269500732421875,19.563823699951172,169.44212341308594,3.928219795227051,0.0,0.07719571888446808,97
1670482056.55995607,167722948,0,22.702726364135742,24.27952766418457,20.440641403198242,170.00965881347656,3.9411044120788574,0.0,0.07714048773050308,97
1670482056.65999699,167822989,0,22.754711151123047,24.27443504333496,19.69367218017578,170.55697631835938,3.9535584449768066,0.0,0.07716816663742065,97
1670482056.76003695,167923029,0,22.774911880493164,24.244924545288086,19.066390991210938,171.08685302734375,3.9656262397766113,0.0,0.07709963619709015,97
1670482056.85999489,168022987,0,22.712011337280273,24.203317642211914,19.34259033203125,171.62396240234375,3.977825164794922,0.0,0.07709963619709015,97
1670482056.96004605,168123038,0,22.745712280273438,24.28566551208496,19.973554611206055,172.17910766601562,3.990452527999878,0.0,0.07709963619709015,97
1670482057.06005597,168223048,0,22.74102210998535,24.262178421020508,19.733261108398438,172.72735595703125,4.002920150756836,0.0,0.07708588242530823,97
1670482057.15999389,168322986,0,22.740543365478516,24.275043487548828,19.92107582092285,173.28042602539062,4.015497207641602,0.0,0.07702897489070892,97
1670482057.25999808,168422990,0,22.686813354492188,24.199600219726562,19.639183044433594,173.82601928710938,4.027874946594238,0.0,0.07702897489070892,97
1670482057.35999894,168522991,0,22.763233184814453,24.228952407836914,19.044296264648438,174.35507202148438,4.039917945861816,0.0,0.07696372270584106,97
1670482057.46006894,168623061,0,22.766298294067383,24.275238037109375,19.5828857421875,174.8994598388672,4.052311897277832,0.0,0.07705402374267578,97
1670482057.55999207,168722984,0,22.731637954711914,24.261606216430664,19.864301681518555,175.45086669921875,4.064846038818359,0.0,0.0770210400223732,97
1670482057.65999603,168822988,0,22.727523803710938,24.27358055114746,20.091707229614258,176.00904846191406,4.077531814575195,0.0,0.07695001363754272,97
1670482057.76002097,168923013,0,22.719287872314453,24.248973846435547,19.87320327758789,176.56126403808594,4.090077877044678,0.0,0.07697226107120514,97
1670482057.85999393,169022986,0,22.683195114135742,24.21265411376953,19.832693099975586,177.112060546875,4.102571964263916,0.0,0.07711809128522873,97
1670482057.96004200,169123034,0,22.664621353149414,24.24727439880371,20.519817352294922,177.682373046875,4.115497589111328,0.0,0.07712802290916443,97
1670482058.05999708,169222989,0,22.642772674560547,24.2579288482666,20.948915481567383,178.2640838623047,4.128668785095215,0.0,0.0770997405052185,97
1670482058.16002107,169323013,0,22.705215454101562,24.27716064453125,20.388469696044922,178.83056640625,4.141530990600586,0.0,0.0770997405052185,97
1670482058.26003408,169423026,0,22.72474479675293,24.22347068786621,19.463199615478516,179.37135314941406,4.153820514678955,0.0,0.07700303196907043,97
1670482058.36002707,169523019,0,22.738819122314453,24.196319580078125,18.966960906982422,179.89822387695312,4.16580057144165,0.0,0.076844222843647,97
1670482058.46000409,169622996,0,22.75251007080078,24.262956619262695,19.635669708251953,180.44357299804688,4.178208827972412,0.0,0.07692365348339081,97
1670482058.56002903,169723021,0,22.73518180847168,24.250722885131836,19.695512771606445,180.99085998535156,4.1906514167785645,0.0,0.07694859057664871,97
1670482058.66003489,169823027,0,22.733840942382812,24.25103759765625,19.71177864074707,181.53848266601562,4.203100681304932,0.0,0.07696903496980667,97
1670482058.76000810,169923000,0,22.698322296142578,24.19461441040039,19.440181732177734,182.07838439941406,4.21535587310791,0.0,0.07696903496980667,97
1670482058.86001110,170023003,0,22.782859802246094,24.224689483642578,18.74201011657715,182.59906005859375,4.227218151092529,0.0,0.07693032920360565,97
1670482058.96001101,170123003,0,22.796165466308594,24.24953842163086,18.880826950073242,183.12356567382812,4.239174842834473,0.0,0.07697611302137375,97
1670482059.06005406,170223046,0,22.804973602294922,24.248762130737305,18.74814796447754,183.64462280273438,4.2510576248168945,0.0,0.07700961828231812,97
1670482059.16000891,170323001,0,22.82603645324707,24.24199104309082,18.385404586791992,184.15513610839844,4.2627105712890625,0.0,0.07701516151428223,97
1670482059.26001692,170423009,0,22.792049407958984,24.243684768676758,18.84635353088379,184.67874145507812,4.274644374847412,0.0,0.0770246833562851,97
1670482059.36000800,170523000,0,22.733840942382812,24.192140579223633,18.932893753051758,185.20465087890625,4.286600112915039,0.0,0.0770246833562851,97
1670482059.46000409,170622996,0,22.76715660095215,24.23672866821289,19.076519012451172,185.7345733642578,4.2986650466918945,0.0,0.07703568786382675,97
1670482059.56000590,170722998,0,22.710479736328125,24.2320499420166,19.749834060668945,186.28323364257812,4.311125755310059,0.0,0.07704213261604309,97
1670482059.66001606,170823008,0,22.693918228149414,24.267244338989258,20.452608108520508,186.85145568847656,4.324020862579346,0.0,0.07692545652389526,97
1670482059.76005507,170923047,0,22.728193283081055,24.232982635498047,19.55768585205078,187.3949737548828,4.336374282836914,0.0,0.07694103568792343,97
1670482059.85999489,171022987,0,22.714120864868164,24.20500373840332,19.376962661743164,187.93295288085938,4.348593711853027,0.0,0.07694103568792343,97
1670482059.96000910,171123001,0,22.698034286499023,24.269485473632812,20.45905303955078,188.50137329101562,4.3614959716796875,0.0,0.0768095850944519,97
1670482060.06001496,171223007,0,22.678314208984375,24.239227294921875,20.32494354248047,189.0660400390625,4.374301433563232,0.0,0.07679789513349533,97
1670482060.16003990,171323032,0,22.739871978759766,24.248916625976562,19.639659881591797,189.6117706298828,4.386711120605469,0.0,0.07683659344911575,97
1670482060.26000094,171422993,0,22.756914138793945,24.19647789001465,18.767173767089844,190.13291931152344,4.398570537567139,0.0,0.07670647650957108,97
1670482060.35997796,171522970,0,22.707321166992188,24.163599014282227,18.985065460205078,190.6602020263672,4.410543918609619,0.0,0.07670647650957108,97
1670482060.46000195,171622994,0,22.7501163482666,24.25641632080078,19.637205123901367,191.2058563232422,4.422957420349121,0.0,0.07670647650957108,97
1670482060.56006598,171723058,0,22.769996643066406,24.22930145263672,19.02131462097168,191.734619140625,4.434997081756592,0.0,0.07671945542097092,97
1670482060.66008496,171823077,0,22.80229377746582,24.25508689880371,18.914480209350586,192.26016235351562,4.4469804763793945,0.0,0.07680850476026535,97
1670482060.76000500,171922997,0,22.77471923828125,24.235551834106445,19.01667594909668,192.78802490234375,4.459002494812012,0.0,0.0768185406923294,97
1670482060.86005497,172023047,0,22.702247619628906,24.195627212524414,19.407651901245117,193.3274383544922,4.471248149871826,0.0,0.07694797962903976,97
1670482060.96000910,172123001,0,22.700523376464844,24.219144821166992,19.727123260498047,193.87521362304688,4.483683109283447,0.0,0.07698139548301697,97
1670482061.06000304,172222995,0,22.700523376464844,24.241989135742188,20.036773681640625,194.43179321289062,4.4963178634643555,0.0,0.07693184167146683,97
1670482061.16001892,172323011,0,22.681663513183594,24.231189727783203,20.143266677856445,194.99147033691406,4.509012222290039,0.0,0.07692527770996094,97
1670482061.25999999,172422992,0,22.676204681396484,24.193798065185547,19.696435928344727,195.53836059570312,4.521413803100586,0.0,0.07704917341470718,97
1670482061.36000991,172523002,0,22.693941116333008,24.191675186157227,19.438682556152344,196.07858276367188,4.5336737632751465,0.0,0.07704917341470718,97
1670482061.46001506,172623007,0,22.75595474243164,24.251161575317383,19.381874084472656,196.61703491210938,4.545927047729492,0.0,0.07714459300041199,97
1670482061.56005692,172723049,0,22.818952560424805,24.237619400024414,18.381723403930664,197.12789916992188,4.557584285736084,0.0,0.07717807590961456,97
1670482061.66004395,172823036,0,22.86595916748047,24.240283966064453,17.79924774169922,197.62229919433594,4.568889141082764,0.0,0.07721253484487534,97
1670482061.76005507,172923047,0,22.87294578552246,24.221824645996094,17.47640037536621,198.10784912109375,4.579995155334473,0.0,0.0771828442811966,97
1670482061.85998702,173022979,0,22.78496742248535,24.183420181274414,18.15186309814453,198.6117706298828,4.591476917266846,0.0,0.07704183459281921,97
1670482061.96008706,173123079,0,22.670461654663086,24.24504280090332,20.46150779724121,199.18077087402344,4.604376316070557,0.0,0.07695329189300537,97
1670482062.06000304,173222995,0,22.611581802368164,24.26461410522461,21.522117614746094,199.7781219482422,4.617883682250977,0.0,0.0768062099814415,97
1670482062.16006804,173323060,0,22.671228408813477,24.253734588623047,20.62876319885254,200.35157775878906,4.630884647369385,0.0,0.07671356946229935,97
1670482062.26000309,173422995,0,22.711490631103516,24.207435607910156,19.50040054321289,200.89295959472656,4.643179893493652,0.0,0.07671356946229935,97
1670482062.35998988,173522982,0,22.636188507080078,24.157764434814453,19.773157119750977,201.4421844482422,4.655611991882324,0.0,0.07695157080888748,97
1670482062.46004105,173623033,0,22.641454696655273,24.222776412963867,20.553268432617188,202.01345825195312,4.668546199798584,0.0,0.07693775743246078,97
1670482062.55999899,173722991,0,22.693342208862305,24.219669342041016,19.838830947875977,202.56434631347656,4.681047439575195,0.0,0.07693629711866379,97
1670482062.66002297,173823015,0,22.708662033081055,24.245542526245117,19.976009368896484,203.11941528320312,4.693652153015137,0.0,0.07693629711866379,97
1670482062.76001596,173923008,0,22.68147087097168,24.209993362426758,19.8550968170166,203.6709442138672,4.706161975860596,0.0,0.07698389142751694,97
1670482062.85998201,174022974,0,22.675825119018555,24.174673080444336,19.469642639160156,204.2116241455078,4.7184224128723145,0.0,0.07698389142751694,97
1670482062.96003890,174123031,0,22.787261962890625,24.245180130004883,18.91478729248047,204.7373504638672,4.73040246963501,0.0,0.0770782083272934,97
1670482063.05999804,174222990,0,22.75531768798828,24.22272491455078,19.036659240722656,205.2659912109375,4.742432117462158,0.0,0.07708322256803513,97
1670482063.16000390,174322996,0,22.688365936279297,24.25493049621582,20.353790283203125,205.83145141601562,4.755261421203613,0.0,0.0769667699933052,97
1670482063.26003003,174423022,0,22.56199073791504,24.18451499938965,21.04214096069336,206.41615295410156,4.768453121185303,0.0,0.07710831612348557,97
1670482063.36001801,174523010,0,22.60133934020996,24.2009334564209,20.726354598999023,206.99176025390625,4.781462669372559,0.0,0.07717683911323547,97
1670482063.45999289,174622985,0,22.647581100463867,24.250934600830078,20.805530548095703,207.56968688964844,4.794551372528076,0.0,0.07706378400325775,97
1670482063.56000400,174722996,0,22.613496780395508,24.23488998413086,21.05196189880371,208.1545867919922,4.8077778816223145,0.0,0.07701867073774338,97
1670482063.66001511,174823007,0,22.63245391845703,24.243227005004883,20.93288803100586,208.7361602783203,4.8209404945373535,0.0,0.07694941014051437,97
1670482063.76009893,174923091,0,22.6191463470459,24.20787811279297,20.629989624023438,209.3097381591797,4.833914279937744,0.0,0.07701080292463303,97
1670482063.85999489,175022987,0,22.586713790893555,24.191219329833984,20.804336547851562,209.8870849609375,4.846954822540283,0.0,0.07712364941835403,97
1670482063.95998907,175122981,0,22.635709762573242,24.215314865112305,20.481454849243164,210.45602416992188,4.859833240509033,0.0,0.07712364941835403,97
1670482064.06002688,175223019,0,22.6617488861084,24.229835510253906,20.323715209960938,211.0208282470703,4.8726325035095215,0.0,0.07715549319982529,97
1670482064.15999603,175322988,0,22.657344818115234,24.22911262512207,20.365453720092773,211.58641052246094,4.885447025299072,0.0,0.07717812806367874,97
1670482064.26002002,175423012,0,22.61838150024414,24.20179557800293,20.496492385864258,212.1559295654297,4.89832878112793,0.0,0.07725293189287186,97
1670482064.36004710,175523039,0,22.66739845275879,24.179533004760742,19.60590362548828,212.70069885253906,4.910677433013916,0.0,0.07712646573781967,97
1670482064.45999599,175622988,0,22.749544143676758,24.242843627929688,19.337987899780273,213.2376708984375,4.922893047332764,0.0,0.07722102105617523,97
1670482064.56003094,175723023,0,22.787261962890625,24.208267211914062,18.409343719482422,213.74925231933594,4.934550762176514,0.0,0.07718931138515472,97
1670482064.66005301,175823045,0,22.745615005493164,24.22092056274414,19.109355926513672,214.28004455566406,4.946623802185059,0.0,0.07720331102609634,97
1670482064.75999498,175922987,0,22.660110473632812,24.168790817260742,19.541658401489258,214.82278442382812,4.958922386169434,0.0,0.07720331102609634,97
