timestamp,TimeUS,ThI,ABst,ThO,ThH,DAlt,Alt,BAlt,DSAlt,SAlt,TAlt,DCRt,CRt
1670485398.14437604,91620816,0.0,0.0,0.0,0.12628348171710968,0.0,0.7223012447357178,0.16,nan,0.0,0.002301260828971863,0,-1
1670485398.24244905,91718889,0.0,0.0,0.0,0.12628348171710968,0.0,0.7421957850456238,0.18,nan,0.0,0.022195860743522644,0,13
1670485398.34239507,91818835,0.0,0.0,0.0,0.12628348171710968,0.0,0.7599924206733704,0.11,nan,0.0,0.03999243676662445,0,13
1670485398.44241309,91918853,0.0,0.0,0.0,0.12628348171710968,0.0,0.7725391983985901,0.09,nan,0.0,0.052392348647117615,0,13
1670485398.54242897,92018869,0.0,0.0,0.0,0.12628348171710968,0.0,0.7826919555664062,0.43,nan,0.0,0.06254510581493378,0,13
1670485398.64246416,92118904,0.0,0.0,0.0,0.12628348171710968,0.0,0.7880389094352722,0.1,nan,0.0,0.06789205968379974,0,12
1670485398.74245310,92218893,0.0,0.0,0.0,0.12628348171710968,0.0,0.7921614646911621,-0.02,nan,0.0,0.07201461493968964,0,12
1670485398.84249902,92318939,0.0,0.0,0.0,0.12628348171710968,0.0,0.7957789301872253,0.45,nan,0.0,0.0751991719007492,0,12
1670485398.94255400,92418994,0.0,0.0,0.0,0.12628348171710968,0.0,0.8007009625434875,0.04,nan,0.0,0.08012114465236664,0,11
1670485399.04242396,92518864,0.0,0.0,0.0,0.12628348171710968,0.0,0.8041689991950989,0.15,nan,0.0,0.08358918130397797,0,11
1670485399.14238811,92618828,0.0,0.0,0.0,0.12628348171710968,0.0,0.8076922297477722,0.36,nan,0.0,0.08696560561656952,0,11
1670485399.24249911,92718939,0.0,0.0,0.0,0.12628348171710968,0.0,0.8101948499679565,0.2,nan,0.0,0.0890447348356247,0,10
1670485399.34243608,92818876,0.0,0.0,0.0,0.12628348171710968,0.0,0.8133077025413513,0.24,nan,0.0,0.09193728864192963,0,10
1670485399.44244003,92918880,0.0,0.0,0.0,0.12628348171710968,0.0,0.8156731128692627,0.38,nan,0.0,0.094302698969841,0,9
1670485399.54246402,93018904,0.0,0.0,0.0,0.12628348171710968,0.0,0.8189889192581177,0.09,nan,0.0,0.09761850535869598,0,9
1670485399.64244604,93118886,0.0,0.0,0.0,0.12628348171710968,0.0,0.820032000541687,0.07,nan,0.0,0.09851382672786713,0,9
1670485399.74245095,93218891,0.0,0.0,0.0,0.12628348171710968,0.0,0.8206714391708374,0.37,nan,0.0,0.09915320575237274,0,8
1670485399.84248114,93318921,0.0,0.0,0.0,0.12628348171710968,0.0,0.8201010227203369,0.31,nan,0.0,0.09837011992931366,0,8
1670485399.94244409,93418884,0.0,0.0,0.0,0.12628348171710968,0.0,0.8203988671302795,0.16,nan,0.0,0.09844766557216644,0,8
1670485400.04240012,93518840,0.0,0.0,0.0,0.12628348171710968,0.0,0.8198474645614624,0.09,nan,0.0,0.0978962630033493,0,7
1670485400.14245605,93618896,0.0,0.0,0.0,0.12628348171710968,0.0,0.8194953203201294,0.02,nan,0.0,0.0975441187620163,0,7
1670485400.24241614,93718856,0.0,0.0,0.0,0.12628348171710968,0.0,0.8185454607009888,0.01,nan,0.0,0.09659425914287567,0,6
1670485400.34240007,93818840,0.0,0.0,0.0,0.12628348171710968,0.0,0.8161526918411255,0.27,nan,0.0,0.09420149028301239,0,6
1670485400.44252610,93918966,0.0,0.0,0.0,0.12628348171710968,0.0,0.8121343851089478,0.32,nan,0.0,0.08976070582866669,0,6
1670485400.54247499,94018915,0.0,0.0,0.0,0.12628348171710968,0.0,0.8091020584106445,0.48,nan,0.0,0.08672843873500824,0,5
1670485400.64245105,94118891,0.0,0.0,0.0,0.12628348171710968,0.0,0.8076260089874268,0.16,nan,0.0,0.08525232970714569,0,5
1670485400.74245501,94218895,0.0,0.0,0.0,0.12628348171710968,0.0,0.8072491884231567,0.33,nan,0.0,0.08458946645259857,0,5
1670485400.84245610,94318896,0.0,0.0,0.0,0.12628348171710968,0.0,0.8047647476196289,0.39,nan,0.0,0.08210502564907074,0,4
1670485400.94245505,94418895,0.0,0.0,0.0,0.12628348171710968,0.0,0.8028590679168701,0.27,nan,0.0,0.08019934594631195,0,4
1670485401.04243803,94518878,0.0,0.0,0.0,0.12628348171710968,0.0,0.7999066114425659,0.18,nan,0.0,0.07682435214519501,0,3
1670485401.14244699,94618887,0.0,0.0,0.0,0.12628348171710968,0.0,0.7971194982528687,0.16,nan,0.0,0.07403723895549774,0,3
1670485401.24243712,94718877,0.0,0.0,0.0,0.12628348171710968,0.0,0.7937653064727783,0.12,nan,0.0,0.07046084105968475,0,3
1670485401.34244299,94818883,0.0,0.0,0.0,0.12628348171710968,0.0,0.7907671928405762,0.05,nan,0.0,0.0674627274274826,0,2
1670485401.44245100,94918891,0.0,0.0,0.0,0.12628348171710968,0.0,0.7893558144569397,0.14,nan,0.0,0.0660514086484909,0,2
1670485401.54249501,95018935,0.0,0.0,0.0,0.12628348171710968,0.0,0.7888750433921814,0.21,nan,0.0,0.06557057797908783,0,2
1670485401.64245105,95118891,0.0,0.0,0.0,0.12628348171710968,0.0,0.7889835834503174,0.33,nan,0.0,0.06567911803722382,0,2
1670485401.74242616,95218866,0.0,0.0,0.0,0.12628348171710968,0.0,0.7899720668792725,0.14,nan,0.0,0.0666676014661789,0,1
1670485401.84238696,95318827,0.0,0.0,0.0,0.12628348171710968,0.0,0.7893537878990173,0.23,nan,0.0,0.06604932248592377,0,1
1670485401.94242215,95418862,0.0,0.0,0.0,0.12628348171710968,0.0,0.788364827632904,0.24,nan,0.0,0.0649135559797287,0,1
1670485402.04250908,95518949,0.0,0.0,0.0,0.12628348171710968,0.0,0.7881190180778503,0.11,nan,0.0,0.06466774642467499,0,1
1670485402.14245796,95618898,0.0,0.0,0.0,0.12628348171710968,0.0,0.7880143523216248,0.1,nan,0.0,0.06498651206493378,0,0
1670485402.24247813,95718918,0.0,0.0,0.0,0.12628348171710968,0.0,0.7871937155723572,0.28,nan,0.0,0.0641658753156662,0,0
1670485402.34245896,95818899,0.0,0.0,0.0,0.12628348171710968,0.0,0.7866492867469788,0.14,nan,0.0,0.06362144649028778,0,0
1670485402.44251609,95918956,-1.4901161193847656e-08,-4.1531222905177856e-12,0.0,0.12628348171710968,0.7857109904289246,0.7857109904289246,0.25,nan,0.0,0.0626830905675888,0,0
1670485402.54246616,96018906,-1.4901161193847656e-08,-4.1531222905177856e-12,0.0,0.12628348171710968,0.7848337292671204,0.7848337292671204,0.11,nan,0.0,0.06180588901042938,0,0
1670485402.64246893,96118909,-1.4901161193847656e-08,-4.140687792641984e-12,0.0,0.12628348171710968,0.7850021123886108,0.7850021123886108,0.13,nan,0.0,0.06197427213191986,0,0
1670485402.74250507,96218945,-1.4901161193847656e-08,-4.137135078963183e-12,0.0,0.12628348171710968,0.7852317690849304,0.7852317690849304,0.09,nan,0.0,0.062203869223594666,0,0
1670485402.84245706,96318897,-1.4901161193847656e-08,-4.151345933678385e-12,0.0,0.12628348171710968,0.7847557067871094,0.7847557067871094,0.18,nan,0.0,0.06172780692577362,0,0
1670485402.94247103,96418911,-1.4901161193847656e-08,-4.1318060084449826e-12,0.0,0.12628348171710968,0.7840268611907959,0.7840268611907959,0.09,nan,0.0,0.060998961329460144,0,0
1670485403.04253101,96518971,-1.4901161193847656e-08,-4.121147867408581e-12,0.0,0.12628348171710968,0.7836772203445435,0.7836772203445435,0.25,nan,0.0,0.06042806804180145,0,0
1670485403.14250803,96618948,-1.4901161193847656e-08,-4.1033842990145786e-12,0.0,0.12628348171710968,0.7836271524429321,0.7836271524429321,0.01,nan,0.0,0.060378000140190125,0,0
1670485403.24248004,96718920,0.03624998778104782,9.551644325256348e-06,0.03500913456082344,0.12628348171710968,0.7842249274253845,0.7842249274253845,0.11,nan,0.0,0.06097577512264252,0,0
1670485403.34251809,96818958,0.086249940097332,2.0585954189300537e-05,0.08501993119716644,0.12628348171710968,0.7846716642379761,0.7846716642379761,0.1,nan,0.0,0.061422571539878845,0,0
1670485403.44249201,96918932,0.13624989986419678,2.3037195205688477e-05,0.13502389192581177,0.12628348171710968,0.7865075469017029,0.7865075469017029,0.36,nan,0.0,0.06325845420360565,2,2
1670485403.54257512,97019015,0.12788906693458557,5.304813385009766e-06,0.14817285537719727,0.12628348171710968,0.7920364141464233,0.7953188419342041,0.17,nan,0.0,0.0720696896314621,8,15
1670485403.64256096,97119001,0.09485834836959839,2.4512410163879395e-06,0.11437370628118515,0.12628348171710968,0.8053877949714661,0.8286874890327454,0.26,nan,0.0,0.10543839633464813,15,44
1670485403.74255514,97218995,0.11032614856958389,9.834766387939453e-07,0.10731242597103119,0.12628348171710968,0.828705370426178,0.8825972080230713,0.25,nan,0.0,0.15934805572032928,22,57
1670485403.84250402,97318944,0.11526625603437424,3.762543201446533e-06,0.11294329166412354,0.12628348171710968,0.8620229959487915,0.9499695301055908,0.48,nan,0.0,0.22657255828380585,29,63
1670485403.94254708,97418987,0.10945910215377808,9.03010368347168e-06,0.11204542219638824,0.12628348171710968,0.9053406119346619,1.0252364873886108,0.44,nan,0.0,0.3014160990715027,36,69
1670485404.04257107,97519011,0.10966607928276062,6.809830665588379e-06,0.11024520546197891,0.12628348171710968,0.9586583375930786,1.1061034202575684,0.11,nan,0.0,0.3822830319404602,43,76
1670485404.14250612,97618946,0.11474085599184036,1.1451542377471924e-05,0.11111047863960266,0.12628348171710968,1.0219758749008179,1.1889667510986328,0.42,nan,0.0,0.4647133946418762,51,80
1670485404.24249196,97718932,0.11982889473438263,5.6549906730651855e-06,0.11615462601184845,0.12628348171710968,1.0952935218811035,1.2716200351715088,0.42,nan,0.0,0.5473666787147522,60,82
1670485404.34252095,97818961,0.11641175299882889,6.951391696929932e-06,0.11734984815120697,0.12628348171710968,1.178611159324646,1.354003667831421,0.66,nan,0.0,0.6297504305839539,70,88
1670485404.44248796,97918928,0.11429592221975327,1.0915100574493408e-05,0.11470022052526474,0.12628348171710968,1.2719287872314453,1.4451212882995605,0.5700000000000001,nan,0.0,0.720720112323761,80,96
1670485404.54248405,98018924,0.11998062580823898,9.350478649139404e-06,0.11612197011709213,0.12628348171710968,1.3752464056015015,1.5410102605819702,0.8200000000000001,nan,0.0,0.8166090846061707,91,103
1670485404.64249206,98118932,0.12048998475074768,1.3142824172973633e-05,0.11940133571624756,0.12628348171710968,1.488564133644104,1.646073818206787,0.97,nan,0.0,0.9216727614402771,102,110
1670485404.74245715,98218897,0.11808053404092789,1.519918441772461e-05,0.11887399852275848,0.12628348171710968,1.6118814945220947,1.7609379291534424,0.99,nan,0.0,1.036684513092041,113,119
1670485404.84248900,98318929,0.11879880726337433,1.757591962814331e-05,0.11852998286485672,0.12628348171710968,1.7451995611190796,1.886401891708374,1.18,nan,0.0,1.1621485948562622,124,129
1670485404.94252706,98418967,0.11894498020410538,1.8559396266937256e-05,0.1193687692284584,0.12628348171710968,1.8885167837142944,2.0211126804351807,1.25,nan,0.0,1.2968592643737793,135,138
1670485405.04255199,98518992,0.1204526349902153,2.3990869522094727e-05,0.12012570351362228,0.12628348171710968,2.041834592819214,2.1664655208587646,1.2,nan,0.0,1.4422121047973633,145,147
1670485405.14259911,98619039,0.12254854291677475,2.612173557281494e-05,0.12210918217897415,0.12628348171710968,2.2051522731781006,2.317882776260376,1.47,nan,0.0,1.5938506126403809,157,156
1670485405.24250317,98718943,0.12253561615943909,2.6702880859375e-05,0.1229352131485939,0.12628348171710968,2.378469705581665,2.478135824203491,1.78,nan,0.0,1.7541038990020752,168,166
1670485405.34248805,98818928,0.12458895891904831,3.3192336559295654e-05,0.12359784543514252,0.12628348171710968,2.5617876052856445,2.6492269039154053,1.51,nan,0.0,1.9255542755126953,179,177
1670485405.44250011,98918940,0.12633205950260162,4.0143728256225586e-05,0.12507109344005585,0.12628348171710968,2.75510573387146,2.8300795555114746,1.86,nan,0.0,2.10662841796875,190,187
1670485405.54255295,99018993,0.12594613432884216,5.050003528594971e-05,0.1254037469625473,0.12628348171710968,2.958423376083374,3.01811146736145,2.16,nan,0.0,2.294806957244873,202,199
1670485405.64249396,99118934,0.12831829488277435,6.404519081115723e-05,0.12734141945838928,0.12628348171710968,3.171741247177124,3.2208333015441895,2.33,nan,0.0,2.4975290298461914,213,208
1670485405.74245501,99218895,0.12811799347400665,6.19739294052124e-05,0.12853190302848816,0.12628348171710968,3.39505934715271,3.434262275695801,2.63,nan,0.0,2.7107462882995605,224,218
1670485405.84250307,99318943,0.12045392394065857,5.774945020675659e-05,0.12588906288146973,0.12628348171710968,3.6279590129852295,3.662494421005249,2.93,nan,0.0,2.938767671585083,233,229
1670485405.94252110,99418961,0.11637263000011444,5.6587159633636475e-05,0.119561105966568,0.12628348171710968,3.867617130279541,3.9013164043426514,2.88,nan,0.0,3.1775894165039062,238,240
1670485406.04248500,99518925,0.11566915363073349,5.019456148147583e-05,0.1164848804473877,0.12628348171710968,4.111363887786865,4.145559787750244,3.4,nan,0.0,3.4212615489959717,241,246
1670485406.14250803,99618948,0.11402150243520737,5.476176738739014e-05,0.1151251271367073,0.12628348171710968,4.357583522796631,4.393908977508545,3.66,nan,0.0,3.6696112155914307,243,249
1670485406.24255109,99718991,0.11119711399078369,5.490332841873169e-05,0.11264698207378387,0.12628348171710968,4.605297565460205,4.6473917961120605,3.84,nan,0.0,3.9228827953338623,244,251
1670485406.34247613,99818916,0.11135321855545044,5.05596399307251e-05,0.11112865060567856,0.12628348171710968,4.853915214538574,4.902157783508301,4.22,nan,0.0,4.177649021148682,244,252
1670485406.44250107,99918941,0.11171875149011612,5.7466328144073486e-05,0.11140306293964386,0.12628348171710968,5.103080749511719,5.158499717712402,4.34,nan,0.0,4.43413782119751,243,251
1670485406.54247713,100018917,0.11143046617507935,5.509704351425171e-05,0.11173246055841446,0.12628348171710968,5.352574825286865,5.413582801818848,4.68,nan,0.0,4.689220905303955,243,251
1670485406.64254498,100118985,0.10825425386428833,5.2638351917266846e-05,0.11005368828773499,0.12628348171710968,5.602269649505615,5.66731595993042,5.0200000000000005,nan,0.0,4.9429545402526855,243,252
1670485406.74259996,100219040,0.10580262541770935,5.2168965339660645e-05,0.10736097395420074,0.12628348171710968,5.852085590362549,5.920349597930908,5.0600000000000005,nan,0.0,5.195987701416016,243,252
1670485406.84257412,100319014,0.10900678485631943,4.945695400238037e-05,0.10730353742837906,0.12628348171710968,6.101972579956055,6.17263126373291,5.19,nan,0.0,5.44848108291626,242,251
1670485406.94253802,100418978,0.11162792146205902,5.070120096206665e-05,0.10966061055660248,0.12628348171710968,6.351907253265381,6.421272277832031,5.6000000000000005,nan,0.0,5.697122573852539,243,248
1670485407.04252410,100518964,0.11306723952293396,5.2541494369506836e-05,0.11223288625478745,0.12628348171710968,6.601865768432617,6.663989067077637,5.8,nan,0.0,5.939691066741943,243,247
1670485407.14248610,100618926,0.11540240794420242,4.8063695430755615e-05,0.11385952681303024,0.12628348171710968,6.851841449737549,6.905860424041748,6.22,nan,0.0,6.181562900543213,244,245
1670485407.24248815,100718928,0.11572103202342987,4.780292510986328e-05,0.11519885063171387,0.12628348171710968,7.10181999206543,7.147789001464844,6.390000000000001,nan,0.0,6.423270225524902,245,244
1670485407.34247398,100818914,0.11496374756097794,4.9367547035217285e-05,0.11552301049232483,0.12628348171710968,7.35181999206543,7.3894500732421875,6.73,nan,0.0,6.664783954620361,246,244
1670485407.44250298,100918943,0.11332159489393234,5.148351192474365e-05,0.11446715146303177,0.12628348171710968,7.60181999206543,7.633573532104492,7.09,nan,0.0,6.908325672149658,246,246
1670485407.54247594,101018916,0.11274890601634979,5.9217214584350586e-05,0.11403784900903702,0.12628348171710968,7.85181999206543,7.880186080932617,7.12,nan,0.0,7.15479040145874,247,246
1670485407.64251304,101118953,0.11261805146932602,6.191432476043701e-05,0.1130421981215477,0.12628348171710968,8.10181999206543,8.130020141601562,7.47,nan,0.0,7.404477596282959,247,247
1670485407.74245405,101218894,0.11163099110126495,7.724016904830933e-05,0.11257483065128326,0.12628348171710968,8.35181999206543,8.380098342895508,7.54,nan,0.0,7.654186725616455,247,248
1670485407.84248614,101318926,0.11161622405052185,8.428841829299927e-05,0.11161642521619797,0.12628348171710968,8.60181999206543,8.630876541137695,8.01,nan,0.0,7.90474271774292,247,249
1670485407.94254398,101418984,0.11187669634819031,7.917732000350952e-05,0.11141098290681839,0.12628348171710968,8.85181999206543,8.883353233337402,8.1,nan,0.0,8.157072067260742,246,249
1670485408.04248405,101518924,0.11190193146467209,5.969405174255371e-05,0.1115766167640686,0.12628348171710968,9.10181999206543,9.133293151855469,8.57,nan,0.0,8.407011985778809,246,248
1670485408.14249301,101618933,0.11277797818183899,4.518777132034302e-05,0.11185195297002792,0.12628348171710968,9.35181999206543,9.383683204650879,8.53,nan,0.0,8.657254219055176,246,248
1670485408.24254513,101718985,0.10818187147378922,3.1597912311553955e-05,0.11093070358037949,0.12628348171710968,9.601701736450195,9.633627891540527,8.88,nan,0.0,8.907198905944824,246,247
1670485408.34257603,101819016,0.10548049956560135,2.8617680072784424e-05,0.1078171506524086,0.12628348171710968,9.850192070007324,9.88222599029541,9.200000000000001,nan,0.0,9.15600872039795,244,246
1670485408.44250202,101918942,0.10492613911628723,3.452599048614502e-05,0.1057967022061348,0.12628348171710968,10.09583854675293,10.128995895385742,9.35,nan,0.0,9.402409553527832,240,244
1670485408.54253006,102018970,0.10529496520757675,3.2082200050354004e-05,0.10581102222204208,0.12628348171710968,10.337733268737793,10.371857643127441,9.63,nan,0.0,9.645694732666016,236,240
1670485408.64255500,102118995,0.10306183248758316,2.199411392211914e-05,0.10481835156679153,0.12628348171710968,10.575309753417969,10.608866691589355,9.91,nan,0.0,9.882915496826172,231,237
1670485408.74255109,102218991,0.1020299419760704,1.7955899238586426e-05,0.10285739600658417,0.12628348171710968,10.808222770690918,10.843058586120605,10.33,nan,0.0,10.117319107055664,227,233
1670485408.84249401,102318934,0.1025184839963913,1.687556505203247e-05,0.10257186740636826,0.12628348171710968,11.036252975463867,11.073904991149902,10.620000000000001,nan,0.0,10.348165512084961,221,228
1670485408.94248796,102418928,0.10144546627998352,1.7948448657989502e-05,0.10219436883926392,0.12628348171710968,11.25926685333252,11.301790237426758,10.48,nan,0.0,10.576476097106934,216,222
1670485409.04253006,102518970,0.10107921063899994,2.230703830718994e-05,0.10124500840902328,0.12628348171710968,11.477177619934082,11.521388053894043,10.96,nan,0.0,10.796072959899902,210,216
1670485409.14252996,102618970,0.10314343124628067,2.0325183868408203e-05,0.10244595259428024,0.12628348171710968,11.689925193786621,11.733457565307617,11.11,nan,0.0,11.008355140686035,205,210
1670485409.24248314,102718923,0.10061991214752197,1.706928014755249e-05,0.10202965885400772,0.12628348171710968,11.897476196289062,11.941611289978027,11.41,nan,0.0,11.216729164123535,200,205
1670485409.34249306,102818933,0.10068095475435257,1.0907649993896484e-05,0.10081407427787781,0.12628348171710968,12.099798202514648,12.145487785339355,11.5,nan,0.0,11.421029090881348,195,200
1670485409.44254708,102918987,0.09979327023029327,8.590519428253174e-06,0.10021781176328659,0.12628348171710968,12.296876907348633,12.34438419342041,11.8,nan,0.0,11.620708465576172,189,195
1670485409.54249597,103018936,0.09990639984607697,6.42240047454834e-06,0.09957029670476913,0.12628348171710968,12.488697052001953,12.537163734436035,12.05,nan,0.0,11.813846588134766,184,189
1670485409.64253402,103118974,0.09737347066402435,4.500150680541992e-06,0.09902284294366837,0.12628348171710968,12.67524528503418,12.72823429107666,12.01,nan,0.0,12.00506591796875,178,183
1670485409.74250603,103218946,0.09782327711582184,5.461275577545166e-06,0.09806916117668152,0.12628348171710968,12.856510162353516,12.914810180664062,12.290000000000001,nan,0.0,12.1920747756958,172,179
1670485409.84256411,103319004,0.09722831845283508,7.614493370056152e-06,0.09749787300825119,0.12628348171710968,13.032482147216797,13.095430374145508,12.48,nan,0.0,12.372841835021973,167,172
1670485409.94250798,103418948,0.09669134020805359,1.2919306755065918e-05,0.09722305089235306,0.12628348171710968,13.203150749206543,13.27159309387207,12.73,nan,0.0,12.549224853515625,161,167
1670485410.04249716,103518937,0.09680159389972687,1.681596040725708e-05,0.0972842127084732,0.12628348171710968,13.368501663208008,13.442118644714355,12.92,nan,0.0,12.71989917755127,155,161
1670485410.14254808,103618988,0.09700144827365875,1.7113983631134033e-05,0.09704778343439102,0.12628348171710968,13.52852725982666,13.60706615447998,13.15,nan,0.0,12.884845733642578,149,155
1670485410.24254704,103718987,0.09644649177789688,1.8961727619171143e-05,0.09657689929008484,0.12628348171710968,13.683212280273438,13.765888214111328,13.55,nan,0.0,13.043815612792969,143,148
1670485410.34255314,103818993,0.09684161096811295,2.1278858184814453e-05,0.09687468409538269,0.12628348171710968,13.832547187805176,13.91999340057373,13.55,nan,0.0,13.197920799255371,137,142
1670485410.44247007,103918910,0.0963142141699791,2.3826956748962402e-05,0.09686203300952911,0.12628348171710968,13.976516723632812,14.067012786865234,13.46,nan,0.0,13.345510482788086,132,136
1670485410.54250216,104018942,0.09696139395236969,2.911686897277832e-05,0.09659072011709213,0.12628348171710968,14.11510181427002,14.204301834106445,13.780000000000001,nan,0.0,13.482799530029297,126,130
1670485410.64248013,104118920,0.09820422530174255,3.0763447284698486e-05,0.09741083532571793,0.12628348171710968,14.248291969299316,14.335573196411133,14.09,nan,0.0,13.61429214477539,121,123
1670485410.74248910,104218929,0.09911207854747772,3.404170274734497e-05,0.09813816100358963,0.12628348171710968,14.376066207885742,14.46235466003418,14.0,nan,0.0,13.741220474243164,116,118
1670485410.84256005,104319000,0.09878365695476532,4.466623067855835e-05,0.09889557957649231,0.12628348171710968,14.498404502868652,14.583165168762207,14.19,nan,0.0,13.86246395111084,111,112
1670485410.94249511,104418935,0.09819318354129791,5.5767595767974854e-05,0.09847128391265869,0.12628348171710968,14.615288734436035,14.699267387390137,14.5,nan,0.0,13.97872257232666,105,107
1670485411.04245496,104518895,0.09442508220672607,5.416572093963623e-05,0.09680046141147614,0.12628348171710968,14.726690292358398,14.811662673950195,14.540000000000001,nan,0.0,14.091192245483398,100,101
1670485411.14249706,104618937,0.0941886305809021,7.015466690063477e-05,0.0952829122543335,0.12628348171710968,14.832585334777832,14.920472145080566,14.64,nan,0.0,14.200222969055176,94,97
1670485411.24251604,104718956,0.09627383947372437,8.155405521392822e-05,0.09501902014017105,0.12628348171710968,14.932941436767578,15.02405834197998,14.77,nan,0.0,14.303533554077148,88,92
1670485411.34257102,104819011,0.09533010423183441,8.202344179153442e-05,0.09560559689998627,0.12628348171710968,15.027727127075195,15.122049331665039,14.700000000000001,nan,0.0,14.40152359008789,82,85
1670485411.44254112,104918981,0.09459666907787323,8.036941289901733e-05,0.09496836364269257,0.12628348171710968,15.116901397705078,15.21473217010498,14.99,nan,0.0,14.494215965270996,76,80
1670485411.54247499,105018915,0.09387780725955963,8.162856101989746e-05,0.09444679319858551,0.12628348171710968,15.200417518615723,15.302225112915039,15.120000000000001,nan,0.0,14.581498146057129,70,75
1670485411.64248800,105118928,0.09291456639766693,7.902830839157104e-05,0.0933847650885582,0.12628348171710968,15.27822494506836,15.385164260864258,15.290000000000001,nan,0.0,14.664013862609863,64,69
1670485411.74255204,105218992,0.09360307455062866,9.0770423412323e-05,0.09327730536460876,0.12628348171710968,15.350258827209473,15.463418960571289,15.23,nan,0.0,14.742056846618652,57,61
1670485411.84247804,105318918,0.09373348206281662,8.552521467208862e-05,0.09401965141296387,0.12628348171710968,15.41644287109375,15.535550117492676,15.6,nan,0.0,14.814188003540039,51,54
1670485411.94248509,105418925,0.0943133607506752,7.560849189758301e-05,0.09464563429355621,0.12628348171710968,15.476680755615234,15.601014137268066,15.83,nan,0.0,14.87965202331543,44,48
1670485412.04247808,105518918,0.09124061465263367,7.526576519012451e-05,0.09307806938886642,0.12628348171710968,15.530848503112793,15.663637161254883,15.75,nan,0.0,14.941853523254395,37,42
1670485412.14252710,105618967,0.08971871435642242,7.066130638122559e-05,0.09084709733724594,0.12628348171710968,15.578781127929688,15.722620964050293,15.700000000000001,nan,0.0,15.000837326049805,30,35
1670485412.24246311,105718903,0.09016010165214539,6.972998380661011e-05,0.0898122489452362,0.12628348171710968,15.620241165161133,15.775091171264648,15.97,nan,0.0,15.052874565124512,22,29
1670485412.34248900,105818929,0.08847668766975403,5.894899368286133e-05,0.08931741118431091,0.12628348171710968,15.6548490524292,15.82088851928711,16.07,nan,0.0,15.098100662231445,14,21
1670485412.44248605,105918926,0.08021370321512222,5.6236982345581055e-05,0.0877898558974266,0.12624569237232208,15.719999313354492,15.858725547790527,15.65,nan,0.0,15.135937690734863,-13,12
1670485412.54251003,106018950,0.08345411717891693,8.109956979751587e-05,0.08345893770456314,0.1258346140384674,15.719999313354492,15.885686874389648,15.33,nan,0.0,15.162467002868652,-16,3
1670485412.64248395,106118924,0.08997520804405212,9.50545072555542e-05,0.08653251826763153,0.12542302906513214,15.719999313354492,15.898700714111328,15.56,nan,0.0,15.175479888916016,-17,-5
1670485412.74249816,106218938,0.09728779643774033,0.00012832880020141602,0.09192926436662674,0.12505950033664703,15.719999313354492,15.899209976196289,15.450000000000001,nan,0.0,15.175914764404297,-17,-14
1670485412.84255505,106318995,0.10275417566299438,0.00014180690050125122,0.09767547249794006,0.125,15.719999313354492,15.889387130737305,15.4,nan,0.0,15.165881156921387,-16,-20
1670485412.94258595,106419026,0.10413496196269989,0.00019381940364837646,0.10262222588062286,0.125,15.719999313354492,15.87157154083252,15.57,nan,0.0,15.148066520690918,-15,-22
1670485413.04263210,106519072,0.10298187285661697,0.00023642182350158691,0.10289779305458069,0.125,15.719999313354492,15.850988388061523,15.9,nan,0.0,15.127482414245605,-13,-23
1670485413.14250803,106618948,0.09915357083082199,0.00025350600481033325,0.10066071897745132,0.125,15.719999313354492,15.833715438842773,15.89,nan,0.0,15.110209465026855,-11,-21
1670485413.24253011,106718970,0.0993763655424118,0.00029324740171432495,0.10000089555978775,0.125,15.719999313354492,15.82207202911377,15.450000000000001,nan,0.0,15.098852157592773,-10,-18
1670485413.34255314,106818993,0.10019882768392563,0.0003418177366256714,0.09971638768911362,0.125,15.719999313354492,15.812658309936523,15.16,nan,0.0,15.089871406555176,-9,-16
1670485413.44254613,106918986,0.10257977992296219,0.00039539486169815063,0.1015259325504303,0.125,15.719999313354492,15.80122184753418,15.0,nan,0.0,15.079005241394043,-8,-17
1670485413.54254293,107018983,0.10164819657802582,0.0004465728998184204,0.10209772735834122,0.125,15.719999313354492,15.786543846130371,15.05,nan,0.0,15.065329551696777,-6,-15
1670485413.64249611,107118936,0.09967771917581558,0.0004676729440689087,0.10114728659391403,0.125,15.719999313354492,15.769429206848145,14.9,nan,0.0,15.049365997314453,-4,-13
1670485413.74253798,107218978,0.10046070069074631,0.0005216225981712341,0.10073033720254898,0.125,15.719999313354492,15.75117015838623,14.950000000000001,nan,0.0,15.03246784210205,-3,-11
1670485413.84248996,107318930,0.10387605428695679,0.0006209462881088257,0.10279842466115952,0.125,15.719999313354492,15.73286247253418,14.9,nan,0.0,15.01608943939209,-1,-9
1670485413.94256115,107419001,0.10362592339515686,0.0007024481892585754,0.10400630533695221,0.125,15.719999313354492,15.714837074279785,15.040000000000001,nan,0.0,15.000077247619629,0,-9
1670485414.04252100,107518961,0.10291947424411774,0.0008118152618408203,0.10438013076782227,0.125,15.719999313354492,15.696992874145508,15.18,nan,0.0,14.984529495239258,2,-7
1670485414.14251995,107618960,0.09393250197172165,0.0007846876978874207,0.10040439665317535,0.125,15.719999313354492,15.683691024780273,14.93,nan,0.0,14.973878860473633,3,-1
1670485414.24248695,107718927,0.08635858446359634,0.0007753148674964905,0.09259955585002899,0.125,15.719999313354492,15.677681922912598,14.77,nan,0.0,14.971159934997559,4,5
1670485414.34255314,107818993,0.08195365220308304,0.0008090883493423462,0.08647800236940384,0.125,15.719999313354492,15.676859855651855,14.83,nan,0.0,14.973564147949219,4,11
1670485414.44256401,107919004,0.08661013841629028,0.0009492263197898865,0.08404435217380524,0.125,15.719999313354492,15.677330017089844,14.89,nan,0.0,14.978314399719238,4,11
1670485414.54260516,108019045,0.10736433416604996,0.0012521371245384216,0.09720931947231293,0.125,15.719999313354492,15.673345565795898,15.07,nan,0.0,14.978689193725586,4,3
1670485414.64254808,108118988,0.10471589863300323,0.001250535249710083,0.10390563309192657,0.125,15.719999313354492,15.66596508026123,15.25,nan,0.0,14.976080894470215,5,0
1670485414.74251509,108218955,0.10175428539514542,0.0013006478548049927,0.1042824238538742,0.125,15.719999313354492,15.660175323486328,15.51,nan,0.0,14.975422859191895,5,0
1670485414.84257007,108319010,0.10519187897443771,0.001516096293926239,0.10485180467367172,0.125,15.719999313354492,15.657215118408203,15.21,nan,0.0,14.978083610534668,6,0
1670485414.94256711,108419007,0.10407283157110214,0.001810520887374878,0.10612035542726517,0.125,15.719999313354492,15.655927658081055,15.17,nan,0.0,14.983116149902344,6,0
1670485415.04257202,108519012,0.10267269611358643,0.001968473196029663,0.1051851138472557,0.125,15.719999313354492,15.655219078063965,15.030000000000001,nan,0.0,14.988517761230469,6,0
1670485415.14249706,108618937,0.09822797775268555,0.0020153075456619263,0.10341044515371323,0.125,15.719999313354492,15.655153274536133,14.89,nan,0.0,14.995190620422363,6,2
1670485415.24251294,108718953,0.09955479204654694,0.0019790828227996826,0.10262208431959152,0.125,15.719999313354492,15.654844284057617,15.370000000000001,nan,0.0,15.002447128295898,6,3
1670485415.34248805,108818928,0.09932743012905121,0.001991838216781616,0.10142065584659576,0.125,15.719999313354492,15.656527519226074,15.1,nan,0.0,15.011345863342285,6,4
1670485415.44249916,108918939,0.10221938788890839,0.0020207464694976807,0.10339663177728653,0.125,15.719999313354492,15.659774780273438,15.35,nan,0.0,15.022705078125,6,2
1670485415.54256415,109019004,0.10356691479682922,0.001945391297340393,0.10494814813137054,0.125,15.719999313354492,15.663440704345703,14.94,nan,0.0,15.0346097946167,5,3
1670485415.64257002,109119010,0.10092195868492126,0.0018425732851028442,0.10451126098632812,0.125,15.719999313354492,15.665994644165039,15.13,nan,0.0,15.046077728271484,5,4
1670485415.74255896,109218999,0.10071109235286713,0.001691289246082306,0.10277404636144638,0.125,15.719999313354492,15.667763710021973,15.01,nan,0.0,15.056950569152832,5,4
1670485415.84252906,109318969,0.09919075667858124,0.0015095695853233337,0.10122931003570557,0.125,15.719999313354492,15.669692039489746,15.16,nan,0.0,15.068168640136719,5,4
1670485415.94253016,109418970,0.10200034081935883,0.001429833471775055,0.10109218209981918,0.125,15.719999313354492,15.671859741210938,15.11,nan,0.0,15.080423355102539,4,3
1670485416.04254103,109518981,0.10222390294075012,0.0013232231140136719,0.10272175818681717,0.125,15.719999313354492,15.675037384033203,15.3,nan,0.0,15.093666076660156,4,3
1670485416.14260101,109619041,0.10299209505319595,0.001288190484046936,0.10304604470729828,0.125,15.719999313354492,15.67960262298584,15.790000000000001,nan,0.0,15.108678817749023,4,1
1670485416.24249816,109718938,0.10165999084711075,0.001210629940032959,0.1033819243311882,0.125,15.719999313354492,15.687581062316895,15.68,nan,0.0,15.127140045166016,3,2
1670485416.34251499,109818955,0.09887316823005676,0.0010763853788375854,0.10230185836553574,0.125,15.719999313354492,15.699848175048828,15.620000000000001,nan,0.0,15.150135040283203,2,4
1670485416.44257808,109919018,0.09450218826532364,0.0009386017918586731,0.09739203751087189,0.125,15.719999313354492,15.71578311920166,15.610000000000001,nan,0.0,15.177101135253906,0,5
1670485416.54255199,110018992,0.09571640938520432,0.0009250417351722717,0.09674866497516632,0.125,15.719999313354492,15.733054161071777,15.56,nan,0.0,15.205702781677246,-1,3
1670485416.64259005,110119030,0.09410818666219711,0.0008505582809448242,0.0964580848813057,0.125,15.719999313354492,15.750147819519043,16.1,nan,0.0,15.23409652709961,-3,3
1670485416.74252701,110218967,0.09289826452732086,0.0007383674383163452,0.09523119032382965,0.125,15.719999313354492,15.76919174194336,15.88,nan,0.0,15.264456748962402,-4,2
1670485416.84255314,110318993,0.09561212360858917,0.000651046633720398,0.09562745690345764,0.125,15.719999313354492,15.788392066955566,15.47,nan,0.0,15.295404434204102,-6,0
1670485416.94249606,110418936,0.09076118469238281,0.0005569830536842346,0.09469746053218842,0.125,15.719999313354492,15.8035249710083,15.860000000000001,nan,0.0,15.322433471679688,-8,0
1670485417.04251194,110518952,0.09253755956888199,0.0005168765783309937,0.09327781945466995,0.125,15.719999313354492,15.816676139831543,15.88,nan,0.0,15.347502708435059,-9,-1
1670485417.14250016,110618940,0.09446874260902405,0.0004703626036643982,0.09232776612043381,0.125,15.719999313354492,15.829748153686523,15.94,nan,0.0,15.372252464294434,-10,-3
1670485417.24256110,110719001,0.09732794761657715,0.0004378184676170349,0.09616748988628387,0.125,15.719999313354492,15.84060001373291,15.47,nan,0.0,15.395051002502441,-12,-7
1670485417.34255314,110818993,0.09396104514598846,0.0003781244158744812,0.09632784128189087,0.125,15.719999313354492,15.846932411193848,16.080000000000002,nan,0.0,15.41374397277832,-12,-8
1670485417.44262195,110919062,0.09496603906154633,0.00030434131622314453,0.0957193449139595,0.125,15.719999313354492,15.851288795471191,15.32,nan,0.0,15.430082321166992,-13,-9
1670485417.54254913,111018989,0.09450209140777588,0.00022549927234649658,0.09604926407337189,0.125,15.719999313354492,15.852554321289062,15.75,nan,0.0,15.443672180175781,-13,-10
1670485417.64262295,111119063,0.09783709049224854,0.00023543089628219604,0.09674593061208725,0.125,15.719999313354492,15.850357055664062,15.26,nan,0.0,15.453356742858887,-13,-11
1670485417.74259901,111219039,0.10124247521162033,0.00025735795497894287,0.09765467047691345,0.125,15.719999313354492,15.844789505004883,15.18,nan,0.0,15.460126876831055,-12,-12
1670485417.84251714,111318957,0.1020137295126915,0.00023859739303588867,0.10104366391897202,0.125,15.719999313354492,15.832118034362793,15.43,nan,0.0,15.459234237670898,-11,-14
1670485417.94254708,111418987,0.10600903630256653,0.00021025538444519043,0.10300489515066147,0.125,15.719999313354492,15.816317558288574,15.85,nan,0.0,15.455546379089355,-9,-14
1670485418.04257512,111519015,0.1071605458855629,0.0001549646258354187,0.10647013038396835,0.125,15.719999313354492,15.802173614501953,15.21,nan,0.0,15.45338249206543,-8,-16
1670485418.14251399,111618954,0.09923438727855682,8.81776213645935e-05,0.10237988084554672,0.125,15.719999313354492,15.790772438049316,15.41,nan,0.0,15.45405387878418,-7,-13
1670485418.24250793,111718948,0.10185495764017105,4.612654447555542e-05,0.10228786617517471,0.125,15.719999313354492,15.780123710632324,15.55,nan,0.0,15.454914093017578,-6,-11
1670485418.34250593,111818946,0.10005510598421097,2.8170645236968994e-05,0.1009330302476883,0.125,15.719999313354492,15.772509574890137,16.04,nan,0.0,15.459251403808594,-5,-8
1670485418.44255710,111918997,0.10057274997234344,2.3752450942993164e-05,0.10098902881145477,0.125,15.719999313354492,15.769917488098145,15.76,nan,0.0,15.468067169189453,-4,-6
1670485418.54249501,112018935,0.10014615952968597,2.603977918624878e-05,0.09981010109186172,0.125,15.719999313354492,15.772510528564453,15.92,nan,0.0,15.481952667236328,-5,-5
1670485418.64255500,112118995,0.09837138652801514,3.983825445175171e-05,0.10144961625337601,0.125,15.719999313354492,15.77737045288086,15.66,nan,0.0,15.497861862182617,-5,-5
1670485418.74254704,112218987,0.10245411098003387,6.442517042160034e-05,0.09952640533447266,0.125,15.719999313354492,15.784440994262695,15.59,nan,0.0,15.515628814697266,-6,-4
1670485418.84252596,112318966,0.10162495076656342,8.608400821685791e-05,0.10053255409002304,0.125,15.719999313354492,15.79033374786377,15.71,nan,0.0,15.532060623168945,-7,-6
1670485418.94250607,112418946,0.0983329713344574,0.00013894587755203247,0.099371038377285,0.125,15.719999313354492,15.796121597290039,15.47,nan,0.0,15.548087120056152,-7,-4
1670485419.04256010,112519000,0.09712565690279007,0.00021323561668395996,0.09777852892875671,0.125,15.719999313354492,15.801513671875,15.19,nan,0.0,15.563374519348145,-8,-3
1670485419.14257002,112619010,0.09514684975147247,0.0003045573830604553,0.09638021886348724,0.125,15.719999313354492,15.804322242736816,15.08,nan,0.0,15.57597541809082,-8,-3
1670485419.24258208,112719022,0.10053873807191849,0.00043738633394241333,0.09884904325008392,0.125,15.719999313354492,15.801773071289062,14.96,nan,0.0,15.582406044006348,-8,-6
1670485419.34257913,112819019,0.10161507874727249,0.0005855858325958252,0.10113074630498886,0.125,15.719999313354492,15.793315887451172,15.06,nan,0.0,15.582990646362305,-7,-7
1670485419.44251609,112918956,0.10327714681625366,0.0007909834384918213,0.10252117365598679,0.125,15.719999313354492,15.781272888183594,15.26,nan,0.0,15.579781532287598,-6,-7
1670485419.54271317,113019153,0.1063147634267807,0.001045316457748413,0.10635501891374588,0.125,15.719999313354492,15.76826286315918,15.01,nan,0.0,15.574746131896973,-4,-9
1670485419.64254713,113118987,0.1052934005856514,0.0012509748339653015,0.10620167851448059,0.125,15.719999313354492,15.755037307739258,14.94,nan,0.0,15.569220542907715,-3,-7
1670485419.74249411,113218934,0.10513767600059509,0.0014094561338424683,0.10703427344560623,0.125,15.719999313354492,15.741134643554688,14.82,nan,0.0,15.56280517578125,-2,-6
1670485419.84249401,113318934,0.10645800828933716,0.0015958920121192932,0.10653126984834671,0.125,15.719999313354492,15.72818660736084,15.21,nan,0.0,15.556267738342285,0,-7
1670485419.94254208,113418982,0.1067630872130394,0.0017455518245697021,0.10828974843025208,0.125,15.719999313354492,15.717470169067383,14.8,nan,0.0,15.55186653137207,0,-5
1670485420.04252195,113518962,0.11090273410081863,0.0018630027770996094,0.11007881909608841,0.125,15.719999313354492,15.708380699157715,14.84,nan,0.0,15.548827171325684,1,-4
1670485420.14249206,113618932,0.1055908203125,0.0019524991512298584,0.11057992279529572,0.125,15.719999313354492,15.698869705200195,14.72,nan,0.0,15.5444917678833,2,-3
1670485420.24254298,113718983,0.10653609782457352,0.001970648765563965,0.10877270251512527,0.125,15.719999313354492,15.689306259155273,14.870000000000001,nan,0.0,15.539891242980957,3,0
1670485420.34251404,113818954,0.10618084669113159,0.0018046796321868896,0.10856663435697556,0.125,15.719999313354492,15.6798734664917,14.75,nan,0.0,15.53493595123291,4,0
1670485420.44254899,113918989,0.10810808837413788,0.0016370713710784912,0.10970883816480637,0.125,15.719999313354492,15.670771598815918,15.05,nan,0.0,15.52966022491455,4,0
1670485420.54255795,114018998,0.10786732286214828,0.001505136489868164,0.10988244414329529,0.125,15.719999313354492,15.663013458251953,14.77,nan,0.0,15.525266647338867,5,2
1670485420.64251494,114118955,0.10518546402454376,0.0013064220547676086,0.10777405649423599,0.125,15.719999313354492,15.658214569091797,15.1,nan,0.0,15.523229598999023,6,5
1670485420.74256706,114219007,0.1047549769282341,0.0011149346828460693,0.10753769427537918,0.125,15.719999313354492,15.656015396118164,14.700000000000001,nan,0.0,15.523789405822754,6,5
1670485420.84260106,114319041,0.10508149862289429,0.000906817615032196,0.10545774549245834,0.125,15.719999313354492,15.65483570098877,15.040000000000001,nan,0.0,15.524894714355469,6,7
1670485420.94252110,114418961,0.10545624792575836,0.0008186697959899902,0.10534901171922684,0.125,15.719999313354492,15.654447555541992,15.1,nan,0.0,15.526211738586426,6,7
1670485421.04251695,114518957,0.10454025864601135,0.0007437393069267273,0.10545817017555237,0.125,15.719999313354492,15.65575885772705,14.92,nan,0.0,15.52933120727539,6,7
1670485421.14265800,114619098,0.10505291074514389,0.000661507248878479,0.10618355870246887,0.125,15.719999313354492,15.657194137573242,14.96,nan,0.0,15.532163619995117,6,7
1670485421.24253893,114718979,0.10271772742271423,0.0005632564425468445,0.10406447947025299,0.125,15.719999313354492,15.658931732177734,15.23,nan,0.0,15.535235404968262,6,7
1670485421.34250998,114818950,0.10310524702072144,0.0004862472414970398,0.10364879667758942,0.125,15.719999313354492,15.6627836227417,15.05,nan,0.0,15.54007339477539,5,7
1670485421.44257712,114919017,0.10376821458339691,0.00038802623748779297,0.10367217659950256,0.125,15.719999313354492,15.66918659210205,15.32,nan,0.0,15.54721736907959,5,6
1670485421.54251814,115018958,0.1012064516544342,0.0002793446183204651,0.10251997411251068,0.125,15.719999313354492,15.677690505981445,14.85,nan,0.0,15.55652141571045,4,7
1670485421.64250994,115118950,0.09961790591478348,0.00020240247249603271,0.10151059180498123,0.125,15.719999313354492,15.684615135192871,15.05,nan,0.0,15.56373405456543,3,8
1670485421.74254894,115218989,0.10141432285308838,0.00014825165271759033,0.10076383501291275,0.125,15.719999313354492,15.689432144165039,15.39,nan,0.0,15.56888198852539,3,9
1670485421.84250402,115318944,0.09981074929237366,8.9988112449646e-05,0.10055651515722275,0.125,15.719999313354492,15.694859504699707,15.24,nan,0.0,15.574475288391113,2,5
1670485421.94249511,115418935,0.09960638731718063,5.171447992324829e-05,0.09998691827058792,0.125,15.719999313354492,15.701461791992188,15.44,nan,0.0,15.581121444702148,1,6
1670485422.04257011,115519010,0.10009501874446869,2.9653310775756836e-05,0.09992999583482742,0.125,15.719999313354492,15.708348274230957,15.120000000000001,nan,0.0,15.588338851928711,1,5
1670485422.14251900,115618959,0.0976540818810463,1.4759600162506104e-05,0.09853112697601318,0.125,15.719999313354492,15.714709281921387,14.93,nan,0.0,15.59451675415039,0,5
1670485422.24254298,115718983,0.09594644606113434,1.2613832950592041e-05,0.0978076159954071,0.125,15.719999313354492,15.718624114990234,15.370000000000001,nan,0.0,15.59847640991211,0,3
1670485422.34259105,115819031,0.09838353097438812,1.0147690773010254e-05,0.09750153124332428,0.125,15.720012664794922,15.722208976745605,15.01,nan,0.0,15.60206127166748,0,5
1670485422.44264197,115919082,0.09730315208435059,1.3336539268493652e-05,0.0974634662270546,0.125,15.720172882080078,15.725194931030273,15.14,nan,0.0,15.605379104614258,0,5
1670485422.54252315,116018963,0.09893254190683365,2.7924776077270508e-05,0.09742151945829391,0.125,15.72080135345459,15.727279663085938,14.85,nan,0.0,15.607462882995605,0,2
1670485422.64253211,116118972,0.09815274178981781,4.395097494125366e-05,0.09837853163480759,0.125,15.722234725952148,15.727980613708496,14.51,nan,0.0,15.608163833618164,1,3
1670485422.74256611,116219006,0.10057120025157928,7.13244080543518e-05,0.09953715652227402,0.125,15.724629402160645,15.724614143371582,14.6,nan,0.0,15.604962348937988,2,3
1670485422.84248900,116318929,0.09984782338142395,9.384006261825562e-05,0.10025393217802048,0.125,15.727989196777344,15.717313766479492,14.9,nan,0.0,15.597480773925781,4,5
1670485422.94252801,116418968,0.1009855791926384,7.405132055282593e-05,0.09983384609222412,0.125,15.732161521911621,15.7102632522583,14.68,nan,0.0,15.590821266174316,6,5
1670485423.04252911,116518969,0.1024409607052803,5.201995372772217e-05,0.10186944901943207,0.125,15.73681354522705,15.704076766967773,14.93,nan,0.0,15.584634780883789,8,4
1670485423.14254808,116618988,0.10314402729272842,3.997236490249634e-05,0.10213836282491684,0.125,15.741619110107422,15.69880485534668,14.98,nan,0.0,15.57952880859375,9,6
1670485423.24253511,116718975,0.10245157778263092,2.9101967811584473e-05,0.1023852601647377,0.125,15.746440887451172,15.696908950805664,14.97,nan,0.0,15.577632904052734,9,5
1670485423.34250903,116818949,0.1012738049030304,3.351271152496338e-05,0.10232880711555481,0.125,15.751237869262695,15.697657585144043,14.84,nan,0.0,15.578546524047852,10,6
1670485423.44253898,116918979,0.10007724165916443,3.875046968460083e-05,0.10051276534795761,0.125,15.755843162536621,15.699259757995605,15.280000000000001,nan,0.0,15.58014965057373,10,8
1670485423.54253602,117018976,0.09750998020172119,2.9422342777252197e-05,0.09912998974323273,0.125,15.75991153717041,15.703417778015137,15.06,nan,0.0,15.584638595581055,9,10
1670485423.64250708,117118947,0.09575891494750977,2.4259090423583984e-05,0.0974779799580574,0.125,15.763129234313965,15.710227966308594,15.040000000000001,nan,0.0,15.591448783874512,8,9
1670485423.74250102,117218941,0.09415635466575623,1.7084181308746338e-05,0.09557544440031052,0.125,15.76537799835205,15.717718124389648,15.31,nan,0.0,15.598939895629883,6,10
1670485423.84261107,117319051,0.09565426409244537,1.6227364540100098e-05,0.09552375227212906,0.125,15.76667308807373,15.72726058959961,15.05,nan,0.0,15.608481407165527,4,9
1670485423.94258809,117419028,0.09849847853183746,2.0138919353485107e-05,0.09718240797519684,0.125,15.767205238342285,15.736456871032715,15.1,nan,0.0,15.61767864227295,3,7
1670485424.04260707,117519047,0.10003244131803513,3.088265657424927e-05,0.09901387244462967,0.125,15.767325401306152,15.742597579956055,15.06,nan,0.0,15.624000549316406,2,5
1670485424.14251494,117618955,0.09714290499687195,4.065781831741333e-05,0.09870859235525131,0.125,15.767332077026367,15.74657917022705,15.08,nan,0.0,15.627983093261719,2,3
1670485424.24254298,117718983,0.09857822954654694,6.0752034187316895e-05,0.09876493364572525,0.125,15.767332077026367,15.749627113342285,15.58,nan,0.0,15.631031036376953,1,4
1670485424.34247899,117818919,0.09865930676460266,7.106363773345947e-05,0.09839522838592529,0.125,15.767332077026367,15.754705429077148,15.82,nan,0.0,15.636109352111816,1,3
1670485424.44250107,117918941,0.10172025114297867,7.385760545730591e-05,0.09898202121257782,0.125,15.767332077026367,15.764431953430176,15.8,nan,0.0,15.645503044128418,0,0
1670485424.54249406,118018934,0.10286547988653183,7.311254739761353e-05,0.10218540579080582,0.125,15.767332077026367,15.776220321655273,15.74,nan,0.0,15.657292366027832,0,0
1670485424.64251900,118118959,0.09675082564353943,6.177276372909546e-05,0.09938836097717285,0.125,15.767332077026367,15.790766716003418,15.610000000000001,nan,0.0,15.67183780670166,-2,0
1670485424.74252105,118218961,0.09919372200965881,5.665421485900879e-05,0.09901206940412521,0.125,15.767332077026367,15.806118965148926,15.55,nan,0.0,15.687007904052734,-3,0
1670485424.84247613,118318916,0.09900122135877609,5.660206079483032e-05,0.09901486337184906,0.125,15.767332077026367,15.818400382995605,15.58,nan,0.0,15.699289321899414,-5,-2
1670485424.94253993,118418980,0.10185826569795609,5.482137203216553e-05,0.10043594241142273,0.125,15.767332077026367,15.827481269836426,15.3,nan,0.0,15.70837116241455,-6,-3
1670485425.04249501,118518935,0.10281501710414886,5.6721270084381104e-05,0.10214181244373322,0.125,15.767332077026367,15.831300735473633,15.19,nan,0.0,15.712068557739258,-6,-6
1670485425.14248800,118618928,0.10388162732124329,5.1528215408325195e-05,0.10337954759597778,0.125,15.767332077026367,15.829852104187012,15.780000000000001,nan,0.0,15.710619926452637,-6,-7
1670485425.24248910,118718929,0.10328628122806549,4.7229230403900146e-05,0.10371163487434387,0.125,15.767332077026367,15.827973365783691,15.620000000000001,nan,0.0,15.708741188049316,-6,-7
1670485425.34256315,118819003,0.10252313315868378,4.4852495193481445e-05,0.10238965600728989,0.125,15.767332077026367,15.828449249267578,15.85,nan,0.0,15.70909595489502,-6,-7
1670485425.44258595,118919026,0.10381241142749786,4.398077726364136e-05,0.10335417091846466,0.125,15.767332077026367,15.830097198486328,15.290000000000001,nan,0.0,15.71074390411377,-6,-7
1670485425.54259896,119019039,0.10410529375076294,4.60892915725708e-05,0.10322999954223633,0.125,15.767332077026367,15.830780029296875,15.450000000000001,nan,0.0,15.711426734924316,-6,-8
1670485425.64252710,119118967,0.10299964249134064,4.334002733230591e-05,0.10425521433353424,0.125,15.767332077026367,15.829983711242676,15.41,nan,0.0,15.710448265075684,-6,-7
1670485425.74250793,119218948,0.10463838279247284,4.342198371887207e-05,0.10391094535589218,0.125,15.767332077026367,15.828871726989746,15.530000000000001,nan,0.0,15.709335327148438,-6,-7
1670485425.84256816,119319008,0.10287784039974213,4.2498111724853516e-05,0.10385232418775558,0.125,15.767332077026367,15.826851844787598,15.370000000000001,nan,0.0,15.707315444946289,-5,-7
1670485425.94249010,119418930,0.10249145328998566,3.533065319061279e-05,0.10267848521471024,0.125,15.767332077026367,15.824894905090332,15.450000000000001,nan,0.0,15.705236434936523,-5,-5
1670485426.04251099,119518951,0.10281489044427872,3.310292959213257e-05,0.10251665860414505,0.125,15.767332077026367,15.822941780090332,15.31,nan,0.0,15.703283309936523,-5,-5
1670485426.14254308,119618983,0.104316845536232,3.460794687271118e-05,0.10312005877494812,0.125,15.767332077026367,15.820393562316895,15.36,nan,0.0,15.700614929199219,-5,-6
1670485426.24248815,119718928,0.1027706041932106,4.121661186218262e-05,0.10314919799566269,0.125,15.767332077026367,15.817469596862793,15.38,nan,0.0,15.6976900100708,-5,-5
1670485426.34250402,119818944,0.10358115285634995,3.526359796524048e-05,0.10342317819595337,0.125,15.767332077026367,15.81484317779541,15.49,nan,0.0,15.695063591003418,-4,-5
1670485426.44249296,119918933,0.10207979381084442,4.1253864765167236e-05,0.10265173017978668,0.125,15.767332077026367,15.812972068786621,15.610000000000001,nan,0.0,15.69272232055664,-4,-4
1670485426.54252315,120018963,0.10207078605890274,4.0978193283081055e-05,0.10237867385149002,0.125,15.767332077026367,15.812997817993164,15.69,nan,0.0,15.692748069763184,-4,-4
1670485426.64246416,120118904,0.1053590178489685,3.4324824810028076e-05,0.10413788259029388,0.125,15.767332077026367,15.814143180847168,15.46,nan,0.0,15.693893432617188,-4,-6
1670485426.74254513,120218985,0.1029200628399849,3.738701343536377e-05,0.10409840941429138,0.125,15.767332077026367,15.815221786499023,15.39,nan,0.0,15.69497299194336,-4,-4
1670485426.84255409,120318994,0.10018974542617798,3.1366944313049316e-05,0.10202651470899582,0.125,15.767332077026367,15.815464973449707,15.52,nan,0.0,15.695093154907227,-4,-4
1670485426.94257402,120419014,0.10282313823699951,3.729015588760376e-05,0.10215846449136734,0.125,15.767332077026367,15.815732955932617,15.6,nan,0.0,15.695362091064453,-4,-5
1670485427.04257107,120519011,0.10245232284069061,3.240257501602173e-05,0.1026197299361229,0.125,15.767332077026367,15.81706428527832,15.370000000000001,nan,0.0,15.69669246673584,-4,-4
1670485427.14258695,120619027,0.10031981021165848,3.0390918254852295e-05,0.10054870694875717,0.125,15.767332077026367,15.819246292114258,15.47,nan,0.0,15.69869327545166,-5,-3
1670485427.24252105,120718961,0.10287586599588394,3.635883331298828e-05,0.10114456713199615,0.125,15.767332077026367,15.820998191833496,15.540000000000001,nan,0.0,15.700445175170898,-5,-3
1670485427.34254813,120818988,0.10047091543674469,2.759695053100586e-05,0.10207054018974304,0.125,15.767332077026367,15.822566986083984,15.41,nan,0.0,15.70201301574707,-5,-5
1670485427.44257116,120919011,0.10106287896633148,3.295391798019409e-05,0.10162228345870972,0.125,15.767332077026367,15.8235445022583,15.47,nan,0.0,15.70287036895752,-5,-3
1670485427.54250097,121018941,0.10302150994539261,3.0443072319030762e-05,0.10262951254844666,0.125,15.767332077026367,15.823235511779785,15.200000000000001,nan,0.0,15.702560424804688,-5,-4
1670485427.64251113,121118951,0.10410434007644653,3.4652650356292725e-05,0.10290712863206863,0.125,15.767332077026367,15.821575164794922,15.42,nan,0.0,15.70090103149414,-5,-4
1670485427.74250913,121218949,0.10520132631063461,2.92360782623291e-05,0.10484723746776581,0.125,15.767332077026367,15.81838321685791,15.200000000000001,nan,0.0,15.697709083557129,-5,-7
1670485427.84247994,121318920,0.10325224697589874,2.8677284717559814e-05,0.10408002883195877,0.125,15.767332077026367,15.81368350982666,15.530000000000001,nan,0.0,15.693008422851562,-4,-5
1670485427.94258094,121419021,0.10427740216255188,2.769380807876587e-05,0.10303392261266708,0.125,15.767332077026367,15.809496879577637,15.46,nan,0.0,15.688821792602539,-4,-4
1670485428.04250908,121518949,0.10202373564243317,3.255903720855713e-05,0.10287682712078094,0.125,15.767332077026367,15.808012008666992,15.43,nan,0.0,15.687337875366211,-4,-3
1670485428.14248109,121618921,0.10138421505689621,3.091245889663696e-05,0.10236572474241257,0.125,15.767332077026367,15.808249473571777,15.66,nan,0.0,15.68757438659668,-4,-4
1670485428.24254203,121718982,0.10450533032417297,3.705918788909912e-05,0.10272052884101868,0.125,15.767332077026367,15.810213088989258,15.34,nan,0.0,15.68953800201416,-4,-4
1670485428.34250402,121818944,0.103054940700531,3.4868717193603516e-05,0.10294269770383835,0.125,15.767332077026367,15.812405586242676,15.3,nan,0.0,15.691730499267578,-4,-4
1670485428.44252110,121918961,0.10461700707674026,3.4183263778686523e-05,0.10384279489517212,0.125,15.767332077026367,15.813055038452148,15.32,nan,0.0,15.692546844482422,-4,-4
1670485428.54259109,122019031,0.10509831458330154,3.7185847759246826e-05,0.10456530004739761,0.125,15.767332077026367,15.812159538269043,15.6,nan,0.0,15.691650390625,-4,-5
1670485428.64257908,122119019,0.10486731678247452,4.050135612487793e-05,0.10468024760484695,0.125,15.767332077026367,15.811878204345703,15.51,nan,0.0,15.69136905670166,-4,-6
1670485428.74250793,122218948,0.10427159816026688,4.381686449050903e-05,0.10454735159873962,0.125,15.767332077026367,15.8130464553833,15.280000000000001,nan,0.0,15.692538261413574,-4,-3
1670485428.84254193,122318982,0.1022554561495781,3.842264413833618e-05,0.10373054444789886,0.125,15.767332077026367,15.813922882080078,15.55,nan,0.0,15.693414688110352,-4,-5
1670485428.94254398,122418984,0.10097231715917587,4.097074270248413e-05,0.10231883823871613,0.125,15.767332077026367,15.81557559967041,15.38,nan,0.0,15.695066452026367,-4,-3
1670485429.04254699,122518987,0.1025281548500061,4.502385854721069e-05,0.10165056586265564,0.125,15.767332077026367,15.818405151367188,15.32,nan,0.0,15.69773006439209,-5,-4
1670485429.14248300,122618923,0.1013689935207367,4.140287637710571e-05,0.10236821323633194,0.125,15.767332077026367,15.820417404174805,15.22,nan,0.0,15.69986343383789,-5,-3
1670485429.24254608,122718986,0.10180728137493134,4.978477954864502e-05,0.1019367203116417,0.125,15.767332077026367,15.82066535949707,15.32,nan,0.0,15.700111389160156,-5,-4
1670485429.34253097,122818971,0.10407295823097229,4.49642539024353e-05,0.10301195830106735,0.125,15.767332077026367,15.819308280944824,15.43,nan,0.0,15.698755264282227,-5,-4
1670485429.44253397,122918974,0.1051882803440094,5.026906728744507e-05,0.10356210917234421,0.125,15.767332077026367,15.81801986694336,14.97,nan,0.0,15.69729995727539,-5,-4
1670485429.54250002,123018940,0.10401784628629684,4.29302453994751e-05,0.1037033349275589,0.125,15.767332077026367,15.814716339111328,15.48,nan,0.0,15.69399642944336,-4,-5
1670485429.64251113,123118951,0.10067716240882874,3.7901103496551514e-05,0.10308925807476044,0.125,15.767332077026367,15.811251640319824,15.69,nan,0.0,15.690532684326172,-4,-4
1670485429.74252105,123218961,0.1023467630147934,3.994256258010864e-05,0.10196345299482346,0.125,15.767332077026367,15.811406135559082,15.540000000000001,nan,0.0,15.690686225891113,-4,-4
1670485429.84252906,123318969,0.10314274579286575,3.1463801860809326e-05,0.10258617252111435,0.125,15.767332077026367,15.813626289367676,15.450000000000001,nan,0.0,15.692906379699707,-4,-3
1670485429.94251299,123418953,0.10139629244804382,3.837794065475464e-05,0.10235495120286942,0.125,15.767332077026367,15.816182136535645,15.540000000000001,nan,0.0,15.695463180541992,-4,-3
1670485430.04261899,123519059,0.10278140008449554,3.6463141441345215e-05,0.10202380269765854,0.125,15.767332077026367,15.81947135925293,15.4,nan,0.0,15.698751449584961,-5,-3
1670485430.14261413,123619054,0.10377698391675949,3.598630428314209e-05,0.10337355732917786,0.125,15.767332077026367,15.822062492370605,15.67,nan,0.0,15.701342582702637,-5,-5
1670485430.24257994,123719020,0.10295750200748444,3.405660390853882e-05,0.10368215292692184,0.125,15.767332077026367,15.824687004089355,15.31,nan,0.0,15.703968048095703,-5,-5
1670485430.34251595,123818956,0.10410038381814957,3.7923455238342285e-05,0.10366250574588776,0.125,15.767332077026367,15.82670783996582,15.530000000000001,nan,0.0,15.705866813659668,-5,-5
1670485430.44254804,123918988,0.10559737682342529,3.4943222999572754e-05,0.10444123297929764,0.125,15.767332077026367,15.827777862548828,15.620000000000001,nan,0.0,15.706936836242676,-6,-5
1670485430.54251695,124018957,0.10571601986885071,3.7088990211486816e-05,0.10512442886829376,0.125,15.767332077026367,15.829011917114258,15.290000000000001,nan,0.0,15.708171844482422,-6,-7
1670485430.64249110,124118931,0.10473362356424332,3.262609243392944e-05,0.10526256263256073,0.125,15.767332077026367,15.829224586486816,15.73,nan,0.0,15.708383560180664,-6,-6
1670485430.74248910,124218929,0.1004282608628273,3.1925737857818604e-05,0.10355585068464279,0.125,15.767332077026367,15.830432891845703,15.75,nan,0.0,15.709592819213867,-6,-6
1670485430.84255004,124318990,0.09755745530128479,2.5190412998199463e-05,0.09980731457471848,0.125,15.767332077026367,15.835505485534668,15.540000000000001,nan,0.0,15.714664459228516,-6,-4
1670485430.94248700,124418927,0.09944763779640198,3.5449862480163574e-05,0.09862904250621796,0.125,15.767332077026367,15.84212875366211,15.27,nan,0.0,15.721287727355957,-7,-3
1670485431.04255915,124518999,0.09920288622379303,2.2858381271362305e-05,0.0993349701166153,0.125,15.767332077026367,15.847155570983887,15.5,nan,0.0,15.726314544677734,-7,-3
1670485431.14253306,124618973,0.10196413099765778,2.502650022506714e-05,0.10030237585306168,0.125,15.767332077026367,15.85044002532959,15.290000000000001,nan,0.0,15.729599952697754,-8,-4
1670485431.24252796,124718968,0.10223998129367828,2.3208558559417725e-05,0.10163471847772598,0.125,15.767332077026367,15.85088062286377,15.14,nan,0.0,15.730040550231934,-8,-5
1670485431.34247613,124818916,0.10009855031967163,2.1204352378845215e-05,0.10104754567146301,0.125,15.767332077026367,15.847957611083984,15.16,nan,0.0,15.726994514465332,-8,-7
1670485431.44249296,124918933,0.09890947490930557,1.887977123260498e-05,0.09976184368133545,0.125,15.767332077026367,15.842705726623535,15.15,nan,0.0,15.721909523010254,-7,-5
1670485431.54251313,125018953,0.1023586168885231,1.815706491470337e-05,0.10032358765602112,0.125,15.767332077026367,15.83562183380127,15.280000000000001,nan,0.0,15.714825630187988,-6,-5
1670485431.64258194,125119022,0.10289990156888962,2.4572014808654785e-05,0.10189926624298096,0.125,15.767332077026367,15.828667640686035,15.51,nan,0.0,15.707871437072754,-6,-7
1670485431.74258399,125219024,0.10265086591243744,1.8969178199768066e-05,0.10227896273136139,0.125,15.767332077026367,15.823698043823242,15.47,nan,0.0,15.702901840209961,-5,-6
1670485431.84249306,125318933,0.10553722083568573,1.800060272216797e-05,0.10373854637145996,0.125,15.767332077026367,15.821738243103027,15.15,nan,0.0,15.70075798034668,-5,-6
1670485431.94252610,125418966,0.1029018759727478,1.2539327144622803e-05,0.10371425747871399,0.125,15.767332077026367,15.819908142089844,15.25,nan,0.0,15.698927879333496,-5,-6
1670485432.04257011,125519010,0.10526314377784729,2.095848321914673e-05,0.10414637625217438,0.125,15.767332077026367,15.815914154052734,15.69,nan,0.0,15.694933891296387,-4,-8
1670485432.14259195,125619032,0.1053595319390297,2.0839273929595947e-05,0.105490542948246,0.125,15.767332077026367,15.812395095825195,15.32,nan,0.0,15.691414833068848,-4,-7
1670485432.24248910,125718929,0.10790073126554489,2.024322748184204e-05,0.106533944606781,0.125,15.767332077026367,15.810343742370605,15.55,nan,0.0,15.68924331665039,-4,-6
1670485432.34249997,125818940,0.10768678784370422,2.0973384380340576e-05,0.10776364803314209,0.125,15.767332077026367,15.808538436889648,15.450000000000001,nan,0.0,15.687437057495117,-4,-7
1670485432.44248915,125918929,0.10571509599685669,2.7410686016082764e-05,0.10633040219545364,0.125,15.767332077026367,15.809053421020508,15.9,nan,0.0,15.687952041625977,-4,-6
1670485432.54248309,126018923,0.10400905460119247,2.839416265487671e-05,0.1053745225071907,0.125,15.767332077026367,15.81291675567627,15.530000000000001,nan,0.0,15.691816329956055,-4,-4
