timestamp,TimeUS,Instance,Volt,VoltR,Curr,CurrTot,EnrgTot,Temp,Res,RemPct
1670483642.57969379,137477779,0,24.800537109375,24.893434524536133,0.7271220088005066,28.8594970703125,0.7167813181877136,0.0,0.1277611404657364,99
1670483642.67967486,137577760,0,24.781963348388672,24.86900520324707,0.681293249130249,28.878419876098633,0.7172502279281616,0.0,0.1277611404657364,99
1670483642.77969599,137677781,0,24.766069412231445,24.84911346435547,0.6499906182289124,28.896480560302734,0.7176975011825562,0.0,0.1277611404657364,99
1670483642.87962580,137777711,0,24.802547454833984,24.896530151367188,0.7356125712394714,28.916900634765625,0.7182039618492126,0.0,0.1277611404657364,99
1670483642.97968888,137877774,0,24.82207679748535,24.9213924407959,0.7773495316505432,28.938501358032227,0.7187401652336121,0.0,0.1277611404657364,99
1670483643.07970977,137977795,0,24.809345245361328,24.90423011779785,0.7426710724830627,28.959136962890625,0.7192521095275879,0.0,0.1277611404657364,99
1670483643.17969680,138077782,0,24.814960479736328,24.91136932373047,0.7546055912971497,28.980104446411133,0.719772458076477,0.0,0.1277611404657364,99
1670483643.27962399,138177709,0,24.77813148498535,24.86517333984375,0.681293249130249,28.9990177154541,0.7202410697937012,0.0,0.1277611404657364,99
1670483643.37963796,138277723,0,24.77803611755371,24.863746643066406,0.6708590984344482,29.017654418945312,0.7207028269767761,0.0,0.1277611404657364,99
1670483643.47970486,138377790,0,24.805706024169922,24.900041580200195,0.7383745908737183,29.038183212280273,0.7212120294570923,0.0,0.1277611404657364,99
1670483643.57968998,138477775,0,24.816619873046875,24.913307189941406,0.7567879557609558,29.0592041015625,0.7217336893081665,0.0,0.1277611404657364,99
1670483643.67971587,138577801,0,24.81623649597168,24.91245460510254,0.7531052231788635,29.08013153076172,0.7222530245780945,0.0,0.1277611404657364,99
1670483643.77968287,138677768,0,24.76233673095703,24.844438552856445,0.6426252722740173,29.097978591918945,0.7226949334144592,0.0,0.1277611404657364,99
1670483643.87974095,138777826,0,24.802452087402344,24.89474868774414,0.722416341304779,29.11805534362793,0.7231929302215576,0.0,0.1277611404657364,99
1670483643.97970295,138877788,0,24.808258056640625,24.90213966369629,0.7348282933235168,29.138463973999023,0.7236992120742798,0.0,0.1277611404657364,99
1670483644.07968879,138977774,0,24.81537628173828,24.912769317626953,0.7623119354248047,29.159637451171875,0.7242246866226196,0.0,0.1277611404657364,99
1670483644.17969489,139077780,0,24.79574966430664,24.88600730895996,0.7064581513404846,29.179264068603516,0.7247113585472107,0.0,0.1277611404657364,99
1670483644.27967978,139177765,0,24.770666122436523,24.85327911376953,0.6466148495674133,29.197223663330078,0.7251562476158142,0.0,0.1277611404657364,99
1670483644.37970281,139277788,0,24.805994033813477,24.8985652923584,0.7245646119117737,29.217357635498047,0.7256556749343872,0.0,0.1277611404657364,99
1670483644.47963977,139377725,0,24.81930160522461,24.915754318237305,0.7549465894699097,29.238317489624023,0.726175844669342,0.0,0.1277611404657364,99
1670483644.57972693,139477812,0,24.813365936279297,24.909231185913086,0.7503432631492615,29.259174346923828,0.7266933917999268,0.0,0.1277611404657364,99
1670483644.67972493,139577810,0,24.819684982299805,24.91719627380371,0.7632325887680054,29.280380249023438,0.7272197008132935,0.0,0.1277611404657364,99
1670483644.77971482,139677800,0,24.678470611572266,24.911788940429688,1.833354115486145,29.331308364868164,0.7284765243530273,0.0,0.12726278603076935,99
1670483644.87963390,139777719,0,24.368927001953125,25.02040672302246,5.562530994415283,29.4857120513916,0.7322391867637634,0.0,0.11711928993463516,99
1670483644.97968292,139877768,0,24.543193817138672,24.977161407470703,3.7446577548980713,29.58978843688965,0.7347935438156128,0.0,0.1158900335431099,99
1670483645.07969284,139977778,0,24.66487693786621,24.957191467285156,2.5367431640625,29.660266876220703,0.7365319132804871,0.0,0.11523253470659256,99
1670483645.17969489,140077780,0,24.66592788696289,24.94719886779785,2.4489731788635254,29.728300094604492,0.7382100224494934,0.0,0.11485254019498825,99
1670483645.27967477,140177760,0,24.646013259887695,24.91851043701172,2.3682615756988525,29.794076919555664,0.7398311495780945,0.0,0.11506244540214539,99
1670483645.37969279,140277778,0,24.63241958618164,24.890153884887695,2.2261719703674316,29.855932235717773,0.741354763507843,0.0,0.11577504128217697,99
1670483645.47972584,140377811,0,24.674354553222656,24.934080123901367,2.2433576583862305,29.91827392578125,0.7428929805755615,0.0,0.11577504128217697,99
1670483645.57967591,140477761,0,24.69522476196289,24.95317268371582,2.228013277053833,29.98013687133789,0.7444207072257996,0.0,0.11577504128217697,99
1670483645.67967892,140577764,0,24.657739639282227,24.903568267822266,2.1233301162719727,30.039125442504883,0.7458752393722534,0.0,0.11577504128217697,99
1670483645.77967691,140677762,0,24.633567810058594,24.8702335357666,2.044186592102051,30.095911026000977,0.7472741007804871,0.0,0.11577504128217697,99
1670483645.87970090,140777786,0,24.668418884277344,24.916318893432617,2.1411635875701904,30.155406951904297,0.7487417459487915,0.0,0.11577790230512619,99
1670483645.97964883,140877734,0,24.69215965270996,24.946277618408203,2.194869041442871,30.21634864807129,0.750246524810791,0.0,0.11577790230512619,99
1670483646.07965899,140977744,0,24.677322387695312,24.929107666015625,2.172159433364868,30.276697158813477,0.7517358064651489,0.0,0.11591468751430511,99
1670483646.17970181,141077787,0,24.685651779174805,24.939002990722656,2.1856625080108643,30.337440490722656,0.7532352805137634,0.0,0.11591468751430511,99
1670483646.27969193,141177777,0,24.639986038208008,24.8824520111084,2.09175443649292,30.395526885986328,0.7546665072441101,0.0,0.11591468751430511,99
1670483646.37971282,141277798,0,24.637975692749023,24.87955093383789,2.0840821266174316,30.453453063964844,0.7560936808586121,0.0,0.11591468751430511,99
1670483646.47964382,141377729,0,24.67380142211914,24.924314498901367,2.161179542541504,30.51344871520996,0.7575740218162537,0.0,0.11591468751430511,99
1670483646.57970095,141477786,0,24.686702728271484,24.940906524658203,2.1930277347564697,30.574405670166016,0.759078860282898,0.0,0.11591468751430511,99
1670483646.67969799,141577783,0,24.67799186706543,24.930452346801758,2.177990436553955,30.63490867614746,0.7605719566345215,0.0,0.11591468751430511,99
1670483646.77969790,141677783,0,24.627059936523438,24.867141723632812,2.071193218231201,30.692445755004883,0.7619889378547668,0.0,0.11591468751430511,99
1670483646.87968087,141777766,0,24.64936637878418,24.895069122314453,2.1196815967559814,30.751319885253906,0.7634401917457581,0.0,0.11591468751430511,99
1670483646.97969890,141877784,0,24.673778533935547,24.92574119567871,2.173693895339966,30.811716079711914,0.7649303674697876,0.0,0.11591468751430511,99
1670483647.07971978,141977805,0,24.691967010498047,24.948091506958008,2.2095999717712402,30.87310218811035,0.7664461135864258,0.0,0.11591468751430511,99
1670483647.17971182,142077797,0,24.654346466064453,24.900190353393555,2.1209089756011963,30.932025909423828,0.7678987979888916,0.0,0.11591468751430511,99
1670483647.27974391,142177829,0,24.625335693359375,24.863744735717773,2.0567691326141357,30.989181518554688,0.7693062424659729,0.0,0.11591468751430511,99
1670483647.37971187,142277797,0,24.666566848754883,24.916486740112305,2.156064748764038,31.049057006835938,0.7707831859588623,0.0,0.11591468751430511,99
1670483647.47971582,142377801,0,24.672821044921875,24.923717498779297,2.16448712348938,31.109188079833984,0.7722668051719666,0.0,0.11591468751430511,99
1670483647.57972288,142477808,0,24.671768188476562,24.92230796813965,2.1614181995391846,31.16923713684082,0.7737482786178589,0.0,0.11591468751430511,99
1670483647.67973685,142577822,0,24.677034378051758,24.929601669311523,2.178910970687866,31.229774475097656,0.7752421498298645,0.0,0.11591468751430511,99
1670483647.77971983,142677805,0,24.63165283203125,24.871200561523438,2.066589593887329,31.287174224853516,0.7766560316085815,0.0,0.11591468751430511,99
1670483647.87973499,142777820,0,24.641611099243164,24.883970260620117,2.090833902359009,31.345266342163086,0.7780874967575073,0.0,0.11591468751430511,99
1670483647.97972488,142877810,0,24.658174514770508,24.92401123046875,2.2933804988861084,31.40896987915039,0.779658317565918,0.0,0.11591468751430511,99
1670483648.07966280,142977748,0,24.523279190063477,24.99534797668457,4.133486270904541,31.523727416992188,0.782472550868988,0.0,0.11420584470033646,99
1670483648.17975283,143077838,0,23.603023529052734,24.997617721557617,15.602229118347168,31.957504272460938,0.7927110195159912,0.0,0.08938434720039368,99
1670483648.27972078,143177806,0,22.922828674316406,24.971342086791992,23.03078269958496,32.59715270996094,0.807373583316803,0.0,0.08894671499729156,99
1670483648.37975287,143277838,0,22.121402740478516,24.99330711364746,34.1340217590332,33.54568862915039,0.8283565640449524,0.0,0.08413610607385635,99
1670483648.47978377,143377869,0,21.848264694213867,24.99262809753418,37.74303436279297,34.59452438354492,0.8512718081474304,0.0,0.08330974727869034,99
1670483648.57978797,143477873,0,22.559024810791016,24.852415084838867,27.492944717407227,35.35831069946289,0.8685020208358765,0.0,0.0834173783659935,99
1670483648.67984486,143577930,0,23.069787979125977,24.81890296936035,20.92153549194336,35.939849853515625,0.8819179534912109,0.0,0.08360353857278824,99
1670483648.77972484,143677810,0,23.177492141723633,24.79411506652832,19.283361434936523,36.47489929199219,0.8943190574645996,0.0,0.08383508771657944,99
1670483648.87978196,143777867,0,23.09496307373047,24.835681915283203,20.74200439453125,37.05143356323242,0.9076341390609741,0.0,0.08392240852117538,99
1670483648.97973490,143877820,0,22.92139434814453,24.834516525268555,22.7745304107666,37.68381881713867,0.9221292734146118,0.0,0.08400273323059082,99
1670483649.07974887,143977834,0,22.969772338867188,24.8415470123291,22.268878936767578,38.30253601074219,0.9363410472869873,0.0,0.0840533897280693,99
1670483649.17973495,144077820,0,22.969453811645508,24.815383911132812,21.930585861206055,38.91168212890625,0.9503328204154968,0.0,0.08417150378227234,99
1670483649.27976584,144177851,0,22.87907600402832,24.77242088317871,22.433883666992188,39.53508758544922,0.9645957946777344,0.0,0.08439668267965317,99
1670483649.37972689,144277812,0,22.82661247253418,24.786823272705078,23.18269157409668,40.17885208129883,0.9792907238006592,0.0,0.08455491065979004,99
1670483649.47973990,144377825,0,22.816272735595703,24.819683074951172,23.680465698242188,40.8367805480957,0.9943022131919861,0.0,0.08460181206464767,99
1670483649.57970786,144477793,0,22.83810043334961,24.824872970581055,23.47638511657715,41.488746643066406,1.009191870689392,0.0,0.08462854474782944,99
1670483649.67971778,144577803,0,22.824886322021484,24.814950942993164,23.500934600830078,42.141597747802734,1.0240930318832397,0.0,0.0846802219748497,99
1670483649.77972794,144677813,0,22.718427658081055,24.76398277282715,24.10213279724121,42.81129455566406,1.0393074750900269,0.0,0.08487028628587723,99
1670483649.87977195,144777857,0,22.705854415893555,24.78592300415039,24.478137969970703,43.4915885925293,1.0547541379928589,0.0,0.08497662097215652,99
1670483649.97975588,144877841,0,22.712011337280273,24.819538116455078,24.801530838012695,44.180389404296875,1.070398211479187,0.0,0.08497564494609833,99
1670483650.07977986,144977865,0,22.705310821533203,24.807748794555664,24.732173919677734,44.86769485473633,1.0860037803649902,0.0,0.08500820398330688,99
1670483650.17980886,145077894,0,22.671323776245117,24.77589988708496,24.722660064697266,45.554691314697266,1.1015788316726685,0.0,0.08512742072343826,99
1670483650.27973700,145177822,0,22.598085403442383,24.7447566986084,25.159669876098633,46.25312423706055,1.1173620223999023,0.0,0.08532191067934036,99
1670483650.37973690,145277822,0,22.537673950195312,24.801836013793945,26.533306121826172,46.99021911621094,1.1339744329452515,0.0,0.08533286303281784,99
1670483650.47975492,145377840,0,22.470273971557617,24.805152893066406,27.361906051635742,47.75046920776367,1.151057481765747,0.0,0.08533316850662231,99
1670483650.57972598,145477811,0,22.42489242553711,24.806568145751953,27.911542892456055,48.52562713623047,1.168440341949463,0.0,0.08532939106225967,99
1670483650.67974091,145577826,0,22.379131317138672,24.793725967407227,28.286252975463867,49.31153869628906,1.1860283613204956,0.0,0.08536279946565628,99
1670483650.77977490,145677860,0,22.228759765625,24.74410629272461,29.407114028930664,50.128746032714844,1.2041938304901123,0.0,0.08553533256053925,99
1670483650.87978482,145777870,0,22.203067779541016,24.747947692871094,29.702545166015625,50.953956604003906,1.2225160598754883,0.0,0.08567887544631958,99
1670483650.97972894,145877814,0,22.19474220275879,24.749526977539062,29.77497100830078,51.7806510925293,1.2408642768859863,0.0,0.0858030766248703,99
1670483651.07975984,145977845,0,22.169851303100586,24.79788589477539,30.6385555267334,52.63204574584961,1.2597395181655884,0.0,0.08577543497085571,99
1670483651.17973900,146077824,0,22.034475326538086,24.781599044799805,32.018638610839844,53.52133560180664,1.279334545135498,0.0,0.08579763770103455,99
1670483651.27979398,146177879,0,22.05467414855957,24.731197357177734,31.135713577270508,54.38650894165039,1.2984156608581543,0.0,0.08596313744783401,99
1670483651.37974477,146277830,0,22.07487678527832,24.762502670288086,31.24343490600586,55.25428771972656,1.317571759223938,0.0,0.08602208644151688,99
1670483651.47972393,146377809,0,22.080429077148438,24.75069808959961,31.01020050048828,56.115570068359375,1.3365892171859741,0.0,0.08610936999320984,99
1670483651.57973385,146477819,0,22.01175308227539,24.77504539489746,32.087276458740234,57.007041931152344,1.3562121391296387,0.0,0.08611803501844406,99
1670483651.67980099,146577886,0,21.962194442749023,24.761274337768555,32.48480224609375,57.91007614135742,1.376044750213623,0.0,0.08616581559181213,99
1670483651.77983379,146677919,0,22.01532745361328,24.72972869873047,31.453039169311523,58.78413009643555,1.395287275314331,0.0,0.08630014955997467,99
1670483651.87974286,146777828,0,22.078706741333008,24.69008445739746,30.25924301147461,59.623966217041016,1.4138298034667969,0.0,0.08630014955997467,99
1670483651.97974896,146877834,0,22.269128799438477,24.73272705078125,28.567670822143555,60.4176139831543,1.4315036535263062,0.0,0.08623730391263962,99
1670483652.07973385,146977819,0,22.395313262939453,24.704599380493164,26.81502914428711,61.16242980957031,1.4481840133666992,0.0,0.08611908555030823,99
1670483652.17972398,147077809,0,22.462615966796875,24.70401954650879,26.05486488342285,61.88616180419922,1.464440941810608,0.0,0.08602633327245712,99
1670483652.27973700,147177822,0,22.46385955810547,24.643413543701172,25.40149688720703,62.59189987182617,1.4802945852279663,0.0,0.08580415695905685,99
1670483652.37980580,147277891,0,22.480016708374023,24.610631942749023,24.904712677001953,63.284183502197266,1.4958571195602417,0.0,0.08555068075656891,99
1670483652.47973680,147377822,0,22.451221466064453,24.61846160888672,25.38523292541504,63.988956451416016,1.5116801261901855,0.0,0.08537406474351883,99
1670483652.57974291,147477828,0,22.438106536865234,24.65696144104004,26.00238800048828,64.71134185791016,1.5278890132904053,0.0,0.08533269912004471,99
1670483652.67978382,147577869,0,22.451221466064453,24.639123916625977,25.662660598754883,65.42455291748047,1.5439014434814453,0.0,0.08525629341602325,99
1670483652.77973580,147677821,0,22.504070281982422,24.626134872436523,24.917226791381836,66.11637115478516,1.5594701766967773,0.0,0.08516452461481094,99
1670483652.87981296,147777898,0,22.515653610229492,24.602394104003906,24.54006004333496,66.79866027832031,1.5748323202133179,0.0,0.08503405004739761,99
1670483652.97972584,147877811,0,22.43619155883789,24.554481506347656,24.97584342956543,67.49188232421875,1.5903856754302979,0.0,0.08481356501579285,99
1670483653.07972097,147977806,0,22.45802116394043,24.61546516418457,25.443540573120117,68.19867706298828,1.6062588691711426,0.0,0.08479338884353638,99
1670483653.17977977,148077865,0,22.460975646972656,24.61099624633789,25.364023208618164,68.90370178222656,1.6220945119857788,0.0,0.08476655930280685,99
1670483653.27977490,148177860,0,22.524749755859375,24.582202911376953,24.298540115356445,69.57868194580078,1.6372982263565063,0.0,0.0846739113330841,99
1670483653.37979198,148277877,0,22.64040184020996,24.573820114135742,22.858924865722656,70.2137680053711,1.6516767740249634,0.0,0.08458047360181808,99
1670483653.47973800,148377823,0,22.65428352355957,24.534076690673828,22.27031135559082,70.83213806152344,1.6656855344772339,0.0,0.08440804481506348,99
1670483653.57975578,148477841,0,22.716224670410156,24.572778701782227,22.004850387573242,71.44355010986328,1.6795744895935059,0.0,0.0843701884150505,99
1670483653.67971897,148577804,0,22.74657440185547,24.566768646240234,21.585336685180664,72.04296875,1.693209171295166,0.0,0.08432549238204956,99
1670483653.77973890,148677824,0,22.7572021484375,24.493366241455078,20.6425724029541,72.61653137207031,1.7062618732452393,0.0,0.08410602807998657,99
1670483653.87974787,148777833,0,22.762178421020508,24.49541473388672,20.648710250854492,73.19020080566406,1.7193199396133423,0.0,0.08393921703100204,99
1670483653.97977185,148877857,0,22.765914916992188,24.547529220581055,21.225048065185547,73.77997589111328,1.7327467203140259,0.0,0.08393923938274384,99
1670483654.07974100,148977826,0,22.799144744873047,24.5621280670166,20.993925094604492,74.36300659179688,1.7460392713546753,0.0,0.0839758962392807,99
1670483654.17973900,149077824,0,22.815601348876953,24.535980224609375,20.495573043823242,74.93236541748047,1.759029507637024,0.0,0.08393903821706772,99
1670483654.27974391,149177829,0,22.808900833129883,24.516864776611328,20.36637306213379,75.4981689453125,1.7719347476959229,0.0,0.08386197686195374,99
1670483654.37980986,149277895,0,22.715364456176758,24.490449905395508,21.166738510131836,76.0865707397461,1.7853004932403564,0.0,0.08386197686195374,99
1670483654.47981787,149377903,0,22.765338897705078,24.52643394470215,21.003780364990234,76.67010498046875,1.7985848188400269,0.0,0.0838465690612793,99
1670483654.57975698,149477842,0,22.790231704711914,24.536386489868164,20.822410583496094,77.2480239868164,1.8117557764053345,0.0,0.0838594064116478,99
1670483654.67978096,149577866,0,22.7531795501709,24.491437911987305,20.7536678314209,77.82482147216797,1.824879765510559,0.0,0.08375664055347443,99
1670483654.77978992,149677875,0,22.725608825683594,24.4989013671875,21.171955108642578,78.41309356689453,1.8382484912872314,0.0,0.08375664055347443,99
1670483654.87979889,149777884,0,22.633411407470703,24.518817901611328,22.50995635986328,79.0384750366211,1.8524030447006226,0.0,0.08375876396894455,99
1670483654.97973990,149877825,0,22.636669158935547,24.55106544494629,22.880407333374023,79.67372131347656,1.866782784461975,0.0,0.08366969227790833,99
1670483655.07973599,149977821,0,22.714120864868164,24.50433349609375,21.408260345458984,80.26841735839844,1.8802908658981323,0.0,0.08362250030040741,99
1670483655.17972589,150077811,0,22.783720016479492,24.530948638916016,20.886856079101562,80.84859466552734,1.8935095071792603,0.0,0.0836520865559578,99
1670483655.27974296,150177828,0,22.709333419799805,24.50346565246582,21.44754409790039,81.44451141357422,1.9070422649383545,0.0,0.0836520865559578,99
1670483655.37976694,150277852,0,22.649019241333008,24.477968215942383,21.83391571044922,82.05120086669922,1.9207830429077148,0.0,0.08376643806695938,99
1670483655.47975993,150377845,0,22.69841766357422,24.505027770996094,21.567230224609375,82.65029907226562,1.9343817234039307,0.0,0.08376643806695938,99
1670483655.57977891,150477864,0,22.791378021240234,24.52602195739746,20.69965362548828,83.2254409790039,1.9474900960922241,0.0,0.08380058407783508,99
1670483655.67973781,150577823,0,22.80754852294922,24.513887405395508,20.36275863647461,83.79087829589844,1.9603863954544067,0.0,0.08379701524972916,99
1670483655.77972484,150677810,0,22.75662612915039,24.48877716064453,20.687070846557617,84.36549377441406,1.9734625816345215,0.0,0.08373112976551056,98
1670483655.87974000,150777825,0,22.74734115600586,24.46477508544922,20.53884506225586,84.93614959716797,1.9864434003829956,0.0,0.08361881971359253,98
1670483655.97981381,150877899,0,22.777496337890625,24.499252319335938,20.591014862060547,85.50857543945312,1.9994817972183228,0.0,0.08361683040857315,98
1670483656.07973385,150977819,0,22.84068489074707,24.505821228027344,19.910335540771484,86.0612564086914,2.0121054649353027,0.0,0.08363179117441177,98
1670483656.17976499,151077850,0,22.823740005493164,24.469253540039062,19.69459342956543,86.6085433959961,2.0245964527130127,0.0,0.08355152606964111,98
1670483656.27981496,151177900,0,22.791284561157227,24.483362197875977,20.25865364074707,87.17161560058594,2.0374295711517334,0.0,0.0835237056016922,98
1670483656.37977695,151277862,0,22.81464385986328,24.488306045532227,20.040456771850586,87.72811889648438,2.050126075744629,0.0,0.08351414650678635,98
1670483656.47977686,151377862,0,22.827856063842773,24.505083084106445,20.074827194213867,88.2856674194336,2.0628535747528076,0.0,0.08354879915714264,98
1670483656.57973886,151477824,0,22.833824157714844,24.517425537109375,20.13702392578125,88.84500122070312,2.075625419616699,0.0,0.08360721915960312,98
1670483656.67974591,151577831,0,22.80880355834961,24.500165939331055,20.22919273376465,89.4070053100586,2.0884439945220947,0.0,0.08360999077558517,98
1670483656.77972579,151677811,0,22.800378799438477,24.473344802856445,20.024805068969727,89.96318817138672,2.1011252403259277,0.0,0.08354470133781433,98
1670483656.87974191,151777827,0,22.81435775756836,24.459518432617188,19.712390899658203,90.51087951660156,2.1136205196380615,0.0,0.08345822244882584,98
1670483656.97970200,151877787,0,22.81703758239746,24.45957374572754,19.697046279907227,91.05785369873047,2.126100778579712,0.0,0.08338997513055801,98
1670483657.07978392,151977869,0,22.877159118652344,24.484416961669922,19.27200698852539,91.5936050415039,2.138357162475586,0.0,0.08339855819940567,98
1670483657.17982697,152077912,0,22.88242530822754,24.471721649169922,19.062400817871094,92.12345123291016,2.1504812240600586,0.0,0.08337332308292389,98
1670483657.27973890,152177824,0,22.885202407836914,24.466983795166016,18.979541778564453,92.65023803710938,2.162536859512329,0.0,0.08334140479564667,98
1670483657.37977982,152277865,0,22.841800689697266,24.426513671875,19.043819427490234,93.17948913574219,2.174625873565674,0.0,0.08321405947208405,98
1670483657.47977996,152377865,0,22.939294815063477,24.456151962280273,18.234107971191406,93.68603515625,2.1862456798553467,0.0,0.08318790793418884,98
1670483657.57984185,152477927,0,22.94599723815918,24.48369598388672,18.47378921508789,94.19955444335938,2.198028802871704,0.0,0.08323676884174347,98
1670483657.67977381,152577859,0,22.748008728027344,24.503318786621094,21.113033294677734,94.78567504882812,2.211361885070801,0.0,0.08313866704702377,98
1670483657.77973080,152677816,0,22.698898315429688,24.467958450317383,21.275070190429688,95.3764419555664,2.224771738052368,0.0,0.08315175026655197,98
1670483657.87978888,152777874,0,22.70990562438965,24.455589294433594,20.982297897338867,95.95967102050781,2.2380168437957764,0.0,0.0831979513168335,98
1670483657.97979283,152877878,0,22.682907104492188,24.431236267089844,20.986595153808594,96.5427017211914,2.251241683959961,0.0,0.08330691605806351,98
1670483658.07978582,152977871,0,22.71900177001953,24.49657440185547,21.360078811645508,97.13603973388672,2.2647218704223633,0.0,0.08321942389011383,98
1670483658.17978191,153077867,0,22.72704315185547,24.488933563232422,21.18576431274414,97.72455596923828,2.278097152709961,0.0,0.08316386491060257,98
1670483658.27974582,153177831,0,22.663835525512695,24.420421600341797,21.085651397705078,98.31009674072266,2.291367769241333,0.0,0.08330719918012619,98
1670483658.37974000,153277825,0,22.667207717895508,24.42523193359375,21.074365615844727,98.89551544189453,2.3046374320983887,0.0,0.08342001587152481,98
1670483658.47974277,153377828,0,22.72388458251953,24.482437133789062,21.096155166625977,99.48158264160156,2.317955255508423,0.0,0.08335893601179123,98
1670483658.57980394,153477889,0,22.733362197875977,24.474451065063477,20.894527435302734,100.0623779296875,2.3311586380004883,0.0,0.0833275094628334,98
1670483658.67978883,153577874,0,22.66826057434082,24.482006072998047,21.77928924560547,100.66732025146484,2.344871759414673,0.0,0.08327848464250565,98
1670483658.77975678,153677842,0,22.55768394470215,24.45798683166504,22.811969757080078,101.30083465576172,2.3591623306274414,0.0,0.08330285549163818,98
1670483658.87975287,153777838,0,22.690567016601562,24.475753784179688,21.437416076660156,101.8963394165039,2.3726747035980225,0.0,0.08327437192201614,98
1670483658.97981095,153877896,0,22.732406616210938,24.453229904174805,20.672954559326172,102.4709701538086,2.385737419128418,0.0,0.08324027806520462,98
1670483659.07981181,153977897,0,22.535972595214844,24.43634605407715,22.80866241455078,103.10459899902344,2.400017023086548,0.0,0.0833180770277977,98
1670483659.17982793,154077913,0,22.47209358215332,24.401412963867188,23.109651565551758,103.74668884277344,2.4144461154937744,0.0,0.0834854394197464,98
1670483659.27976894,154177854,0,22.41819190979004,24.400602340698242,23.702869415283203,104.40476989746094,2.429198980331421,0.0,0.08363588899374008,98
1670483659.37975287,154277838,0,22.496889114379883,24.467721939086914,23.580421447753906,105.05973052978516,2.4439334869384766,0.0,0.08357924222946167,98
1670483659.47979283,154377878,0,22.52044105529785,24.46968650817871,23.337671279907227,105.70829010009766,2.4585392475128174,0.0,0.08352357894182205,98
1670483659.57978892,154477874,0,22.5618953704834,24.49419593811035,23.167654037475586,106.3517837524414,2.473057746887207,0.0,0.08340511471033096,98
1670483659.67976880,154577854,0,22.552610397338867,24.47882843017578,23.111799240112305,106.9937973022461,2.487536907196045,0.0,0.0833435207605362,98
1670483659.77974987,154677835,0,22.51632308959961,24.39837074279785,22.581802368164062,107.62091827392578,2.501657485961914,0.0,0.0833435207605362,98
1670483659.87981081,154777896,0,22.575679779052734,24.41222381591797,22.06039810180664,108.23420715332031,2.5155029296875,0.0,0.08325071632862091,98
1670483659.97973990,154877825,0,22.570011138916016,24.45093536376953,22.5935001373291,108.86141204833984,2.529658794403076,0.0,0.08325071632862091,98
1670483660.07975388,154977839,0,22.579130172729492,24.463449478149414,22.634281158447266,109.49028015136719,2.543858051300049,0.0,0.08325071632862091,98
1670483660.17979193,155077877,0,22.569936752319336,24.440622329711914,22.47439193725586,110.11485290527344,2.557954788208008,0.0,0.08323632925748825,98
1670483660.27979279,155177878,0,22.527143478393555,24.397268295288086,22.467641830444336,110.739013671875,2.5720152854919434,0.0,0.08323632925748825,98
1670483660.37975979,155277845,0,22.55136489868164,24.429319381713867,22.55571746826172,111.36540222167969,2.5861411094665527,0.0,0.08325845003128052,98
1670483660.47977185,155377857,0,22.564289093017578,24.44525909423828,22.591930389404297,111.99308776855469,2.600304365158081,0.0,0.08325845003128052,98
1670483660.57976580,155477851,0,22.589277267456055,24.45590591430664,22.407489776611328,112.61553192138672,2.6143648624420166,0.0,0.0833037942647934,98
1670483660.67980981,155577895,0,22.573575973510742,24.443153381347656,22.441862106323242,113.23924255371094,2.628444194793701,0.0,0.08330755680799484,98
1670483660.77978396,155677869,0,22.561182022094727,24.4163761138916,22.26922035217285,113.85771179199219,2.64239764213562,0.0,0.08330755680799484,98
1670483660.87973595,155777821,0,22.512495040893555,24.389907836914062,22.499557495117188,114.48245239257812,2.6564621925354004,0.0,0.08344222605228424,98
1670483660.97978997,155877875,0,22.520057678222656,24.42471694946289,22.820255279541016,115.11674499511719,2.670746326446533,0.0,0.08346350491046906,98
1670483661.07979894,155977884,0,22.54485321044922,24.45654296875,22.92398452758789,115.75362396240234,2.6851046085357666,0.0,0.08339259028434753,98
1670483661.17980480,156077890,0,22.56773567199707,24.456239700317383,22.64594268798828,116.38276672363281,2.699302911758423,0.0,0.08339259028434753,98
1670483661.27983379,156177919,0,22.52034568786621,24.38806915283203,22.39674949645996,117.00476837158203,2.713310480117798,0.0,0.08339259028434753,98
1670483661.37976599,156277851,0,22.56687355041504,24.401517868041992,22.01866340637207,117.61630249023438,2.7271108627319336,0.0,0.08332224935293198,98
1670483661.47976685,156377852,0,22.594350814819336,24.426467895507812,21.986438751220703,118.22718048095703,2.740913152694702,0.0,0.08332940191030502,98
1670483661.57974577,156477831,0,22.600221633911133,24.424400329589844,21.89106559753418,118.83518981933594,2.7546541690826416,0.0,0.08332984894514084,98
1670483661.67978883,156577874,0,22.648347854614258,24.42499542236328,21.32018280029297,119.42771911621094,2.7680740356445312,0.0,0.08333168923854828,98
1670483661.77977300,156677858,0,22.67151641845703,24.411422729492188,20.88747215270996,120.00787353515625,2.7812271118164062,0.0,0.08329907059669495,98
1670483661.87983179,156777917,0,22.630634307861328,24.362567901611328,20.828853607177734,120.58684539794922,2.7943296432495117,0.0,0.083150714635849,98
1670483661.97974086,156877826,0,22.66002655029297,24.376543045043945,20.663747787475586,121.16036224365234,2.807325601577759,0.0,0.08306894451379776,98
1670483662.07976699,156977852,0,22.736618041992188,24.43025016784668,20.3709774017334,121.72640991210938,2.8201956748962402,0.0,0.08313949406147003,98
1670483662.17981982,157077905,0,22.720439910888672,24.424455642700195,20.48575210571289,122.29580688476562,2.83313250541687,0.0,0.0831805095076561,98
1670483662.27975082,157177836,0,22.627477645874023,24.4294490814209,21.676481246948242,122.89756774902344,2.8467488288879395,0.0,0.08313029259443283,98
1670483662.37980795,157277893,0,22.566394805908203,24.409191131591797,22.164196014404297,123.51358032226562,2.860650062561035,0.0,0.08314291387796402,98
1670483662.47973895,157377824,0,22.551172256469727,24.366050720214844,21.793712615966797,124.11864471435547,2.8742949962615967,0.0,0.08327535539865494,98
1670483662.57982683,157477912,0,22.63475227355957,24.419443130493164,21.42360496520996,124.71432495117188,2.8877780437469482,0.0,0.08330487459897995,98
1670483662.67979789,157577883,0,22.63465690612793,24.409358978271484,21.30422592163086,125.30598449707031,2.901170015335083,0.0,0.08330286294221878,98
1670483662.77976394,157677849,0,22.561798095703125,24.353628158569336,21.469024658203125,125.90219116210938,2.914621591567993,0.0,0.0834612101316452,98
1670483662.87977791,157777863,0,22.584489822387695,24.369430541992188,21.386470794677734,126.4962387084961,2.9280378818511963,0.0,0.0834612101316452,98
1670483662.97975779,157877843,0,22.603065490722656,24.410680770874023,21.66758155822754,127.09819793701172,2.9416439533233643,0.0,0.08342491090297699,98
1670483663.07973981,157977825,0,22.64307975769043,24.428504943847656,21.382789611816406,127.69210815429688,2.955091953277588,0.0,0.08349820971488953,98
1670483663.17974997,158077835,0,22.63973045349121,24.398900985717773,21.07252311706543,128.2775421142578,2.968345880508423,0.0,0.08348175883293152,98
1670483663.27971482,158177800,0,22.602243423461914,24.358810424804688,21.041324615478516,128.8618927001953,2.981553316116333,0.0,0.08348175883293152,98
1670483663.37990689,158277992,0,22.65428352355957,24.38716697692871,20.763486862182617,129.43980407714844,2.994645595550537,0.0,0.08345824480056763,98
1670483663.47977185,158377857,0,22.659549713134766,24.440176010131836,21.335527420043945,130.03170776367188,3.0080578327178955,0.0,0.08345824480056763,98
1670483663.57974982,158477835,0,22.63733673095703,24.413991928100586,21.287960052490234,130.62295532226562,3.021442174911499,0.0,0.08345824480056763,98
1670483663.67977285,158577858,0,22.635231018066406,24.43416976928711,21.554954528808594,131.2218475341797,3.0349981784820557,0.0,0.08345824480056763,98
1670483663.77981782,158677903,0,22.582191467285156,24.38664436340332,21.60466957092285,131.8223419189453,3.048558473587036,0.0,0.08352145552635193,98
1670483663.87974977,158777835,0,22.558067321777344,24.374473571777344,21.724355697631836,132.42543029785156,3.0621631145477295,0.0,0.08361152559518814,98
1670483663.97972178,158877807,0,22.567163467407227,24.384166717529297,21.717910766601562,133.02859497070312,3.075774669647217,0.0,0.08366383612155914,98
1670483664.07977486,158977860,0,22.57836151123047,24.425453186035156,22.095998764038086,133.6427459716797,3.0896413326263428,0.0,0.08359391987323761,98
1670483664.17981791,159077903,0,22.57564926147461,24.429067611694336,22.190792083740234,134.2594757080078,3.1035642623901367,0.0,0.08352194726467133,98
1670483664.27979088,159177876,0,22.519866943359375,24.36912727355957,22.11318588256836,134.8736114501953,3.1173946857452393,0.0,0.08362703770399094,98
1670483664.37983084,159277916,0,22.502920150756836,24.36722755432129,22.266937255859375,135.492431640625,3.131319999694824,0.0,0.08372534811496735,98
1670483664.47977400,159377859,0,22.5393009185791,24.399681091308594,22.221208572387695,136.109375,3.1452255249023438,0.0,0.08372091501951218,98
1670483664.57975888,159477844,0,22.5588321685791,24.419164657592773,22.236248016357422,136.7270050048828,3.159158706665039,0.0,0.08366214483976364,98
1670483664.67974496,159577830,0,22.580564498901367,24.40101432800293,21.759340286254883,137.33139038085938,3.1728062629699707,0.0,0.08366294205188751,98
1670483664.77975488,159677840,0,22.53997230529785,24.35544204711914,21.699804306030273,137.93426513671875,3.1863951683044434,0.0,0.08366294205188751,98
1670483664.87977982,159777865,0,22.5548095703125,24.380754470825195,21.825016021728516,138.54071044921875,3.200073480606079,0.0,0.08366294205188751,98
1670483664.97978282,159877868,0,22.589902877807617,24.39577865600586,21.582130432128906,139.14027404785156,3.2136175632476807,0.0,0.08367457240819931,98
1670483665.07976294,159977848,0,22.598278045654297,24.412132263183594,21.664512634277344,139.7419891357422,3.22721529006958,0.0,0.08372471481561661,98
1670483665.17975283,160077838,0,22.57731056213379,24.413236618041992,21.928129196166992,140.35110473632812,3.240967273712158,0.0,0.08372471481561661,98
1670483665.27981687,160177902,0,22.547534942626953,24.36493682861328,21.706863403320312,140.9545135498047,3.254572629928589,0.0,0.08372471481561661,98
1670483665.37981391,160277899,0,22.535951614379883,24.349138259887695,21.65653419494629,141.5561065673828,3.26813006401062,0.0,0.08372471481561661,98
1670483665.47974896,160377834,0,22.57280921936035,24.395204544067383,21.760570526123047,142.16021728515625,3.281766653060913,0.0,0.08374755084514618,98
1670483665.57974195,160477827,0,22.580659866333008,24.418397903442383,21.943782806396484,142.769775390625,3.2955310344696045,0.0,0.08374755084514618,98
1670483665.67981195,160577897,0,22.58573341369629,24.411197662353516,21.78542709350586,143.3751983642578,3.3092048168182373,0.0,0.08379292488098145,98
1670483665.77979589,160677881,0,22.526506423950195,24.335308074951172,21.586563110351562,143.9749755859375,3.3227157592773438,0.0,0.08379292488098145,98
1670483665.87974095,160777826,0,22.50301742553711,24.370025634765625,22.268775939941406,144.59326171875,3.3366291522979736,0.0,0.08383975178003311,98
1670483665.97976589,160877851,0,22.5450439453125,24.40153694152832,22.155841827392578,145.2089080810547,3.35050892829895,0.0,0.08379246294498444,98
1670483666.07976484,160977850,0,22.557010650634766,24.408565521240234,22.0969181060791,145.82275390625,3.3643555641174316,0.0,0.08379246294498444,98
1670483666.17977595,161077861,0,22.531356811523438,24.373632431030273,21.973857879638672,146.4331817626953,3.3781092166900635,0.0,0.08383942395448685,98
1670483666.27975583,161177841,0,22.487411499023438,24.338882446289062,22.04689598083496,147.0456085205078,3.391880989074707,0.0,0.08397876471281052,98
1670483666.37979484,161277880,0,22.539398193359375,24.375011444091797,21.863069534301758,147.65309143066406,3.4055733680725098,0.0,0.08395951241254807,98
1670483666.47978497,161377870,0,22.552322387695312,24.410634994506836,22.133438110351562,148.26800537109375,3.4194412231445312,0.0,0.08395951241254807,98
1670483666.57975483,161477840,0,22.553470611572266,24.391660690307617,21.89007568359375,148.8759307861328,3.433151960372925,0.0,0.0839737057685852,98
1670483666.67976189,161577847,0,22.59224510192871,24.39960479736328,21.514955520629883,149.47366333007812,3.4466559886932373,0.0,0.08400479704141617,98
1670483666.77975988,161677845,0,22.568883895874023,24.357454299926758,21.31189727783203,150.06568908691406,3.460017442703247,0.0,0.0839235857129097,98
1670483666.87979293,161777878,0,22.548301696777344,24.327627182006836,21.201725006103516,150.6548614501953,3.4733023643493652,0.0,0.0839235857129097,98
1670483666.97974277,161877828,0,22.621349334716797,24.353116989135742,20.647790908813477,151.22816467285156,3.486271381378174,0.0,0.08387178182601929,98
1670483667.07982492,161977910,0,22.65093421936035,24.386337280273438,20.680625915527344,151.8031005859375,3.4992942810058594,0.0,0.08391440659761429,98
1670483667.17974997,162077835,0,22.637432098388672,24.37915802001953,20.752132415771484,152.3791961669922,3.512335777282715,0.0,0.08392997086048126,98
1670483667.27982688,162177912,0,22.584396362304688,24.314043045043945,20.60820198059082,152.95213317871094,3.5252749919891357,0.0,0.08392997086048126,98
1670483667.37979293,162277878,0,22.600862503051758,24.364469528198242,21.012680053710938,153.53567504882812,3.538463592529297,0.0,0.08393056690692902,98
1670483667.47974896,162377834,0,22.60234832763672,24.3768367767334,21.13441276550293,154.12252807617188,3.5517280101776123,0.0,0.08396206051111221,98
1670483667.57975888,162477844,0,22.65428352355957,24.398990631103516,20.759803771972656,154.6992950439453,3.5647943019866943,0.0,0.08404257148504257,98
1670483667.67974782,162577833,0,22.628145217895508,24.37103843688965,20.739856719970703,155.275390625,3.5778300762176514,0.0,0.08403590321540833,98
1670483667.77975082,162677836,0,22.58085060119629,24.326271057128906,20.76993179321289,155.85238647460938,3.5908591747283936,0.0,0.08403590321540833,98
1670483667.87974882,162777834,0,22.62259292602539,24.366365432739258,20.749675750732422,156.42880249023438,3.6038992404937744,0.0,0.08403851091861725,98
1670483667.97979593,162877881,0,22.625274658203125,24.395301818847656,21.062089920043945,157.01419067382812,3.6171438694000244,0.0,0.08403851091861725,98
1670483668.07978582,162977871,0,22.571086883544922,24.39166259765625,21.678936004638672,157.61610412597656,3.6307296752929688,0.0,0.083979032933712,98
1670483668.17977285,163077858,0,22.57175636291504,24.400541305541992,21.796781539916992,158.2218017578125,3.6444013118743896,0.0,0.08390157669782639,98
1670483668.27975392,163177839,0,22.57271385192871,24.341299057006836,21.07927703857422,158.80728149414062,3.6576170921325684,0.0,0.08390157669782639,98
1670483668.37976885,163277854,0,22.4827823638916,24.334331512451172,22.041439056396484,159.419677734375,3.6713855266571045,0.0,0.08400307595729828,98
1670483668.47981095,163377896,0,22.495933532714844,24.384132385253906,22.491270065307617,160.0447540283203,3.6854469776153564,0.0,0.08395250886678696,98
1670483668.57973480,163477820,0,22.514122009277344,24.39997673034668,22.487281799316406,160.66897583007812,3.6995010375976562,0.0,0.08386319875717163,98
1670483668.67977881,163577864,0,22.494400024414062,24.393836975097656,22.665891647338867,161.2989044189453,3.7136709690093994,0.0,0.08380153775215149,98
1670483668.77978182,163677867,0,22.422405242919922,24.32234001159668,22.63213348388672,161.92764282226562,3.727768898010254,0.0,0.0839485377073288,98
1670483668.87983298,163777918,0,22.43389320373535,24.362817764282227,22.973085403442383,162.56614685058594,3.742093086242676,0.0,0.0839645117521286,98
1670483668.97975278,163877838,0,22.453998565673828,24.36448097229004,22.750898361206055,163.19766235351562,3.7562732696533203,0.0,0.0839739516377449,98
1670483669.07977295,163977858,0,22.502635955810547,24.396162033081055,22.548967361450195,163.82411193847656,3.7703702449798584,0.0,0.0839739516377449,98
1670483669.17973590,164077821,0,22.503952026367188,24.34821128845215,21.978015899658203,164.43450927734375,3.784106731414795,0.0,0.08391380310058594,98
1670483669.27973390,164177819,0,22.551843643188477,24.31184959411621,21.008691787719727,165.0181121826172,3.7972681522369385,0.0,0.0837751030921936,98
1670483669.37973499,164277820,0,22.617233276367188,24.361330032348633,20.815044403076172,165.5963592529297,3.8103466033935547,0.0,0.08379016816616058,98
1670483669.47973585,164377821,0,22.614072799682617,24.38924217224121,21.165205001831055,166.18434143066406,3.823643207550049,0.0,0.08387204259634018,98
1670483669.57977200,164477857,0,22.61254119873047,24.373132705688477,20.985368728637695,166.7675323486328,3.8368303775787354,0.0,0.08389612287282944,98
1670483669.67979598,164577881,0,22.623931884765625,24.37763786315918,20.895755767822266,167.34815979003906,3.849966287612915,0.0,0.08392640948295593,98
1670483669.77976894,164677854,0,22.570894241333008,24.338947296142578,21.085107803344727,167.93374633789062,3.8631834983825684,0.0,0.08385317772626877,98
1670483669.87977386,164777859,0,22.514698028564453,24.302824020385742,21.324480056762695,168.5261688232422,3.876521587371826,0.0,0.08385317772626877,97
1670483669.97981095,164877896,0,22.539588928222656,24.361785888671875,21.737857818603516,169.13027954101562,3.8901379108428955,0.0,0.08382595330476761,97
1670483670.07973385,164977819,0,22.498741149902344,24.388370513916016,22.56894874572754,169.7567596435547,3.904232978820801,0.0,0.08372693508863449,97
1670483670.17984486,165077930,0,22.50550651550293,24.387514114379883,22.500783920288086,170.3825225830078,3.918316125869751,0.0,0.08364185690879822,97
1670483670.27971888,165177804,0,22.519962310791016,24.386903762817383,22.340282440185547,171.00234985351562,3.932274580001831,0.0,0.08356839418411255,97
1670483670.37978387,165277869,0,22.47132682800293,24.305448532104492,21.90450096130371,171.6112518310547,3.9459571838378906,0.0,0.08373261243104935,97
1670483670.47978997,165377875,0,22.47802734375,24.332805633544922,22.133132934570312,172.2261505126953,3.9597790241241455,0.0,0.08380097150802612,97
1670483670.57974482,165477830,0,22.48827362060547,24.37578773498535,22.540067672729492,172.85202026367188,3.973853826522827,0.0,0.08374040573835373,97
1670483670.67980099,165577886,0,22.47132682800293,24.343801498413086,22.350717544555664,173.47328186035156,3.98781418800354,0.0,0.08377692848443985,97
1670483670.77973294,165677818,0,22.459936141967773,24.315574645996094,22.120241165161133,174.08737182617188,4.001606464385986,0.0,0.08388867974281311,97
1670483670.87975287,165777838,0,22.523313522338867,24.361398696899414,21.904022216796875,174.69598388671875,4.01531457901001,0.0,0.08391541987657547,97
1670483670.97974277,165877828,0,22.548778533935547,24.38306427001953,21.83913230895996,175.3026123046875,4.028993129730225,0.0,0.08399073779582977,97
1670483671.07974982,165977835,0,22.535184860229492,24.36819839477539,21.81826400756836,175.9087677001953,4.0426530838012695,0.0,0.08401279896497726,97
1670483671.17978477,166077870,0,22.514507293701172,24.372478485107422,22.115331649780273,176.5233154296875,4.056488990783691,0.0,0.08401279896497726,97
1670483671.27973080,166177816,0,22.485305786132812,24.314117431640625,21.76824188232422,177.12774658203125,4.070079803466797,0.0,0.08401279896497726,97
1670483671.37974691,166277832,0,22.484729766845703,24.317768096923828,21.818571090698242,177.7339630126953,4.083710193634033,0.0,0.08401279896497726,97
1670483671.47973585,166377821,0,22.532981872558594,24.356706619262695,21.702566146850586,178.33680725097656,4.097293853759766,0.0,0.08403269946575165,97
1670483671.57981396,166477899,0,22.542747497558594,24.376127243041992,21.800771713256836,178.94290161132812,4.110957145690918,0.0,0.0840970054268837,97
1670483671.67974591,166577831,0,22.543418884277344,24.363466262817383,21.637371063232422,179.5435791015625,4.12449836730957,0.0,0.08411595225334167,97
1670483671.77979183,166677877,0,22.51373863220215,24.313894271850586,21.400894165039062,180.13836669921875,4.137889385223389,0.0,0.08411595225334167,97
1670483671.87975192,166777837,0,22.496410369873047,24.316030502319336,21.632287979125977,180.73907470703125,4.151403427124023,0.0,0.08411595225334167,97
1670483671.97978687,166877872,0,22.501388549804688,24.357141494750977,22.07114028930664,181.35243225097656,4.1652045249938965,0.0,0.08408050239086151,97
1670483672.07979894,166977884,0,22.464244842529297,24.37466812133789,22.743227005004883,181.98431396484375,4.179399490356445,0.0,0.08399968594312668,97
1670483672.17975879,167077844,0,22.4327449798584,24.331443786621094,22.590087890625,182.61160278320312,4.193471431732178,0.0,0.08405004441738129,97
1670483672.27973890,167177824,0,22.428342819213867,24.307268142700195,22.32493782043457,183.23167419433594,4.207378387451172,0.0,0.0841626524925232,97
1670483672.37975883,167277844,0,22.456871032714844,24.360124588012695,22.62722396850586,183.86038208007812,4.221497058868408,0.0,0.08411343395709991,97
1670483672.47976494,167377850,0,22.487146377563477,24.38225746154785,22.53041648864746,184.48631286621094,4.235572338104248,0.0,0.08411343395709991,97
1670483672.57974482,167477830,0,22.512971878051758,24.36266326904297,21.982757568359375,185.0968780517578,4.249317646026611,0.0,0.08414280414581299,97
1670483672.67979479,167577880,0,22.54791831970215,24.369672775268555,21.640268325805664,185.69833374023438,4.262879371643066,0.0,0.08418349921703339,97
1670483672.77977490,167677860,0,22.494400024414062,24.331008911132812,21.816728591918945,186.30429077148438,4.276509761810303,0.0,0.08418349921703339,97
1670483672.87974596,167777831,0,22.480998992919922,24.295570373535156,21.554954528808594,186.9029083251953,4.289967060089111,0.0,0.08418349921703339,97
1670483672.97974896,167877834,0,22.4820499420166,24.345457077026367,22.13681411743164,187.51788330078125,4.303792953491211,0.0,0.08417680114507675,97
1670483673.07981491,167977900,0,22.46079444885254,24.369396209716797,22.693511962890625,188.1487274169922,4.317962169647217,0.0,0.08410338312387466,97
1670483673.17977381,168077859,0,22.42326545715332,24.36602020263672,23.114870071411133,188.7904815673828,4.332352161407471,0.0,0.08404785394668579,97
1670483673.27974486,168177830,0,22.414173126220703,24.30643653869629,22.482336044311523,189.4149627685547,4.346349239349365,0.0,0.08416665345430374,97
1670483673.37977481,168277860,0,22.451221466064453,24.346323013305664,22.51797103881836,190.04071044921875,4.360397815704346,0.0,0.0841594934463501,97
1670483673.47976494,168377850,0,22.444807052612305,24.362533569335938,22.800922393798828,190.67405700683594,4.374613285064697,0.0,0.08410743623971939,97
1670483673.57980895,168477894,0,22.443851470947266,24.367143630981445,22.883167266845703,191.31002807617188,4.38888692855835,0.0,0.0840483084321022,97
1670483673.67976379,168577849,0,22.422597885131836,24.337738037109375,22.77790641784668,191.94252014160156,4.403069019317627,0.0,0.084078848361969,97
1670483673.77975297,168677838,0,22.354623794555664,24.30596351623535,23.176246643066406,192.58628845214844,4.417459964752197,0.0,0.08419564366340637,97
1670483673.87984085,168777926,0,22.398279190063477,24.349504470825195,23.18023681640625,193.2307891845703,4.431895732879639,0.0,0.08417626470327377,97
1670483673.97972178,168877807,0,22.430158615112305,24.35149574279785,22.825166702270508,193.86412048339844,4.446101665496826,0.0,0.08417626470327377,97
1670483674.07975483,168977840,0,22.435619354248047,24.35161018371582,22.761640548706055,194.49664306640625,4.460292816162109,0.0,0.08417626470327377,97
1670483674.17975283,169077838,0,22.429702758789062,24.35886001586914,22.928009033203125,195.13357543945312,4.474578857421875,0.0,0.08413972705602646,97
1670483674.27979279,169177878,0,22.40268325805664,24.301057815551758,22.562162399291992,195.76058959960938,4.488626003265381,0.0,0.08413972705602646,97
1670483674.37976098,169277846,0,22.42154312133789,24.305017471313477,22.385087966918945,196.3822479248047,4.502564907073975,0.0,0.08413972705602646,97
1670483674.47977090,169377856,0,22.4163761138916,24.339366912841797,22.858924865722656,197.017333984375,4.516801357269287,0.0,0.08412425965070724,97
1670483674.57973981,169477825,0,22.40660858154297,24.360645294189453,23.248367309570312,197.6629638671875,4.5312676429748535,0.0,0.08405045419931412,97
1670483674.67978883,169577874,0,22.38219451904297,24.33306312561035,23.207242965698242,198.3079833984375,4.545704364776611,0.0,0.08406288176774979,97
1670483674.77974582,169677831,0,22.336528778076172,24.291099548339844,23.21552848815918,198.95262145996094,4.560103416442871,0.0,0.08419238030910492,97
1670483674.87973690,169777822,0,22.345813751220703,24.310688018798828,23.3214054107666,199.60043334960938,4.574579238891602,0.0,0.08425197750329971,97
1670483674.97974491,169877830,0,22.39768409729004,24.342687606811523,23.08554458618164,200.24180603027344,4.588944435119629,0.0,0.08425197750329971,97
1670483675.07979679,169977882,0,22.429584503173828,24.36333465576172,22.930429458618164,200.879150390625,4.6032395362854,0.0,0.08433117717504501,97
1670483675.17982697,170077912,0,22.423458099365234,24.31892204284668,22.489431381225586,201.50408935546875,4.617252826690674,0.0,0.08428239077329636,97
1670483675.27975297,170177838,0,22.42556381225586,24.286136627197266,22.10704803466797,202.11776733398438,4.631015300750732,0.0,0.08416198194026947,97
1670483675.37976694,170277852,0,22.47467803955078,24.34023666381836,22.155534744262695,202.73333740234375,4.64484977722168,0.0,0.08420278877019882,97
1670483675.47976184,170377847,0,22.495262145996094,24.35552406311035,22.074207305908203,203.34646606445312,4.658642292022705,0.0,0.08427312970161438,97
1670483675.57972383,170477809,0,22.500242233276367,24.34981918334961,21.936723709106445,203.95570373535156,4.67234992980957,0.0,0.08431415259838104,97
1670483675.67975283,170577838,0,22.540544509887695,24.35289192199707,21.484981536865234,204.552734375,4.685807228088379,0.0,0.08435413986444473,97
1670483675.77973294,170677818,0,22.547056198120117,24.294851303100586,20.74783706665039,205.12899780273438,4.698800086975098,0.0,0.08423987776041031,97
1670483675.87979198,170777877,0,22.514698028564453,24.270112991333008,20.875944137573242,205.70925903320312,4.711864471435547,0.0,0.08408790826797485,97
1670483675.97978377,170877869,0,22.58094596862793,24.327707290649414,20.766862869262695,206.2861328125,4.72489070892334,0.0,0.08411287516355515,97
1670483676.07975483,170977840,0,22.58429718017578,24.339330673217773,20.853097915649414,206.86526489257812,4.737969875335693,0.0,0.08416172116994858,97
1670483676.17977691,171077862,0,22.566970825195312,24.32497215270996,20.88777732849121,207.44566345214844,4.751067638397217,0.0,0.08416415750980377,97
1670483676.27981591,171177901,0,22.512208938598633,24.2613525390625,20.782514572143555,208.02322387695312,4.7640700340271,0.0,0.08416415750980377,97
1670483676.37974095,171277826,0,22.560842514038086,24.3186092376709,20.881946563720703,208.60289001464844,4.7771477699279785,0.0,0.08417639881372452,97
1670483676.47971296,171377798,0,22.561607360839844,24.311614990234375,20.79172134399414,209.18032836914062,4.790175437927246,0.0,0.08416849374771118,97
1670483676.57977486,171477860,0,22.590518951416016,24.331212997436523,20.670499801635742,209.75491333007812,4.803155899047852,0.0,0.08421147614717484,97
1670483676.67979383,171577879,0,22.540449142456055,24.285846710205078,20.726354598999023,210.33079528808594,4.816136360168457,0.0,0.08421147614717484,97
1670483676.77978182,171677867,0,22.515974044799805,24.270063400268555,20.829572677612305,210.90916442871094,4.829158782958984,0.0,0.08421147614717484,97
1670483676.87973881,171777824,0,22.548494338989258,24.30877685546875,20.90097427368164,211.48974609375,4.842249870300293,0.0,0.08422008901834488,97
1670483676.97980595,171877891,0,22.567642211914062,24.32575035095215,20.862918853759766,212.06964111328125,4.855336666107178,0.0,0.08426950126886368,97
1670483677.07972288,171977808,0,22.598180770874023,24.334911346435547,20.594085693359375,212.64132690429688,4.868256092071533,0.0,0.08433155715465546,97
1670483677.17976379,172077849,0,22.572139739990234,24.335372924804688,20.90833854675293,213.22239685058594,4.881371974945068,0.0,0.08433155715465546,97
1670483677.27974081,172177826,0,22.555864334106445,24.275436401367188,20.39061737060547,213.78872680664062,4.894145965576172,0.0,0.08433155715465546,97
1670483677.37976694,172277852,0,22.55538558959961,24.298871994018555,20.674182891845703,214.3632049560547,4.907103538513184,0.0,0.08433155715465546,97
1670483677.47973180,172377817,0,22.565628051757812,24.3302059173584,20.924297332763672,214.9442901611328,4.920216083526611,0.0,0.08433155715465546,97
1670483677.57974195,172477827,0,22.570755004882812,24.33858871459961,20.9628963470459,215.52670288085938,4.933361530303955,0.0,0.08433155715465546,97
1670483677.67975783,172577843,0,22.55768394470215,24.331117630004883,21.039073944091797,216.11126708984375,4.946547985076904,0.0,0.08429240435361862,97
1670483677.77977300,172677858,0,22.49076271057129,24.268831253051758,21.05902099609375,216.69638061523438,4.959707260131836,0.0,0.08443264663219452,97
1670483677.87983680,172777922,0,22.533845901489258,24.311506271362305,21.053190231323242,217.28160095214844,4.972894668579102,0.0,0.08443661779165268,97
1670483677.97976398,172877849,0,22.54734230041504,24.32637596130371,21.069456100463867,217.86648559570312,4.986082553863525,0.0,0.08443661779165268,97
1670483678.07974482,172977830,0,22.53891944885254,24.348922729492188,21.460432052612305,218.46253967285156,4.99951696395874,0.0,0.08434139937162399,97
1670483678.17980099,173077886,0,22.481761932373047,24.30286407470703,21.580425262451172,219.0623779296875,5.013002395629883,0.0,0.08438678085803986,97
1670483678.27979589,173177881,0,22.484060287475586,24.28912925720215,21.370513916015625,219.65602111816406,5.026350021362305,0.0,0.084465391933918,97
1670483678.37978077,173277866,0,22.51555824279785,24.342008590698242,21.643951416015625,220.25718688964844,5.039885997772217,0.0,0.08438621461391449,97
1670483678.47973800,173377823,0,22.50831413269043,24.334667205810547,21.655441284179688,220.8585205078125,5.0534210205078125,0.0,0.08433694392442703,97
1670483678.57973790,173477823,0,22.502635955810547,24.340240478515625,21.804147720336914,221.4642333984375,5.067051410675049,0.0,0.08427774161100388,97
1670483678.67976189,173577847,0,22.521493911743164,24.334449768066406,21.511682510375977,222.0619659423828,5.0805134773254395,0.0,0.08427774161100388,97
1670483678.77976298,173677848,0,22.4851131439209,24.294504165649414,21.448463439941406,222.65780639648438,5.093911170959473,0.0,0.08435997366905212,97
1670483678.87978578,173777871,0,22.470657348632812,24.272489547729492,21.35885238647461,223.251220703125,5.107245922088623,0.0,0.08435997366905212,97
1670483678.97978687,173877872,0,22.525800704956055,24.31935691833496,21.256349563598633,223.841796875,5.120549201965332,0.0,0.08437745273113251,97
1670483679.07972980,173977815,0,22.56371307373047,24.32999610900879,20.923067092895508,224.42271423339844,5.1336565017700195,0.0,0.08441794663667679,97
1670483679.17975688,174077842,0,22.558162689208984,24.313251495361328,20.792949676513672,225.00050354003906,5.146690368652344,0.0,0.08440783619880676,97
1670483679.27976084,174177846,0,22.48863410949707,24.278732299804688,21.207727432250977,225.5896759033203,5.159939765930176,0.0,0.08440783619880676,97
1670483679.37980890,174277894,0,22.52044105529785,24.302066802978516,21.11241912841797,226.1764678955078,5.173154354095459,0.0,0.08438757061958313,97
1670483679.47973680,174377822,0,22.56783103942871,24.323654174804688,20.797245025634766,226.75379943847656,5.186183452606201,0.0,0.08442576974630356,97
1670483679.57973886,174477824,0,22.55864143371582,24.33363151550293,21.01053237915039,227.3374786376953,5.199350357055664,0.0,0.08448093384504318,97
1670483679.67978883,174577874,0,22.5339412689209,24.289459228515625,20.796630859375,227.9154510498047,5.212374210357666,0.0,0.0844135656952858,97
1670483679.77979088,174677876,0,22.530588150024414,24.28421401977539,20.774227142333984,228.49261474609375,5.225378036499023,0.0,0.0844135656952858,97
1670483679.87981296,174777898,0,22.530109405517578,24.305097579956055,21.026491165161133,229.0768585205078,5.238541126251221,0.0,0.08441673964262009,97
1670483679.97973680,174877822,0,22.533174514770508,24.304229736328125,20.98107147216797,229.65927124023438,5.251664638519287,0.0,0.08441205322742462,97
1670483680.07974291,174977828,0,22.558629989624023,24.32815170288086,20.948915481567383,230.24119567871094,5.264791965484619,0.0,0.08446840196847916,97
1670483680.17978287,175077868,0,22.556533813476562,24.341472625732422,21.131446838378906,230.8284454345703,5.278038501739502,0.0,0.08446840196847916,97
1670483680.27973199,175177817,0,22.483583450317383,24.272090911865234,21.143108367919922,231.41558837890625,5.2912397384643555,0.0,0.08459053933620453,97
1670483680.37975788,175277843,0,22.51383399963379,24.28788185119629,20.972171783447266,231.99826049804688,5.304358005523682,0.0,0.08459053933620453,97
1670483680.47978187,175377867,0,22.548494338989258,24.324764251708984,20.98720932006836,232.58151245117188,5.317509174346924,0.0,0.08463580906391144,97
1670483680.57979584,175477881,0,22.52044105529785,24.33475685119629,21.4539852142334,233.17738342285156,5.330928325653076,0.0,0.08456774801015854,97
1670483680.67975092,175577836,0,22.536237716674805,24.317197799682617,21.057178497314453,233.76229858398438,5.344110012054443,0.0,0.08457734435796738,97
1670483680.77977180,175677857,0,22.522546768188477,24.285364151000977,20.84266471862793,234.3414306640625,5.357153415679932,0.0,0.08457734435796738,97
1670483680.87980485,175777890,0,22.517473220825195,24.299680709838867,21.06515884399414,234.9268035888672,5.370334625244141,0.0,0.08460455387830734,97
1670483680.97980094,175877886,0,22.517356872558594,24.31454086303711,21.246597290039062,235.5170135498047,5.38362455368042,0.0,0.08458686619997025,97
1670483681.07974195,175977827,0,22.53834342956543,24.33632469177246,21.25604248046875,236.10716247558594,5.396925449371338,0.0,0.08458686619997025,97
1670483681.17974591,176077831,0,22.527620315551758,24.285547256469727,20.782514572143555,236.6845245361328,5.4099321365356445,0.0,0.08458686619997025,97
1670483681.27977180,176177857,0,22.519866943359375,24.27789878845215,20.783740997314453,237.26205444335938,5.422937870025635,0.0,0.08458686619997025,97
1670483681.37979579,176277881,0,22.522356033325195,24.32588768005371,21.33736801147461,237.85494995117188,5.436291217803955,0.0,0.08452458679676056,97
1670483681.47976995,176377855,0,22.543418884277344,24.316434860229492,20.97002410888672,238.43734741210938,5.44942045211792,0.0,0.08454997837543488,97
1670483681.57974792,176477833,0,22.548110961914062,24.338356018066406,21.173797607421875,239.02542114257812,5.462680339813232,0.0,0.08454997837543488,97
1670483681.67976379,176577849,0,22.512208938598633,24.339357376098633,21.6289119720459,239.62637329101562,5.4762091636657715,0.0,0.08447712659835815,97
1670483681.77976584,176677851,0,22.459596633911133,24.276016235351562,21.47301483154297,240.222900390625,5.489606857299805,0.0,0.08459080010652542,97
1670483681.87973189,176777817,0,22.489805221557617,24.272994995117188,21.080196380615234,240.8083038330078,5.502772808074951,0.0,0.08459080010652542,97
1670483681.97973585,176877821,0,22.52532386779785,24.312204360961914,21.119478225708008,241.39501953125,5.515988826751709,0.0,0.08460816740989685,97
