timestamp,TimeUS,Instance,Volt,VoltR,Curr,CurrTot,EnrgTot,Temp,Res,RemPct
1670485398.23988700,91716327,0,24.96181869506836,24.99814796447754,0.6070645451545715,17.65550994873047,0.4413181245326996,0.0,0.05984560027718544,99
1670485398.33986497,91816305,0,24.982343673706055,25.02208709716797,0.6641075015068054,17.6739559173584,0.44177892804145813,0.0,0.05984560027718544,99
1670485398.43996811,91916408,0,24.981767654418945,25.02048683166504,0.6463079452514648,17.69192886352539,0.44222792983055115,0.0,0.05990806594491005,99
1670485398.53987908,92016319,0,24.941749572753906,24.97530174255371,0.5600721836090088,17.707473754882812,0.44261565804481506,0.0,0.05990806594491005,99
1670485398.63989210,92116332,0,24.9603214263916,24.99677848815918,0.6085606217384338,17.724382400512695,0.4430376887321472,0.0,0.05990806594491005,99
1670485398.73991895,92216359,0,24.982501983642578,25.022520065307617,0.6679947376251221,17.742944717407227,0.44350141286849976,0.0,0.05990806594491005,99
1670485398.83991003,92316350,0,24.98119354248047,25.020444869995117,0.6552077531814575,17.761144638061523,0.44395607709884644,0.0,0.05990806594491005,99
1670485398.93991804,92416358,0,24.9896183013916,25.02969741821289,0.6690177321434021,17.77973175048828,0.44442054629325867,0.0,0.05990806594491005,99
1670485399.03992200,92516362,0,24.972864151000977,25.010536193847656,0.6288152933120728,17.79720115661621,0.44485679268836975,0.0,0.05990806594491005,99
1670485399.13991499,92616355,0,24.938398361206055,24.97176742553711,0.5570033192634583,17.812673568725586,0.44524264335632324,0.0,0.05990806594491005,99
1670485399.23987198,92716312,0,24.98263168334961,25.02175521850586,0.6530594825744629,17.830808639526367,0.4456956684589386,0.0,0.05990806594491005,99
1670485399.33992815,92816368,0,24.989524841308594,25.02938461303711,0.6653350591659546,17.849302291870117,0.4461578130722046,0.0,0.05990806594491005,99
1670485399.43985510,92916295,0,24.988182067871094,25.028371810913086,0.6708590984344482,17.8679256439209,0.44662317633628845,0.0,0.05990806594491005,99
1670485399.53990912,93016349,0,24.939929962158203,24.973941802978516,0.5677444338798523,17.883703231811523,0.4470166862010956,0.0,0.05990806594491005,99
1670485399.63989902,93116339,0,24.96005630493164,24.99652099609375,0.6086629033088684,17.90061378479004,0.4474387466907501,0.0,0.05990806594491005,99
1670485399.73988509,93216325,0,24.974109649658203,25.012203216552734,0.6358737349510193,17.918275833129883,0.4478798508644104,0.0,0.05990806594491005,99
1670485399.83992314,93316363,0,24.990575790405273,25.03080177307129,0.6714728474617004,17.93692970275879,0.44834601879119873,0.0,0.05990806594491005,99
1670485399.93989396,93416334,0,24.98196029663086,25.021120071411133,0.6536732912063599,17.955087661743164,0.44879963994026184,0.0,0.05990806594491005,99
1670485400.03989315,93516333,0,24.94940948486328,24.983366012573242,0.5668237805366516,17.970834732055664,0.44919252395629883,0.0,0.05990806594491005,99
1670485400.13992310,93616363,0,24.972387313842773,25.010499954223633,0.6361806392669678,17.988513946533203,0.44963398575782776,0.0,0.05990806594491005,99
1670485400.23993707,93716377,0,24.967023849487305,25.0045108795166,0.6257464289665222,18.00589942932129,0.45006805658340454,0.0,0.05990806594491005,99
1670485400.33992004,93816360,0,24.995651245117188,25.03685188293457,0.6877380013465881,18.025001525878906,0.4505455195903778,0.0,0.05990806594491005,99
1670485400.43991709,93916357,0,24.9549503326416,25.047733306884766,1.58627450466156,18.069067001342773,0.451645165681839,0.0,0.05849146470427513,99
1670485400.53994203,94016382,0,24.78291893005371,25.075716018676758,5.115837574005127,18.211219787597656,0.4551681578159332,0.0,0.0572335459291935,99
1670485400.63990498,94116345,0,24.80982208251953,25.003211975097656,3.3503057956695557,18.304256439208984,0.4574763774871826,0.0,0.05772313103079796,99
1670485400.73989296,94216333,0,24.904315948486328,25.04080581665039,2.3793094158172607,18.370344161987305,0.45912227034568787,0.0,0.05736500024795532,99
1670485400.83988214,94316322,0,24.905942916870117,25.040618896484375,2.3602821826934814,18.43590545654297,0.4607551395893097,0.0,0.05705935135483742,99
1670485400.93986106,94416301,0,24.919633865356445,25.053539276123047,2.3467791080474854,18.50108528137207,0.46237942576408386,0.0,0.05705935135483742,99
1670485401.03982306,94516263,0,24.88727378845215,25.010290145874023,2.139322280883789,18.56049346923828,0.4638579189777374,0.0,0.05750241503119469,99
1670485401.13990498,94616345,0,24.895795822143555,25.017120361328125,2.100961208343506,18.618906021118164,0.4653121531009674,0.0,0.05774753540754318,99
1670485401.23997307,94716413,0,24.91580581665039,25.037113189697266,2.100654125213623,18.67728042602539,0.4667665958404541,0.0,0.05774753540754318,99
1670485401.33996606,94816406,0,24.92835807800293,25.050029754638672,2.1069626808166504,18.735828399658203,0.4682261049747467,0.0,0.05774753540754318,99
1670485401.43994904,94916389,0,24.92222023010254,25.041292190551758,2.0561554431915283,18.79293441772461,0.4696493446826935,0.0,0.05791022256016731,99
1670485401.53986716,95016307,0,24.875307083129883,24.989349365234375,1.9693059921264648,18.847599029541016,0.47100916504859924,0.0,0.05791022256016731,99
1670485401.63989115,95116331,0,24.90680503845215,25.024703979492188,2.035900831222534,18.904170989990234,0.4724181890487671,0.0,0.05791022256016731,99
1670485401.73993301,95216373,0,24.925952911376953,25.0472469329834,2.0945165157318115,18.96238136291504,0.47386911511421204,0.0,0.05791022256016731,99
1670485401.83992314,95316363,0,24.913602828979492,25.033510208129883,2.0705792903900146,19.0198974609375,0.4753020405769348,0.0,0.05791022256016731,99
1670485401.93991399,95416354,0,24.92987823486328,25.050798416137695,2.0880720615386963,19.077898025512695,0.4767480194568634,0.0,0.05791022256016731,99
1670485402.03994107,95516381,0,24.906614303588867,25.024335861206055,2.032832145690918,19.13438606262207,0.4781549274921417,0.0,0.05791022256016731,99
1670485402.13992310,95616363,0,24.874637603759766,24.988555908203125,1.9671577215194702,19.189023971557617,0.4795140326023102,0.0,0.05791022256016731,99
1670485402.23993516,95716375,0,24.91800880432129,25.03777503967285,2.068124294281006,19.246482849121094,0.48094579577445984,0.0,0.05791022256016731,99
1670485402.33989716,95816337,0,24.916378021240234,25.03744125366211,2.090527057647705,19.304536819458008,0.482392281293869,0.0,0.05791022256016731,99
1670485402.43991208,95916352,0,24.923654556274414,25.044628143310547,2.0889925956726074,19.362577438354492,0.48383888602256775,0.0,0.05791022256016731,99
1670485402.53996611,96016406,0,24.87502098083496,24.989330291748047,1.9739092588424683,19.417442321777344,0.4852036237716675,0.0,0.05791022256016731,99
1670485402.63994002,96116380,0,24.882488250732422,24.998361587524414,2.000915288925171,19.472978591918945,0.48658549785614014,0.0,0.05791022256016731,99
1670485402.73989701,96216337,0,24.91427230834961,25.034269332885742,2.072113513946533,19.53055191040039,0.4880199134349823,0.0,0.05791022256016731,99
1670485402.84005809,96316498,0,24.917240142822266,25.038053512573242,2.086230516433716,19.588560104370117,0.4894653260707855,0.0,0.05791022256016731,99
1670485402.94006610,96416506,0,24.909008026123047,25.027923583984375,2.0515520572662354,19.645597457885742,0.49088606238365173,0.0,0.05796373263001442,99
1670485403.03995013,96516390,0,24.87346649169922,24.989723205566406,2.0056891441345215,19.701251983642578,0.4922703802585602,0.0,0.05796373263001442,99
1670485403.13997006,96616410,0,24.85041618347168,25.039827346801758,3.291689872741699,19.792713165283203,0.4945432245731354,0.0,0.05754236876964569,99
1670485403.23993206,96716372,0,24.53830909729004,25.079265594482422,11.538407325744629,20.113128662109375,0.5024056434631348,0.0,0.04688310995697975,99
1670485403.33993196,96816372,0,24.03089714050293,25.078351974487305,22.964494705200195,20.751081466674805,0.5177362561225891,0.0,0.04561193287372589,99
1670485403.43995500,96916395,0,23.549623489379883,25.05744743347168,33.151668548583984,21.6722469329834,0.5394293665885925,0.0,0.04548261687159538,99
1670485403.53999805,97016438,0,23.146759033203125,25.020334243774414,41.18294906616211,22.816801071166992,0.5659220814704895,0.0,0.045493967831134796,99
1670485403.63997412,97116414,0,23.73229217529297,24.994935989379883,27.70807647705078,23.586347579956055,0.5841851830482483,0.0,0.04556950181722641,99
1670485403.73997903,97216419,0,24.1849422454834,25.030811309814453,18.57322120666504,24.102333068847656,0.5966642498970032,0.0,0.04554237052798271,99
1670485403.84000516,97316445,0,24.067035675048828,25.05887222290039,21.824230194091797,24.70876693725586,0.6112593412399292,0.0,0.04544656723737717,99
1670485403.93997502,97416415,0,23.981689453125,25.047494888305664,23.480066299438477,25.36085319519043,0.6268975138664246,0.0,0.045391928404569626,99
1670485404.03995514,97516395,0,23.95985984802246,25.002737045288086,22.94086265563965,25.998016357421875,0.642163872718811,0.0,0.04545934498310089,99
1670485404.13995004,97616390,0,23.97001075744629,24.986677169799805,22.31511688232422,26.617904663085938,0.6570225954055786,0.0,0.04555950313806534,99
1670485404.23996902,97716409,0,23.943777084350586,25.029354095458984,23.839128494262695,27.28028106689453,0.6728823781013489,0.0,0.045537643134593964,99
1670485404.33995199,97816392,0,23.858951568603516,25.030412673950195,25.737539291381836,27.99507713317871,0.689936637878418,0.0,0.04551563039422035,99
1670485404.44005895,97916499,0,23.91706657409668,25.008039474487305,23.948993682861328,28.66111946105957,0.7058663964271545,0.0,0.04555405303835869,99
1670485404.54001403,98016454,0,23.905864715576172,25.00189208984375,24.033695220947266,29.328516006469727,0.7218210697174072,0.0,0.04560374468564987,99
1670485404.63996911,98116409,0,23.805774688720703,24.966777801513672,25.38346290588379,30.03335189819336,0.7386001944541931,0.0,0.04573854058980942,99
1670485404.74000406,98216444,0,23.837987899780273,25.02652359008789,26.005762100219727,30.756044387817383,0.7558277249336243,0.0,0.04570275917649269,99
1670485404.83999610,98316436,0,23.852060317993164,25.00628089904785,25.243450164794922,31.457202911376953,0.7725517749786377,0.0,0.04572358727455139,99
1670485404.93996906,98416409,0,23.858091354370117,25.02054214477539,25.433719635009766,32.16360855102539,0.7894052863121033,0.0,0.04570510610938072,99
1670485405.03994703,98516387,0,23.7974910736084,24.969470977783203,25.577346801757812,32.87398910522461,0.8063105940818787,0.0,0.04582097753882408,99
1670485405.13997507,98616415,0,23.767906188964844,24.950721740722656,25.72894859313965,33.588932037353516,0.8233032822608948,0.0,0.045972153544425964,99
1670485405.23996711,98716407,0,23.763694763183594,24.980491638183594,26.435405731201172,34.32325744628906,0.8407535552978516,0.0,0.046029068529605865,99
1670485405.33996797,98816408,0,23.77164077758789,24.984769821166992,26.333213806152344,35.05479431152344,0.8581433892250061,0.0,0.04606840759515762,99
1670485405.43997812,98916418,0,23.75343894958496,24.98853874206543,26.795488357543945,35.79924011230469,0.8758265376091003,0.0,0.04609356075525284,99
1670485405.53993106,99016371,0,23.69313621520996,24.937374114990234,26.903106689453125,36.54627227783203,0.8935260772705078,0.0,0.046248823404312134,99
1670485405.63995695,99116397,0,23.71352767944336,24.952533721923828,26.733089447021484,37.28911209106445,0.9111413955688477,0.0,0.04634731262922287,99
1670485405.73994613,99216386,0,23.71429443359375,24.987119674682617,27.46409797668457,38.051971435546875,0.929232120513916,0.0,0.04634504020214081,99
1670485405.83997798,99316418,0,23.70960235595703,24.973522186279297,27.25234603881836,38.80928421020508,0.9471877217292786,0.0,0.046378377825021744,99
1670485405.94001698,99416457,0,23.79940414428711,24.95651626586914,24.984437942504883,39.503623962402344,0.9637125730514526,0.0,0.04631332680583,99
1670485406.04004002,99516480,0,23.82870101928711,24.913198471069336,23.492956161499023,40.15641403198242,0.9792677164077759,0.0,0.04616269841790199,99
1670485406.14000010,99616440,0,23.84037971496582,24.919490814208984,23.428815841674805,40.80699920654297,0.9947779178619385,0.0,0.046059127897024155,99
1670485406.23995996,99716400,0,23.889877319335938,24.958393096923828,23.19466209411621,41.451087951660156,1.0101650953292847,0.0,0.04606728255748749,99
1670485406.33998394,99816424,0,23.88353729248047,24.93105125427246,22.766719818115234,42.08370590209961,1.0252742767333984,0.0,0.04601077735424042,99
1670485406.43994594,99916386,0,23.88690948486328,24.926212310791016,22.61556053161621,42.711727142333984,1.0402758121490479,0.0,0.04595523700118065,99
1670485406.54000401,100016444,0,23.852155685424805,24.89980697631836,22.849102020263672,43.34684371948242,1.055424690246582,0.0,0.04585083946585655,99
1670485406.63996816,100116408,0,23.824296951293945,24.870370864868164,22.81473159790039,43.98040771484375,1.070518970489502,0.0,0.04585083946585655,99
1670485406.74001503,100216455,0,23.889110565185547,24.907827377319336,22.236860275268555,44.598331451416016,1.0852806568145752,0.0,0.04581206291913986,99
1670485406.83995795,100316398,0,23.922332763671875,24.94196319580078,22.233484268188477,45.215728759765625,1.1000503301620483,0.0,0.0458601638674736,99
1670485406.93996716,100416407,0,23.88298225402832,24.937829971313477,22.987201690673828,45.85436248779297,1.1153028011322021,0.0,0.045888498425483704,99
1670485407.03997207,100516412,0,23.80246925354004,24.86971092224121,23.257265090942383,46.50048828125,1.1306822299957275,0.0,0.045888498425483704,99
1670485407.13997793,100616418,0,23.79605484008789,24.881694793701172,23.609575271606445,47.156402587890625,1.1462904214859009,0.0,0.045983001589775085,99
1670485407.23992205,100716362,0,23.782373428344727,24.901010513305664,24.309349060058594,47.83133316040039,1.162341833114624,0.0,0.04601678252220154,99
1670485407.33995414,100816394,0,23.80984115600586,24.92465591430664,24.242685317993164,48.5050163269043,1.178382158279419,0.0,0.045985620468854904,99
1670485407.44003606,100916476,0,23.800647735595703,24.912120819091797,24.167499542236328,49.17694091796875,1.1943743228912354,0.0,0.04599042236804962,99
1670485407.54009509,101016535,0,23.797393798828125,24.885847091674805,23.666961669921875,49.83478927612305,1.2100294828414917,0.0,0.04599042236804962,99
1670485407.64006710,101116507,0,23.808977127075195,24.875835418701172,23.19742202758789,50.479034423828125,1.2253682613372803,0.0,0.04599042236804962,99
1670485407.73996806,101216408,0,23.831382751464844,24.915157318115234,23.551572799682617,51.13264846801758,1.2409448623657227,0.0,0.04601703956723213,99
1670485407.83996201,101316402,0,23.835786819458008,24.894073486328125,23.01144790649414,51.771484375,1.2561720609664917,0.0,0.04598955437541008,99
1670485407.94000602,101416446,0,23.841625213623047,24.908639907836914,23.195274353027344,52.41651916503906,1.2715507745742798,0.0,0.046001385897397995,99
1670485408.03998113,101516421,0,23.813222885131836,24.870452880859375,22.98256492614746,53.0548210144043,1.2867507934570312,0.0,0.046001385897397995,99
1670485408.13996696,101616407,0,23.77901268005371,24.84244155883789,23.11732292175293,53.696929931640625,1.302019476890564,0.0,0.046001385897397995,99
1670485408.23998904,101716429,0,23.816062927246094,24.888568878173828,23.314653396606445,54.344635009765625,1.3174452781677246,0.0,0.046001385897397995,99
1670485408.33998799,101816428,0,23.861825942993164,24.882675170898438,22.199113845825195,54.961429595947266,1.3321632146835327,0.0,0.04598604142665863,99
1670485408.43997693,101916417,0,23.891983032226562,24.892009735107422,21.74184799194336,55.56535339355469,1.3465920686721802,0.0,0.045995455235242844,99
1670485408.53998899,102016429,0,23.83597755432129,24.820167541503906,21.471479415893555,56.161903381347656,1.3608113527297974,0.0,0.04583708196878433,99
1670485408.63997507,102116415,0,23.854454040527344,24.848846435546875,21.721900939941406,56.765254974365234,1.3752039670944214,0.0,0.0457782968878746,99
1670485408.73993516,102216375,0,23.898685455322266,24.873031616210938,21.279674530029297,57.356163024902344,1.3893258571624756,0.0,0.045787665992975235,99
1670485408.83988214,102316322,0,23.91321563720703,24.878950119018555,21.08190155029297,57.94151306152344,1.4033235311508179,0.0,0.045808739960193634,99
1670485408.93998599,102416426,0,23.88767433166504,24.862625122070312,21.292869567871094,58.53364562988281,1.4174681901931763,0.0,0.04578769579529762,99
1670485409.04003811,102516478,0,23.863739013671875,24.81668472290039,20.81228256225586,59.11211013793945,1.4312725067138672,0.0,0.04578769579529762,99
1670485409.14002705,102616467,0,23.87934684753418,24.831771850585938,20.83161735534668,59.69074249267578,1.4450899362564087,0.0,0.04572019726037979,99
1670485409.24000907,102716449,0,23.885568618774414,24.869016647338867,21.494802474975586,60.28776168823242,1.4593501091003418,0.0,0.04575280845165253,99
1670485409.33995199,102816392,0,23.89418601989746,24.844619750976562,20.78711700439453,60.864906311035156,1.4731404781341553,0.0,0.04572227597236633,99
1670485409.44001412,102916454,0,23.915916442871094,24.8599910736084,20.642879486083984,61.438716888427734,1.486863613128662,0.0,0.04573363438248634,99
1670485409.54006910,103016509,0,23.896387100219727,24.836584091186523,20.578433990478516,62.010704040527344,1.5005320310592651,0.0,0.04568850249052048,99
1670485409.63997316,103116413,0,23.879920959472656,24.810949325561523,20.377727508544922,62.576255798339844,1.5140373706817627,0.0,0.04568850249052048,99
1670485409.73997808,103216418,0,23.92842674255371,24.850284576416016,20.17180633544922,63.13665771484375,1.5274468660354614,0.0,0.045700278133153915,99
1670485409.83996105,103316401,0,23.925491333007812,24.843812942504883,20.096925735473633,63.694854736328125,1.540802001953125,0.0,0.04569463059306145,99
1670485409.93995309,103416393,0,23.936595916748047,24.86334228515625,20.263256072998047,64.25772094726562,1.5542751550674438,0.0,0.045735351741313934,99
1670485410.03999114,103516431,0,23.874366760253906,24.798011779785156,20.195436477661133,64.81896209716797,1.5676745176315308,0.0,0.045735351741313934,99
1670485410.13998294,103616423,0,23.901172637939453,24.81839942932129,20.077898025512695,65.37667846679688,1.5810046195983887,0.0,0.04568343237042427,99
1670485410.23992896,103716369,0,23.914194107055664,24.839527130126953,20.251903533935547,65.93897247314453,1.5944514274597168,0.0,0.04569114372134209,99
1670485410.33996296,103816403,0,23.92913055419922,24.849674224853516,20.134057998657227,66.49848175048828,1.6078399419784546,0.0,0.04572075605392456,99
1670485410.43996811,103916408,0,23.898399353027344,24.82863998413086,20.346118927001953,67.06372833251953,1.62134850025177,0.0,0.04572075605392456,99
1670485410.53995204,104016392,0,23.88247299194336,24.787017822265625,19.784103393554688,67.61323547363281,1.634472131729126,0.0,0.04572075605392456,99
1670485410.64004207,104116482,0,23.905197143554688,24.823627471923828,20.093549728393555,68.17193603515625,1.6478279829025269,0.0,0.045707713812589645,99
1670485410.74003100,104216471,0,23.901077270507812,24.84260368347168,20.61556625366211,68.74457550048828,1.6615146398544312,0.0,0.04567064717411995,99
1670485410.83995199,104316392,0,23.892078399658203,24.823762893676758,20.3930721282959,69.31060028076172,1.67503821849823,0.0,0.04568631201982498,99
1670485410.93992114,104416361,0,23.8893985748291,24.83617401123047,20.731571197509766,69.8863296508789,1.6887919902801514,0.0,0.04566831886768341,99
1670485411.04001307,104516453,0,23.857805252075195,24.794858932495117,20.4783878326416,70.455810546875,1.702378511428833,0.0,0.04575813189148903,99
1670485411.13997602,104616416,0,23.876760482788086,24.77733039855957,19.68109130859375,71.00234985351562,1.715428113937378,0.0,0.04575813189148903,99
1670485411.23998594,104716426,0,23.93573570251465,24.816144943237305,19.241931915283203,71.53694152832031,1.7282240390777588,0.0,0.04575470834970474,99
1670485411.33995700,104816397,0,23.90045166015625,24.83184814453125,20.356281280517578,72.1022720336914,1.741735816001892,0.0,0.04575470834970474,99
1670485411.43996406,104916404,0,23.916778564453125,24.84077262878418,20.194515228271484,72.66331481933594,1.7551541328430176,0.0,0.04575470834970474,99
1670485411.53998208,105016422,0,23.874366760253906,24.7780704498291,19.751060485839844,73.21209716796875,1.7682559490203857,0.0,0.04575470834970474,99
1670485411.63996506,105116405,0,23.90643882751465,24.795307159423828,19.44693374633789,73.75224304199219,1.781168818473816,0.0,0.04570738226175308,99
1670485411.73996806,105216408,0,23.92616081237793,24.80270004272461,19.185771942138672,74.28524017333984,1.7939213514328003,0.0,0.04568690434098244,99
1670485411.83996105,105316401,0,23.909502029418945,24.818933486938477,19.905731201171875,74.83818054199219,1.807141900062561,0.0,0.04568690434098244,99
1670485411.94004011,105416480,0,23.897918701171875,24.785449981689453,19.426372528076172,75.37824249267578,1.8200483322143555,0.0,0.04568690434098244,99
1670485412.03992796,105516368,0,23.8498592376709,24.75390625,19.787887573242188,75.92736053466797,1.8331447839736938,0.0,0.04568690434098244,99
1670485412.13999605,105616436,0,23.940523147583008,24.78673553466797,18.532711029052734,76.44239807128906,1.8454749584197998,0.0,0.04566046968102455,99
1670485412.24002814,105716468,0,23.970233917236328,24.813417434692383,18.449817657470703,76.95525360107422,1.857768177986145,0.0,0.04570145532488823,99
1670485412.34000111,105816441,0,23.947509765625,24.799449920654297,18.64134979248047,77.47296905517578,1.8701660633087158,0.0,0.04570159316062927,99
1670485412.43999910,105916439,0,23.978240966796875,24.808210372924805,18.152477264404297,77.97724151611328,1.8822575807571411,0.0,0.045722074806690216,99
1670485412.54001307,106016453,0,23.94799041748047,24.77651023864746,18.143577575683594,78.48133850097656,1.8943297863006592,0.0,0.045664653182029724,99
1670485412.64002609,106116466,0,23.92941665649414,24.753368377685547,18.04353141784668,78.98265075683594,1.9063259363174438,0.0,0.045664653182029724,99
1670485412.73997712,106216417,0,23.89801597595215,24.809080123901367,19.973554611206055,79.53724670410156,1.9195796251296997,0.0,0.04561351612210274,99
1670485412.84002399,106316464,0,23.851198196411133,24.81843376159668,21.237016677856445,80.12748718261719,1.9336576461791992,0.0,0.04554476961493492,98
1670485412.94001508,106416455,0,23.786287307739258,24.812166213989258,22.546510696411133,80.75377655029297,1.9485546350479126,0.0,0.04550059139728546,98
1670485413.04001212,106516452,0,23.71929359436035,24.753528594970703,22.674312591552734,81.38359069824219,1.9634933471679688,0.0,0.04561262205243111,98
1670485413.13993716,106616377,0,23.798446655273438,24.785497665405273,21.632287979125977,81.98414611816406,1.977785587310791,0.0,0.04562855884432793,98
1670485413.24001193,106716452,0,23.81989288330078,24.80717658996582,21.657146453857422,82.58623504638672,1.9921271800994873,0.0,0.0455869697034359,98
1670485413.33997297,106816413,0,23.827932357788086,24.806787490844727,21.488971710205078,83.18277740478516,2.0063416957855225,0.0,0.04555150121450424,98
1670485413.43997312,106916413,0,23.79758644104004,24.78298568725586,21.618478775024414,83.78351593017578,2.0206379890441895,0.0,0.045581359416246414,98
1670485413.53991103,107016351,0,23.723196029663086,24.74365234375,22.325244903564453,84.40333557128906,2.03534197807312,0.0,0.04570860415697098,98
1670485413.63998103,107116421,0,23.7828426361084,24.76472282409668,21.45429229736328,84.999755859375,2.0495264530181885,0.0,0.045766133815050125,98
1670485413.74009705,107216537,0,23.80763816833496,24.797941207885742,21.654693603515625,85.6017837524414,2.063859224319458,0.0,0.045731570571660995,98
1670485413.84007907,107316519,0,23.780832290649414,24.776538848876953,21.76118278503418,86.2064437866211,2.0782384872436523,0.0,0.045756060630083084,98
1670485413.94012403,107416564,0,23.755035400390625,24.832063674926758,23.601118087768555,86.86238098144531,2.093820333480835,0.0,0.045634668320417404,98
1670485414.03999996,107516440,0,23.69955062866211,24.817686080932617,24.53944969177246,87.5432357788086,2.1099562644958496,0.0,0.04556480050086975,98
1670485414.14001107,107616451,0,23.633682250976562,24.832122802734375,26.359298706054688,88.27558135986328,2.1272642612457275,0.0,0.045465562492609024,98
1670485414.24008894,107716529,0,23.65972328186035,24.83346176147461,25.86766242980957,88.99474334716797,2.1442794799804688,0.0,0.04537473991513252,98
1670485414.33997297,107816413,0,23.734397888183594,24.84827423095703,24.61248779296875,89.67768096923828,2.1604886054992676,0.0,0.04525656998157501,98
1670485414.44001603,107916456,0,23.897056579589844,24.81169891357422,20.2061767578125,90.23925018310547,2.1739084720611572,0.0,0.04526550695300102,98
1670485414.53997707,108016417,0,23.691986083984375,24.626632690429688,20.64809799194336,90.81263732910156,2.187493085861206,0.0,0.04526550695300102,98
1670485414.64006615,108116506,0,23.466426849365234,24.645551681518555,25.852622985839844,91.53146362304688,2.2043614387512207,0.0,0.0456094890832901,98
1670485414.73998094,108216421,0,23.53643226623535,24.662662506103516,24.553836822509766,92.2129898071289,2.220402240753174,0.0,0.04586775600910187,98
1670485414.84000206,108316442,0,23.734302520751953,24.75398826599121,22.22765350341797,92.83059692382812,2.235060691833496,0.0,0.04587463289499283,98
1670485414.93995905,108416399,0,23.696773529052734,24.750200271606445,22.964801788330078,93.4682846069336,2.2501718997955322,0.0,0.04587133228778839,98
1670485415.03998399,108516424,0,23.681358337402344,24.741640090942383,23.114255905151367,94.11056518554688,2.2653820514678955,0.0,0.04587133228778839,98
1670485415.13999605,108616436,0,23.71525001525879,24.76897430419922,22.94915008544922,94.7481689453125,2.280503034591675,0.0,0.0459156259894371,98
1670485415.24000907,108716449,0,23.79030990600586,24.793947219848633,21.81427574157715,95.35423278808594,2.294921636581421,0.0,0.04600824788212776,98
1670485415.34003210,108816472,0,23.774608612060547,24.777841567993164,21.788496017456055,95.95967102050781,2.3093156814575195,0.0,0.04604417830705643,98
1670485415.44009495,108916535,0,23.78140640258789,24.78459358215332,21.766706466674805,96.56468963623047,2.3237037658691406,0.0,0.04608810693025589,98
1670485415.54014111,109016581,0,23.711421966552734,24.74808692932129,22.493112564086914,97.18988037109375,2.3385279178619385,0.0,0.04608810693025589,98
1670485415.63998199,109116422,0,23.687700271606445,24.719499588012695,22.387542724609375,97.8108139038086,2.353236436843872,0.0,0.04608810693025589,98
1670485415.74005914,109216499,0,23.74703598022461,24.7540283203125,21.853864669799805,98.41838073730469,2.367664337158203,0.0,0.04607841745018959,98
1670485415.83997703,109316417,0,23.78140640258789,24.751903533935547,21.06761360168457,99.00315856933594,2.3815712928771973,0.0,0.04606584087014198,98
1670485415.93998814,109416428,0,23.78217124938965,24.748714447021484,20.98966407775879,99.58631896972656,2.395440101623535,0.0,0.04604853317141533,98
1670485416.03999305,109516433,0,23.704336166381836,24.705347061157227,21.7381649017334,100.19023895263672,2.4097554683685303,0.0,0.04604853317141533,98
1670485416.14001703,109616457,0,23.706253051757812,24.70583724975586,21.707168579101562,100.79341125488281,2.4240543842315674,0.0,0.04604853317141533,98
1670485416.23996902,109716409,0,23.730281829833984,24.740314483642578,21.93488121032715,101.40247344970703,2.438507556915283,0.0,0.04604685679078102,98
1670485416.33999610,109816436,0,23.74789810180664,24.76525115966797,22.093849182128906,102.01640319824219,2.453087091445923,0.0,0.04604685679078102,98
1670485416.44002104,109916461,0,23.77450180053711,24.735637664794922,20.881742477416992,102.59663391113281,2.46688175201416,0.0,0.04602754861116409,98
1670485416.53995514,110016395,0,23.760343551635742,24.688800811767578,20.226125717163086,103.15814971923828,2.4802236557006836,0.0,0.04590384289622307,98
1670485416.64004517,110116485,0,23.76359748840332,24.70844268798828,20.606666564941406,103.7310791015625,2.4938385486602783,0.0,0.0458514578640461,98
1670485416.73998499,110216425,0,23.80984115600586,24.752582550048828,20.533626556396484,104.30120086669922,2.507413148880005,0.0,0.04591205343604088,98
1670485416.83997297,110316413,0,23.816925048828125,24.73529624938965,19.99933433532715,104.8567123413086,2.520643711090088,0.0,0.04592008516192436,98
1670485416.94005299,110416493,0,23.809743881225586,24.746604919433594,20.38754653930664,105.42353057861328,2.534139633178711,0.0,0.04595261067152023,98
1670485417.04008198,110516522,0,23.807064056396484,24.704633712768555,19.562936782836914,105.96715545654297,2.547081708908081,0.0,0.04588115215301514,98
1670485417.14000607,110616446,0,23.806011199951172,24.715576171875,19.837909698486328,106.51781463623047,2.5601906776428223,0.0,0.04584987461566925,98
1670485417.24000096,110716441,0,23.7486515045166,24.69684410095215,20.646459579467773,107.09125518798828,2.5738091468811035,0.0,0.04592514783143997,98
1670485417.34006906,110816509,0,23.75459861755371,24.754261016845703,21.805681228637695,107.69754791259766,2.5882115364074707,0.0,0.045844148844480515,98
1670485417.44001293,110916453,0,23.806489944458008,24.76333999633789,20.8718204498291,108.27696990966797,2.60200572013855,0.0,0.045844148844480515,98
1670485417.54007006,111016510,0,23.75527000427246,24.69505500793457,20.499563217163086,108.84674072265625,2.6155407428741455,0.0,0.045844148844480515,98
1670485417.64000511,111116445,0,23.762163162231445,24.694068908691406,20.32770347595215,109.41107940673828,2.628950595855713,0.0,0.045844148844480515,98
1670485417.73998713,111216427,0,23.746652603149414,24.72371482849121,21.315885543823242,110.00322723388672,2.643012046813965,0.0,0.04583725705742836,98
1670485417.83998513,111316425,0,23.749046325683594,24.756731033325195,22.027563095092773,110.61514282226562,2.6575443744659424,0.0,0.04574649780988693,98
1670485417.93998003,111416420,0,23.738611221313477,24.75604248046875,22.278596878051758,111.2340087890625,2.6722354888916016,0.0,0.045668549835681915,98
1670485418.04000306,111516443,0,23.694719314575195,24.732749938964844,22.733985900878906,111.86570739746094,2.6872034072875977,0.0,0.0456598736345768,98
1670485418.13998795,111616428,0,23.633968353271484,24.684814453125,22.956514358520508,112.50333404541016,2.70227313041687,0.0,0.04577551409602165,98
1670485418.24000716,111716447,0,23.704814910888672,24.708253860473633,21.901123046875,113.11186981201172,2.716698408126831,0.0,0.0458168089389801,98
1670485418.33999515,111816435,0,23.743877410888672,24.755725860595703,22.08464241027832,113.72509002685547,2.7312586307525635,0.0,0.0458168089389801,98
1670485418.44007301,111916513,0,23.762258529663086,24.752656936645508,21.589632034301758,114.32553100585938,2.7455263137817383,0.0,0.04587375745177269,98
1670485418.54006910,112016509,0,23.72290802001953,24.69935417175293,21.285503387451172,114.91682434082031,2.7595534324645996,0.0,0.04587375745177269,98
1670485418.64004397,112116484,0,23.656850814819336,24.670942306518555,22.036462783813477,115.52880096435547,2.774030923843384,0.0,0.04601883515715599,98
1670485418.73997712,112216417,0,23.745121002197266,24.746997833251953,21.77100372314453,116.13323211669922,2.7883832454681396,0.0,0.04601883515715599,98
1670485418.84000802,112316448,0,23.723974227905273,24.748104095458984,22.283199310302734,116.75245666503906,2.8030736446380615,0.0,0.0459597222507,98
1670485418.94003510,112416475,0,23.747323989868164,24.767688751220703,22.201261520385742,117.36936950683594,2.8177237510681152,0.0,0.0459597222507,98
1670485419.03998709,112516427,0,23.70825958251953,24.695873260498047,21.488664627075195,117.9660415649414,2.8318698406219482,0.0,0.0459597222507,98
1670485419.14003110,112616471,0,23.739089965820312,24.706056594848633,21.062702178955078,118.5514144897461,2.845766067504883,0.0,0.04590891674160957,98
1670485419.24000502,112716445,0,23.75450325012207,24.729736328125,21.236095428466797,119.14120483398438,2.859776258468628,0.0,0.04592341184616089,98
1670485419.34000397,112816444,0,23.700220108032227,24.731721878051758,22.470096588134766,119.76541137695312,2.87457013130188,0.0,0.04590555652976036,98
1670485419.43999100,112916431,0,23.70864486694336,24.73504066467285,22.370664596557617,120.38678741455078,2.8893020153045654,0.0,0.04588133469223976,98
1670485419.54001403,113016454,0,23.65962791442871,24.707578659057617,22.815959930419922,121.02076721191406,2.904301643371582,0.0,0.04593059793114662,98
1670485419.64000201,113116442,0,23.60845184326172,24.68251609802246,23.32969093322754,121.66854858398438,2.9195947647094727,0.0,0.04603852704167366,98
1670485419.73998594,113216426,0,23.655126571655273,24.734485626220703,23.464414596557617,122.32052612304688,2.9350173473358154,0.0,0.04599979147315025,98
1670485419.83992410,113316364,0,23.64411735534668,24.696617126464844,22.849102020263672,122.95475006103516,2.9500129222869873,0.0,0.046063072979450226,98
1670485419.94001293,113416453,0,23.656084060668945,24.735294342041016,23.45121955871582,123.60694122314453,2.9654412269592285,0.0,0.04601935297250748,98
1670485420.04008698,113516527,0,23.580833435058594,24.675949096679688,23.73785400390625,124.2668685913086,2.9810028076171875,0.0,0.04613369703292847,98
1670485420.14000607,113616446,0,23.551250457763672,24.657636642456055,23.905414581298828,124.930419921875,2.9966304302215576,0.0,0.04628179967403412,98
1670485420.24000001,113716440,0,23.625736236572266,24.702287673950195,23.25296974182129,125.57630157470703,3.011889934539795,0.0,0.046297356486320496,98
1670485420.33999515,113816435,0,23.650148391723633,24.720306396484375,23.114870071411133,126.21844482421875,3.0270767211914062,0.0,0.046297356486320496,98
1670485420.44004607,113916486,0,23.59281349182129,24.669897079467773,23.21307373046875,126.8636245727539,3.0422983169555664,0.0,0.04639987647533417,98
1670485420.54009104,114016531,0,23.566665649414062,24.64859390258789,23.24468421936035,127.50965118408203,3.057523012161255,0.0,0.04654521495103836,98
1670485420.63999009,114116430,0,23.604482650756836,24.669370651245117,22.878564834594727,128.14456176757812,3.072509527206421,0.0,0.04654521495103836,98
1670485420.74001193,114216452,0,23.622482299804688,24.680212020874023,22.739850997924805,128.7764434814453,3.0874359607696533,0.0,0.04651438817381859,98
1670485420.83996415,114316404,0,23.645551681518555,24.691123962402344,22.47807502746582,129.40057373046875,3.10219407081604,0.0,0.04651516675949097,98
1670485420.94003010,114416470,0,23.657712936401367,24.678987503051758,21.968639373779297,130.0111846923828,3.1166396141052246,0.0,0.046487804502248764,98
1670485421.03998494,114516425,0,23.64823341369629,24.6806697845459,22.217220306396484,130.62818908691406,3.131230592727661,0.0,0.046470098197460175,98
1670485421.13997006,114616410,0,23.604578018188477,24.638154983520508,22.241771697998047,131.2459716796875,3.145813226699829,0.0,0.046470098197460175,98
1670485421.24002814,114716468,0,23.595577239990234,24.6245059967041,22.141725540161133,131.86141967773438,3.1603353023529053,0.0,0.046470098197460175,98
1670485421.33993006,114816370,0,23.650468826293945,24.660459518432617,21.744098663330078,132.46487426757812,3.174607276916504,0.0,0.0464489683508873,98
1670485421.44003510,114916475,0,23.66766929626465,24.678571701049805,21.751976013183594,133.0697784423828,3.1889238357543945,0.0,0.046474047005176544,98
1670485421.54002810,115016468,0,23.647661209106445,24.66468620300293,21.889463424682617,133.67782592773438,3.2033026218414307,0.0,0.04646184295415878,98
1670485421.64007401,115116514,0,23.628034591674805,24.63172721862793,21.602519989013672,134.27781677246094,3.2174792289733887,0.0,0.04646184295415878,98
1670485421.74001813,115216458,0,23.654935836791992,24.62373924255371,20.892074584960938,134.8582763671875,3.2312099933624268,0.0,0.04637185111641884,98
1670485421.84001398,115316454,0,23.678964614868164,24.661157608032227,21.173797607421875,135.4464569091797,3.2451374530792236,0.0,0.04638714715838432,98
1670485421.94003415,115416474,0,23.679157257080078,24.65821647644043,21.10382652282715,136.0328369140625,3.2590227127075195,0.0,0.04639245569705963,98
1670485422.04007411,115516514,0,23.685571670532227,24.66836166381836,21.171648025512695,136.6212158203125,3.272958755493164,0.0,0.046420082449913025,98
1670485422.13997698,115616417,0,23.640045166015625,24.611909866333008,20.93630027770996,137.2022705078125,3.2866947650909424,0.0,0.046420082449913025,98
1670485422.23999214,115716432,0,23.67513656616211,24.627622604370117,20.54283332824707,137.7730255126953,3.3002076148986816,0.0,0.04636587202548981,98
1670485422.33998203,115816422,0,23.707592010498047,24.68966293334961,21.135129928588867,138.3600311279297,3.31412410736084,0.0,0.046466290950775146,98
1670485422.43998313,115916423,0,23.714866638183594,24.685867309570312,20.865066528320312,138.93972778320312,3.327871561050415,0.0,0.0465371236205101,98
1670485422.53998208,116016422,0,23.69457244873047,24.668777465820312,20.92644500732422,139.52105712890625,3.341646194458008,0.0,0.04655374586582184,98
1670485422.63999104,116116431,0,23.642969131469727,24.63326644897461,21.237323760986328,140.111083984375,3.3555960655212402,0.0,0.04663006588816643,98
1670485422.74000216,116216442,0,23.656850814819336,24.664878845214844,21.624004364013672,140.7118682861328,3.3698086738586426,0.0,0.046616166830062866,98
1670485422.83998394,116316424,0,23.659339904785156,24.67244529724121,21.747678756713867,141.31590270996094,3.3840999603271484,0.0,0.04658455774188042,98
1670485422.94000411,116416444,0,23.671531677246094,24.689983367919922,21.8624210357666,141.92335510253906,3.398479461669922,0.0,0.04658455774188042,98
1670485423.04000211,116516442,0,23.636075973510742,24.651294708251953,21.774993896484375,142.52825927734375,3.4127769470214844,0.0,0.04662312939763069,98
1670485423.14002299,116616463,0,23.62238311767578,24.662729263305664,22.31174087524414,143.14820861816406,3.4274215698242188,0.0,0.04662773385643959,98
1670485423.24010301,116716543,0,23.621618270874023,24.641342163085938,21.841894149780273,143.75546264648438,3.441765785217285,0.0,0.04668661952018738,98
1670485423.33997512,116816415,0,23.643733978271484,24.669757843017578,21.986745834350586,144.365478515625,3.456188678741455,0.0,0.04666554555296898,98
1670485423.43999696,116916437,0,23.654935836791992,24.655582427978516,21.45030403137207,144.9615020751953,3.470287561416626,0.0,0.0466495044529438,98
1670485423.54000616,117016446,0,23.623916625976562,24.61316680908203,21.20602035522461,145.5506591796875,3.484205722808838,0.0,0.0466495044529438,98
1670485423.64004016,117116480,0,23.69007110595703,24.66744613647461,20.936573028564453,146.13241577148438,3.4979875087738037,0.0,0.046682655811309814,98
1670485423.73998094,117216421,0,23.70003890991211,24.67142105102539,20.792402267456055,146.70974731445312,3.5116701126098633,0.0,0.04671809822320938,98
1670485423.83999896,117316439,0,23.728845596313477,24.682449340820312,20.388469696044922,147.2762451171875,3.5251123905181885,0.0,0.046771708875894547,98
1670485423.93997312,117416413,0,23.717069625854492,24.6826229095459,20.625080108642578,147.84906005859375,3.5386979579925537,0.0,0.04681455343961716,98
1670485424.03998995,117516430,0,23.671594619750977,24.664325714111328,21.201416015625,148.43814086914062,3.552642345428467,0.0,0.04682380333542824,98
1670485424.13997602,117616416,0,23.596248626708984,24.604307174682617,21.454599380493164,149.03404235839844,3.5667033195495605,0.0,0.0469856821000576,98
1670485424.23997593,117716416,0,23.640575408935547,24.631519317626953,21.09032440185547,149.61996459960938,3.580554723739624,0.0,0.0469856821000576,98
1670485424.33994508,117816385,0,23.67475128173828,24.67730140686035,21.33736801147461,150.21253967285156,3.594583749771118,0.0,0.0469856821000576,98
1670485424.44002604,117916466,0,23.700220108032227,24.68242645263672,20.880104064941406,150.79306030273438,3.608341932296753,0.0,0.04704027250409126,98
1670485424.54004598,118016486,0,23.639617919921875,24.667863845825195,21.863786697387695,151.4005584716797,3.6227030754089355,0.0,0.047029610723257065,98
1670485424.64004517,118116485,0,23.61137580871582,24.627445220947266,21.561704635620117,151.99929809570312,3.636840343475342,0.0,0.04712381586432457,98
1670485424.74008107,118216521,0,23.65474510192871,24.62978744506836,20.69106101989746,152.57452392578125,3.650447130203247,0.0,0.04712381586432457,98
1670485424.84000301,118316443,0,23.67025375366211,24.642284393310547,20.63981056213379,153.14744567871094,3.664008378982544,0.0,0.04709497094154358,98
1670485424.93998313,118416423,0,23.648712158203125,24.65123176574707,21.28611946105957,153.73866271972656,3.6779897212982178,0.0,0.04709737375378609,98
1670485425.03998613,118516426,0,23.568866729736328,24.58748435974121,21.55219078063965,154.33740234375,3.69210147857666,0.0,0.04726283252239227,98
1670485425.14006305,118616503,0,23.616544723510742,24.662439346313477,22.1512393951416,154.95323181152344,3.7066454887390137,0.0,0.047216061502695084,98
1670485425.23997903,118716419,0,23.635021209716797,24.67699432373047,22.104896545410156,155.56678771972656,3.721146821975708,0.0,0.04713762551546097,98
1670485425.33997703,118816417,0,23.606204986572266,24.646255493164062,22.059478759765625,156.17958068847656,3.735612630844116,0.0,0.04714754968881607,98
1670485425.44000196,118916442,0,23.64344596862793,24.66901206970215,21.752283096313477,156.7840118408203,3.749903678894043,0.0,0.04714754968881607,98
1670485425.53998303,119016423,0,23.612714767456055,24.65052604675293,22.0091495513916,157.3953094482422,3.7643380165100098,0.0,0.04715359956026077,98
1670485425.63998294,119116423,0,23.57891845703125,24.609500885009766,21.80476188659668,158.0010528564453,3.778620719909668,0.0,0.04726410284638405,98
1670485425.73996902,119216409,0,23.602184295654297,24.644725799560547,22.054567337036133,158.61363220214844,3.793079137802124,0.0,0.0472710020840168,98
1670485425.83995199,119316392,0,23.633682250976562,24.676179885864258,22.05364990234375,159.22618103027344,3.807555913925171,0.0,0.0472710020840168,98
1670485425.93995500,119416395,0,23.636362075805664,24.667959213256836,21.805988311767578,159.83197021484375,3.8218746185302734,0.0,0.04730793833732605,98
1670485426.03998804,119516428,0,23.588973999023438,24.611337661743164,21.610807418823242,160.43251037597656,3.836040735244751,0.0,0.04730793833732605,97
1670485426.13998699,119616427,0,23.590024948120117,24.624282836914062,21.8342227935791,161.0390167236328,3.8503479957580566,0.0,0.04736865311861038,97
1670485426.24001312,119716453,0,23.61940574645996,24.652673721313477,21.81332015991211,161.64520263671875,3.8646655082702637,0.0,0.04736865311861038,97
1670485426.34009194,119816532,0,23.621044158935547,24.666379928588867,22.068071365356445,162.2587432861328,3.8791580200195312,0.0,0.04736865311861038,97
1670485426.44000912,119916449,0,23.60898208618164,24.647823333740234,21.92874526977539,162.86741638183594,3.8935282230377197,0.0,0.04737349599599838,97
1670485426.54002595,120016466,0,23.630619049072266,24.643566131591797,21.38831329345703,163.46163940429688,3.9075701236724854,0.0,0.047359831631183624,97
1670485426.63999104,120116431,0,23.565229415893555,24.601627349853516,21.82839012145996,164.06787109375,3.921856164932251,0.0,0.04747937619686127,97
1670485426.74000001,120216440,0,23.562259674072266,24.627519607543945,22.417924880981445,164.6906280517578,3.9365298748016357,0.0,0.047518230974674225,97
1670485426.83998108,120316421,0,23.6270751953125,24.6731014251709,22.013139724731445,165.30209350585938,3.950977087020874,0.0,0.047518230974674225,97
1670485426.94002104,120416461,0,23.64249038696289,24.65016746520996,21.2020320892334,165.89126586914062,3.9649064540863037,0.0,0.047527361661195755,97
1670485427.04001093,120516451,0,23.59184455871582,24.6400146484375,22.045669555664062,166.50369262695312,3.9793546199798584,0.0,0.047545384615659714,97
1670485427.13997102,120616411,0,23.58164405822754,24.594026565551758,21.292972564697266,167.09498596191406,3.993298053741455,0.0,0.047545384615659714,97
1670485427.23999214,120716432,0,23.62994956970215,24.651222229003906,21.465648651123047,167.69142150878906,4.007391929626465,0.0,0.04757704585790634,97
1670485427.33998203,120816422,0,23.593759536743164,24.644689559936523,22.09415626525879,168.3051300048828,4.021871566772461,0.0,0.047565948218107224,97
1670485427.43999600,120916436,0,23.633872985839844,24.65443992614746,21.44171142578125,168.90086364746094,4.035951137542725,0.0,0.04759722948074341,97
1670485427.53997803,121016418,0,23.563316345214844,24.61130142211914,21.979381561279297,169.5113525390625,4.0503363609313965,0.0,0.047680363059043884,97
1670485427.63997316,121116413,0,23.566856384277344,24.61384391784668,21.927824020385742,170.1204833984375,4.064691543579102,0.0,0.04774697124958038,97
1670485427.74002314,121216463,0,23.582748413085938,24.64534568786621,22.265094757080078,170.73931884765625,4.079285144805908,0.0,0.04772476479411125,97
1670485427.84006500,121316505,0,23.588781356811523,24.655303955078125,22.368515014648438,171.36097717285156,4.093949317932129,0.0,0.04767965152859688,97
1670485427.94005704,121416497,0,23.606639862060547,24.652809143066406,21.92789077758789,171.96971130371094,4.1083197593688965,0.0,0.047709546983242035,97
1670485428.04000807,121516448,0,23.56733512878418,24.586210250854492,21.35578155517578,172.56304931640625,4.122303009033203,0.0,0.047709546983242035,97
1670485428.14000416,121616444,0,23.57537841796875,24.62099838256836,21.90204429626465,173.1714630126953,4.136646747589111,0.0,0.04774073511362076,97
1670485428.24001098,121716451,0,23.607831954956055,24.66007423400879,22.04075813293457,173.78379821777344,4.151102542877197,0.0,0.04774073511362076,97
1670485428.34000301,121816443,0,23.57901382446289,24.630590438842773,22.01988983154297,174.3953857421875,4.165523052215576,0.0,0.04775572568178177,97
1670485428.43996716,121916407,0,23.602949142456055,24.64658546447754,21.842201232910156,175.00201416015625,4.1798415184021,0.0,0.047780752182006836,97
1670485428.53996897,122016409,0,23.566951751708984,24.624813079833984,22.124231338500977,175.61663818359375,4.194326400756836,0.0,0.04781458526849747,97
1670485428.63997006,122116410,0,23.53957176208496,24.60335350036621,22.20862579345703,176.2335968017578,4.2088494300842285,0.0,0.04789945110678673,97
1670485428.73998404,122216424,0,23.558029174804688,24.616920471191406,22.08815574645996,176.8472900390625,4.223306655883789,0.0,0.047939322888851166,97
1670485428.83998108,122316421,0,23.588781356811523,24.653301239013672,22.20555877685547,177.46414184570312,4.237857341766357,0.0,0.047939322888851166,97
1670485428.93999314,122416433,0,23.58772850036621,24.636865615844727,21.882095336914062,178.07211303710938,4.252197742462158,0.0,0.0479450449347496,97
1670485429.04001999,122516460,0,23.627939224243164,24.6619873046875,21.539302825927734,178.67062377929688,4.266339302062988,0.0,0.0480075404047966,97
1670485429.14000297,122616443,0,23.602663040161133,24.635719299316406,21.523649215698242,179.26828002929688,4.280445575714111,0.0,0.047996360808610916,97
1670485429.24005294,122716493,0,23.552207946777344,24.601364135742188,21.859079360961914,179.87600708007812,4.2947587966918945,0.0,0.047996360808610916,97
1670485429.33995700,122816397,0,23.592132568359375,24.614473342895508,21.319568634033203,180.4676513671875,4.308716773986816,0.0,0.047953151166439056,97
1670485429.44005013,122916490,0,23.568866729736328,24.63406753540039,22.21906089782715,181.0855255126953,4.32327938079834,0.0,0.047940872609615326,97
1670485429.54005408,123016494,0,23.531539916992188,24.577959060668945,21.827301025390625,181.6917266845703,4.337543964385986,0.0,0.047940872609615326,97
1670485429.64002013,123116460,0,23.539762496948242,24.59852409362793,22.057945251464844,182.30447387695312,4.351967811584473,0.0,0.047999076545238495,97
1670485429.73998809,123216428,0,23.6066837310791,24.6479434967041,21.662670135498047,182.90606689453125,4.366169452667236,0.0,0.04806702584028244,97
1670485429.83996606,123316406,0,23.58370590209961,24.634672164916992,21.864604949951172,183.51332092285156,4.380490779876709,0.0,0.04806702584028244,97
1670485429.94005394,123416494,0,23.565900802612305,24.601909637451172,21.55341911315918,184.11260986328125,4.394613742828369,0.0,0.04806702584028244,97
1670485430.03997707,123516417,0,23.571548461914062,24.633472442626953,22.105819702148438,184.7262420654297,4.4090776443481445,0.0,0.048038218170404434,97
1670485430.13999009,123616430,0,23.544837951660156,24.592830657958984,21.81580924987793,185.3323516845703,4.423348426818848,0.0,0.048038218170404434,97
1670485430.23995805,123716398,0,23.57882308959961,24.629602432250977,21.873811721801758,185.9398193359375,4.437671661376953,0.0,0.048038218170404434,97
1670485430.33997107,123816411,0,23.582069396972656,24.6401309967041,22.025413513183594,186.5517578125,4.4521026611328125,0.0,0.048038218170404434,97
1670485430.43999505,123916435,0,23.57308006286621,24.633838653564453,22.081573486328125,187.1653289794922,4.466566562652588,0.0,0.048038218170404434,97
1670485430.53994298,124016383,0,23.535551071166992,24.59558868408203,22.031551361083984,187.7770538330078,4.480963706970215,0.0,0.04811451584100723,97
1670485430.63996601,124116406,0,23.551061630249023,24.60550308227539,21.915241241455078,188.38600158691406,4.495305061340332,0.0,0.04811451584100723,97
1670485430.73997498,124216415,0,23.592897415161133,24.652359008789062,22.019582748413086,188.9977569580078,4.509737968444824,0.0,0.04811451584100723,97
1670485430.84001207,124316452,0,23.585046768188477,24.631925582885742,21.750442504882812,189.6022186279297,4.523993968963623,0.0,0.048131395131349564,97
1670485430.94010401,124416544,0,23.64019203186035,24.623180389404297,20.4259090423584,190.170166015625,4.537420272827148,0.0,0.04812455549836159,97
1670485431.04008603,124516526,0,23.56733512878418,24.593713760375977,21.32754898071289,190.76214599609375,4.5513715744018555,0.0,0.04812455549836159,97
1670485431.13996410,124616404,0,23.5914306640625,24.602535247802734,21.028024673461914,191.3458709716797,4.565142631530762,0.0,0.048083703964948654,97
1670485431.23997211,124716412,0,23.6013240814209,24.643123626708984,21.66635513305664,191.9479217529297,4.579351902008057,0.0,0.048083703964948654,97
1670485431.34001493,124816455,0,23.581026077270508,24.612863540649414,21.459203720092773,192.5443115234375,4.593415260314941,0.0,0.048083703964948654,97
1670485431.43998003,124916420,0,23.620088577270508,24.627378463745117,20.94087028503418,193.12583923339844,4.607151031494141,0.0,0.04810164123773575,97
1670485431.53998208,125016422,0,23.61223602294922,24.60908317565918,20.73586654663086,193.70188903808594,4.620752811431885,0.0,0.048073552548885345,97
1670485431.63997006,125116410,0,23.51908302307129,24.54808235168457,21.324480056762695,194.29421997070312,4.634683609008789,0.0,0.048254404217004776,97
1670485431.74002409,125216464,0,23.58935546875,24.645145416259766,21.879642486572266,194.90235900878906,4.64902925491333,0.0,0.048254404217004776,97
1670485431.83998013,125316420,0,23.58437728881836,24.633028030395508,21.731719970703125,195.50579833984375,4.6632609367370605,0.0,0.048254404217004776,97
1670485431.94002295,125416463,0,23.58428192138672,24.65375328063965,22.163206100463867,196.1217498779297,4.677787780761719,0.0,0.048254404217004776,97
1670485432.03997707,125516417,0,23.516752243041992,24.567893981933594,21.717844009399414,196.72479248046875,4.691969394683838,0.0,0.04839988425374031,97
1670485432.13994098,125616381,0,23.539188385009766,24.61605453491211,22.247295379638672,197.3426055908203,4.706511974334717,0.0,0.04840437322854996,97
1670485432.23996305,125716403,0,23.5272216796875,24.612548828125,22.41608428955078,197.9654541015625,4.721166133880615,0.0,0.04841732978820801,97
1670485432.33997703,125816417,0,23.54177474975586,24.625104904174805,22.38447380065918,198.58738708496094,4.735807418823242,0.0,0.04839648678898811,97
1670485432.44000912,125916449,0,23.545793533325195,24.625680923461914,22.322481155395508,199.20770263671875,4.750412940979004,0.0,0.04837666451931,97
1670485432.54006600,126016506,0,23.516403198242188,24.573442459106445,21.850181579589844,199.8148651123047,4.764691352844238,0.0,0.04837666451931,97
1670485432.64011812,126116558,0,23.58045196533203,24.61469078063965,21.375423431396484,200.40916442871094,4.77870512008667,0.0,0.04838445782661438,97
1670485432.73998404,126216424,0,23.626001358032227,24.62180519104004,20.571441650390625,200.97987365722656,4.79218864440918,0.0,0.04840708523988724,97
1670485432.84000397,126316444,0,23.599502563476562,24.62679672241211,21.209089279174805,201.56918334960938,4.806096076965332,0.0,0.0484364852309227,97
1670485432.94000602,126416446,0,23.605728149414062,24.62743377685547,21.082958221435547,202.1548614501953,4.819921493530273,0.0,0.04846124351024628,97
1670485433.03998613,126516426,0,23.575857162475586,24.599958419799805,21.132366180419922,202.7418212890625,4.833759307861328,0.0,0.04846124351024628,97
1670485433.14008212,126616522,0,23.550390243530273,24.573108673095703,21.10382652282715,203.32864379882812,4.847579479217529,0.0,0.04846124351024628,97
1670485433.23996305,126716403,0,23.61357879638672,24.630355834960938,20.9595890045166,203.9102020263672,4.861312389373779,0.0,0.04851134493947029,97
1670485433.33996797,126816408,0,23.610801696777344,24.60808753967285,20.562782287597656,204.48146057128906,4.874800205230713,0.0,0.048499565571546555,97
1670485433.43998504,126916425,0,23.634544372558594,24.636333465576172,20.631832122802734,205.05470275878906,4.888348579406738,0.0,0.04855554923415184,97
1670485433.54002213,127016462,0,23.581504821777344,24.56787109375,20.31420135498047,205.61923217773438,4.901660919189453,0.0,0.04855554923415184,97
1670485433.63994408,127116384,0,23.563453674316406,24.588655471801758,21.091447830200195,206.20469665527344,4.915456771850586,0.0,0.04860745370388031,97
1670485433.73999095,127216431,0,23.58437728881836,24.641826629638672,21.795555114746094,206.81045532226562,4.92974328994751,0.0,0.048516783863306046,97
1670485433.83996296,127316403,0,23.568483352661133,24.626455307006836,21.82440185546875,207.41656494140625,4.944028377532959,0.0,0.04847657307982445,97
1670485433.93999004,127416430,0,23.643733978271484,24.6346378326416,20.419466018676758,207.9839630126953,4.957443714141846,0.0,0.048527371138334274,97
1670485434.04002810,127516468,0,23.58198356628418,24.559825897216797,20.15032196044922,208.54396057128906,4.970649719238281,0.0,0.048527371138334274,97
1670485434.14005613,127616496,0,23.61309814453125,24.610010147094727,20.540990829467773,209.11474609375,4.984127521514893,0.0,0.04853277653455734,97
1670485434.24000311,127716443,0,23.637319564819336,24.634654998779297,20.523807525634766,209.68460083007812,4.9975972175598145,0.0,0.04859406501054764,97
1670485434.33996701,127816407,0,23.623533248901367,24.63047218322754,20.704870223999023,210.2592010498047,5.011171340942383,0.0,0.04863298311829567,97
1670485434.44001698,127916457,0,23.63738441467285,24.636865615844727,20.532230377197266,210.8302459716797,5.024669170379639,0.0,0.048678651452064514,97
1670485434.54002595,128016466,0,23.613386154174805,24.63538932800293,20.994882583618164,211.4135284423828,5.038442611694336,0.0,0.048678651452064514,97
1670485434.63996816,128116408,0,23.54416847229004,24.60194206237793,21.70502281188965,212.01614379882812,5.05263090133667,0.0,0.04873408377170563,97
1670485434.73999715,128216437,0,23.667381286621094,24.61710548400879,19.491432189941406,212.55776977539062,5.0654497146606445,0.0,0.048725225031375885,97
1670485434.84003711,128316477,0,23.662498474121094,24.65883445739746,20.410564422607422,213.12490844726562,5.078869342803955,0.0,0.04881475865840912,97
1670485434.93998003,128416420,0,23.636171340942383,24.67357063293457,21.251747131347656,213.7150421142578,5.092817783355713,0.0,0.04881475865840912,97
1670485435.03997517,128516415,0,23.55843162536621,24.599681854248047,21.290414810180664,214.30645751953125,5.10675048828125,0.0,0.048906996846199036,97
1670485435.13998008,128616420,0,23.554698944091797,24.63544273376465,22.102750778198242,214.92050170898438,5.121214389801025,0.0,0.04889636114239693,97
1670485435.23995900,128716399,0,23.60141944885254,24.640485763549805,21.260032653808594,215.510986328125,5.13515043258667,0.0,0.0488741360604763,97
1670485435.33996010,128816400,0,23.597705841064453,24.599700927734375,20.501541137695312,216.0805206298828,5.148590087890625,0.0,0.0488741360604763,97
1670485435.43997812,128916418,0,23.663841247558594,24.62166976928711,19.603139877319336,216.6251983642578,5.1614789962768555,0.0,0.048861004412174225,97
1670485435.54004407,129016484,0,23.63942527770996,24.57223129272461,19.140045166015625,217.15725708007812,5.174056529998779,0.0,0.04873586818575859,97
1670485435.64002299,129116463,0,23.582176208496094,24.635501861572266,21.636280059814453,217.7581787109375,5.188227653503418,0.0,0.048683349043130875,97
1670485435.74006796,129216508,0,23.592323303222656,24.639562606811523,21.53623390197754,218.3563232421875,5.2023396492004395,0.0,0.048626892268657684,97
1670485435.83999395,129316434,0,23.58016586303711,24.63406753540039,21.689064025878906,218.95880126953125,5.216546058654785,0.0,0.04859141632914543,97
1670485435.93999100,129416431,0,23.639137268066406,24.616731643676758,20.12362289428711,219.517822265625,5.229760646820068,0.0,0.04857940226793289,97
1670485436.04003811,129516478,0,23.636938095092773,24.595808029174805,19.76180076599121,220.0669403076172,5.242740154266357,0.0,0.048521388322114944,97
1670485436.13996410,129616404,0,23.580047607421875,24.547561645507812,19.93993377685547,220.62057495117188,5.255795001983643,0.0,0.048521388322114944,97
1670485436.24000907,129716449,0,23.603906631469727,24.62921142578125,21.15876007080078,221.20863342285156,5.269675254821777,0.0,0.04845766723155975,97
1670485436.33998013,129816420,0,23.638755798339844,24.651628494262695,20.90220069885254,221.78912353515625,5.283397197723389,0.0,0.04845766723155975,97
1670485436.43998098,129916421,0,23.61788558959961,24.63640785217285,21.018817901611328,222.37303161621094,5.297187805175781,0.0,0.04845766723155975,97
1670485436.53997707,130016417,0,23.594526290893555,24.583812713623047,20.415475845336914,222.94015502929688,5.310568809509277,0.0,0.04845766723155975,97
1670485436.63996601,130116406,0,23.581600189208984,24.596311569213867,20.922149658203125,223.52130126953125,5.324273109436035,0.0,0.048499349504709244,97
1670485436.73998499,130216425,0,23.585046768188477,24.623180389404297,21.419307708740234,224.11643981933594,5.3383097648620605,0.0,0.04846714809536934,97
1670485436.83996606,130316406,0,23.56063461303711,24.638154983520508,22.262638092041016,224.73477172851562,5.352878093719482,0.0,0.0484003908932209,97
1670485436.93998003,130416420,0,23.575366973876953,24.62008285522461,21.590312957763672,225.3346405029297,5.367020130157471,0.0,0.04838819429278374,97
1670485437.03997302,130516413,0,23.5467529296875,24.60211181640625,21.794326782226562,225.94004821777344,5.381275653839111,0.0,0.04842355474829674,97
1670485437.14003015,130616470,0,23.537368774414062,24.606185913085938,22.062854766845703,226.5532989501953,5.395709991455078,0.0,0.04844419285655022,97
1670485437.24003196,130716472,0,23.497636795043945,24.634998321533203,23.504924774169922,227.20628356933594,5.411053657531738,0.0,0.048388198018074036,97
1670485437.34008002,130816520,0,23.471595764160156,24.606605529785156,23.444774627685547,227.85789489746094,5.426347732543945,0.0,0.048412080854177475,97
1670485437.44000316,130916443,0,23.531049728393555,24.632471084594727,22.772380828857422,228.49002075195312,5.441222190856934,0.0,0.04836657643318176,97
1670485437.54001594,131016456,0,23.45867347717285,24.594013214111328,23.44508171081543,229.14141845703125,5.456502914428711,0.0,0.04842546582221985,97
1670485437.63997912,131116419,0,23.520614624023438,24.578853607177734,21.852941513061523,229.74819946289062,5.4707746505737305,0.0,0.04842546582221985,97
