timestamp,TimeUS,Instance,Volt,VoltR,Curr,CurrTot,EnrgTot,Temp,Res,RemPct
1667030217.87954402,89668664,0,24.76681900024414,24.807912826538086,0.24134616553783417,7.654330730438232,0.18981708586215973,0.0,0.17027199268341064,99
1667030217.97949004,89768610,0,24.759414672851562,24.797508239746094,0.22372199594974518,7.6605424880981445,0.18997088074684143,0.0,0.17027199268341064,99
1667030218.07956100,89868681,0,24.819307327270508,24.88028907775879,0.358139306306839,7.670497417449951,0.19021795690059662,0.0,0.17027199268341064,99
1667030218.17961907,89968739,0,24.815282821655273,24.874174118041992,0.3458637297153473,7.680111885070801,0.1904565393924713,0.0,0.17027199268341064,99
1667030218.27947593,90068596,0,24.78145408630371,24.828744888305664,0.2777344286441803,7.687816619873047,0.19064746797084808,0.0,0.17027199268341064,99
1667030218.37971711,90168837,0,24.747913360595703,24.780780792236328,0.1930331140756607,7.693192005157471,0.19078049063682556,0.0,0.17027199268341064,99
1667030218.47952199,90268642,0,24.799278259277344,24.85268211364746,0.31364041566848755,7.701888084411621,0.19099614024162292,0.0,0.17027199268341064,99
1667030218.57951999,90368640,0,24.81256675720215,24.87120819091797,0.34439748525619507,7.711455345153809,0.1912335306406021,0.0,0.17027199268341064,99
1667030218.67951202,90468632,0,24.821319580078125,24.883398056030273,0.3645839989185333,7.721582889556885,0.19148489832878113,0.0,0.17027199268341064,99
1667030218.77957606,90568696,0,24.745710372924805,24.77863121032715,0.1933399885892868,7.726957321166992,0.19161789119243622,0.0,0.17027199268341064,99
1667030218.87951708,90668637,0,24.77321434020996,24.81684684753418,0.2562521994113922,7.734071731567383,0.19179414212703705,0.0,0.17027199268341064,99
1667030218.97969913,90768819,0,24.805604934692383,24.86042022705078,0.32192644476890564,7.743030548095703,0.1920163631439209,0.0,0.17027199268341064,99
1667030219.07946610,90868586,0,24.80847930908203,24.8652286529541,0.3332813084125519,7.752268314361572,0.19224554300308228,0.0,0.17027199268341064,99
1667030219.17971396,90968834,0,24.80311393737793,24.857406616210938,0.3188575208187103,7.761147975921631,0.19246578216552734,0.0,0.17027199268341064,99
1667030219.27966309,91068783,0,24.79908561706543,24.85081672668457,0.3038199543952942,7.7695841789245605,0.19267497956752777,0.0,0.17027199268341064,99
1667030219.37957716,91168697,0,24.758264541625977,24.796567916870117,0.22494953870773315,7.775827884674072,0.19282956421375275,0.0,0.17027199268341064,99
1667030219.47941494,91268535,0,24.767210006713867,24.80901336669922,0.24551109969615936,7.782637119293213,0.19299821555614471,0.0,0.17027199268341064,99
1667030219.57947803,91368598,0,24.815092086791992,24.87560272216797,0.35537731647491455,7.792515754699707,0.1932433545589447,0.0,0.17027199268341064,99
1667030219.67942309,91468543,0,24.794198989868164,24.844572067260742,0.295840859413147,7.800729751586914,0.19344700872898102,0.0,0.17027199268341064,99
1667030219.77958107,91568701,0,24.768613815307617,24.809425354003906,0.2396801859140396,7.807397842407227,0.19361217319965363,0.0,0.17027199268341064,99
1667030219.87948012,91668600,0,24.748106002807617,24.781810760498047,0.197943314909935,7.812891960144043,0.1937481313943863,0.0,0.17027199268341064,99
1667030219.97983503,91768955,0,24.794775009155273,24.84817886352539,0.31364041566848755,7.821635723114014,0.19396492838859558,0.0,0.17027199268341064,99
1667030220.07953906,91868659,0,24.820743560791016,24.882770538330078,0.36427709460258484,7.831725597381592,0.19421535730361938,0.0,0.17027199268341064,99
1667030220.17972898,91968849,0,24.77829360961914,24.889610290527344,0.6680970191955566,7.850320816040039,0.19467611610889435,0.0,0.16661767661571503,99
1667030220.27953196,92068652,0,24.5013484954834,24.897327423095703,2.4103052616119385,7.917147159576416,0.19631345570087433,0.0,0.16428600251674652,99
1667030220.37960815,92168728,0,24.566926956176758,24.85208511352539,1.734604001045227,7.965371131896973,0.1974981725215912,0.0,0.16439346969127655,99
1667030220.47963095,92268751,0,24.680164337158203,24.8887996673584,1.280954122543335,8.000959396362305,0.19837650656700134,0.0,0.1628752499818802,99
1667030220.57966709,92368787,0,24.69118309020996,24.901147842407227,1.3039706945419312,8.037201881408691,0.19927136600017548,0.0,0.1610189825296402,99
1667030220.67949796,92468618,0,24.67556381225586,24.890047073364258,1.3414113521575928,8.074403762817383,0.20018933713436127,0.0,0.15989342331886292,99
1667030220.77950597,92568626,0,24.6823673248291,24.88739776611328,1.2892401218414307,8.110215187072754,0.20107325911521912,0.0,0.15903259813785553,99
1667030220.87962508,92668745,0,24.6235294342041,24.801725387573242,1.0998896360397339,8.1408109664917,0.20182664692401886,0.0,0.16201266646385193,99
1667030220.97963214,92768752,0,24.684955596923828,24.880752563476562,1.2085282802581787,8.174386978149414,0.20265546441078186,0.0,0.16201266646385193,99
1667030221.07949495,92868615,0,24.709871292114258,24.911287307739258,1.2432067394256592,8.20887565612793,0.2035076767206192,0.0,0.16201266646385193,99
1667030221.17950296,92968623,0,24.714279174804688,24.915494918823242,1.2419792413711548,8.243380546569824,0.20436044037342072,0.0,0.16201266646385193,99
1667030221.27946210,93068582,0,24.7030029296875,24.900611877441406,1.219712734222412,8.277250289916992,0.20519711077213287,0.0,0.16201266646385193,99
1667030221.37960696,93168727,0,24.672208786010742,24.85622215270996,1.1357957124710083,8.30884838104248,0.2059767097234726,0.0,0.16201266646385193,99
1667030221.47950602,93268626,0,24.637041091918945,24.808076858520508,1.0556976795196533,8.338146209716797,0.20669852197170258,0.0,0.16201266646385193,99
1667030221.57964802,93368768,0,24.688499450683594,24.880964279174805,1.1879668235778809,8.371191024780273,0.20751434564590454,0.0,0.16201266646385193,99
1667030221.67951012,93468630,0,24.71063804626465,24.91180419921875,1.241672396659851,8.405641555786133,0.20836563408374786,0.0,0.16201266646385193,99
1667030221.77955914,93568679,0,24.633974075317383,24.804513931274414,1.0526288747787476,8.434898376464844,0.2090863287448883,0.0,0.16201266646385193,99
1667030221.87950706,93668627,0,24.670005798339844,24.855112075805664,1.1425472497940063,8.466621398925781,0.20986895263195038,0.0,0.16201266646385193,99
1667030221.97961211,93768732,0,24.681121826171875,24.87075424194336,1.1704741716384888,8.499171257019043,0.2106723189353943,0.0,0.16201266646385193,99
1667030222.07974315,93868863,0,24.702972412109375,24.9023494720459,1.2306243181228638,8.533402442932129,0.21151794493198395,0.0,0.16201266646385193,99
1667030222.17965603,93968776,0,24.69741439819336,24.89345932006836,1.2100627422332764,8.566988945007324,0.21234743297100067,0.0,0.16201266646385193,99
1667030222.27946305,94068583,0,24.684581756591797,24.875974655151367,1.1818631887435913,8.599753379821777,0.21315622329711914,0.0,0.1619415581226349,99
1667030222.37946796,94168588,0,24.64834976196289,24.82452964782715,1.0879210233688354,8.62998104095459,0.21390128135681152,0.0,0.1619415581226349,99
1667030222.47940898,94268529,0,24.70191764831543,24.90006446838379,1.223565936088562,8.663951873779297,0.21474042534828186,0.0,0.1619415581226349,99
1667030222.57950902,94368629,0,24.52501678466797,24.927947998046875,3.74373722076416,8.768046379089355,0.21729335188865662,0.0,0.10762783139944077,99
1667030222.67947602,94468596,0,24.472789764404297,24.918127059936523,5.1649394035339355,8.911495208740234,0.22080394625663757,0.0,0.08622301369905472,99
1667030222.77949595,94568616,0,24.441360473632812,24.83269691467285,4.558834075927734,9.038165092468262,0.2238999307155609,0.0,0.08584141731262207,99
1667030222.87947202,94668592,0,24.458511352539062,24.783754348754883,3.75846791267395,9.142550468444824,0.22645303606987,0.0,0.08653615415096283,99
1667030222.97969198,94768812,0,24.484769821166992,24.853904724121094,4.308719635009766,9.262510299682617,0.2293902188539505,0.0,0.08567165583372116,99
1667030223.07955909,94868679,0,24.49262809753418,24.87887954711914,4.577861309051514,9.38951301574707,0.2325008511543274,0.0,0.08437395840883255,99
1667030223.17957997,94968700,0,24.490690231323242,24.880847930908203,4.69062614440918,9.519845962524414,0.2356927990913391,0.0,0.08317812532186508,99
1667030223.27950907,95068629,0,24.39718246459961,24.77185821533203,4.437920093536377,9.643043518066406,0.23869848251342773,0.0,0.08442594110965729,99
1667030223.37955594,95168676,0,24.41998863220215,24.811262130737305,4.618984699249268,9.7714204788208,0.24183344841003418,0.0,0.08470994979143143,99
1667030223.47952294,95268643,0,24.422958374023438,24.885629653930664,5.543640613555908,9.925370216369629,0.2455933690071106,0.0,0.08345995843410492,99
1667030223.57961202,95368732,0,24.38616180419922,24.887832641601562,6.0883684158325195,10.094636917114258,0.24972113966941833,0.0,0.08239838480949402,99
1667030223.67948198,95468602,0,24.300203323364258,24.8829345703125,7.135779857635498,10.292634963989258,0.2545325458049774,0.0,0.08166316151618958,99
1667030223.77965593,95568776,0,24.28793716430664,24.875852584838867,7.246873378753662,10.494303703308105,0.2594306468963623,0.0,0.08112668246030807,99
1667030223.87948012,95668600,0,24.187700271606445,24.835025787353516,7.966220855712891,10.715178489685059,0.26477310061454773,0.0,0.08125889301300049,99
1667030223.97959208,95768712,0,24.22402000427246,24.86907958984375,7.973280429840088,10.936962127685547,0.27014559507369995,0.0,0.0809025764465332,99
1667030224.07940912,95868529,0,24.258892059326172,24.88391876220703,7.7762227058410645,11.15259075164795,0.27537649869918823,0.0,0.08037658035755157,99
1667030224.17949009,95968610,0,24.20561981201172,24.914094924926758,8.903459548950195,11.400126457214355,0.2813682556152344,0.0,0.07957296818494797,99
1667030224.27948213,96068602,0,24.117938995361328,24.889850616455078,9.747711181640625,11.6708984375,0.2878987193107605,0.0,0.07918892055749893,99
1667030224.37952805,96168648,0,24.075389862060547,24.85349464416504,9.817375183105469,11.943750381469727,0.2944677472114563,0.0,0.07925797253847122,99
1667030224.47942114,96268541,0,24.045875549316406,24.803632736206055,9.48593521118164,12.206982612609863,0.30079740285873413,0.0,0.07988225668668747,99
1667030224.57977700,96368897,0,23.94027328491211,24.689163208007812,9.16278076171875,12.462435722351074,0.30691301822662354,0.0,0.08173172175884247,99
1667030224.67960811,96468728,0,23.7056827545166,24.43445587158203,8.450798988342285,12.696802139282227,0.31246882677078247,0.0,0.08623714745044708,99
1667030224.77960801,96568728,0,23.59979248046875,24.2520809173584,7.563889980316162,12.906927108764648,0.31742772459983826,0.0,0.08623714745044708,99
1667030224.87950397,96668624,0,23.905677795410156,24.62591552734375,8.26175594329834,13.136198043823242,0.32290858030319214,0.0,0.0871773362159729,99
1667030224.97966313,96768783,0,23.83437156677246,24.915077209472656,13.580856323242188,13.514078140258789,0.33191511034965515,0.0,0.07957561314105988,99
1667030225.07944798,96868568,0,23.81358528137207,24.656734466552734,10.564035415649414,13.806913375854492,0.338888555765152,0.0,0.07981310784816742,99
1667030225.17962098,96968741,0,23.919763565063477,24.733850479125977,10.251622200012207,14.092199325561523,0.3457125127315521,0.0,0.0794106051325798,99
1667030225.27972293,97068843,0,23.891494750976562,24.855920791625977,12.355652809143066,14.435771942138672,0.35392099618911743,0.0,0.07805538922548294,99
1667030225.37980103,97168921,0,23.711240768432617,24.723392486572266,12.990913391113281,14.796958923339844,0.36248520016670227,0.0,0.07791222631931305,99
1667030225.47939515,97268515,0,23.75838851928711,24.63113784790039,11.114287376403809,15.104456901550293,0.36979085206985474,0.0,0.07852504402399063,99
1667030225.57968402,97368804,0,23.58283233642578,24.4545955657959,10.830721855163574,15.406207084655762,0.37690696120262146,0.0,0.08048988878726959,99
1667030225.67946696,97468587,0,23.38015365600586,24.345430374145508,11.608071327209473,15.72797966003418,0.38443005084991455,0.0,0.08315572887659073,99
1667030225.77957511,97568695,0,23.322847366333008,24.1867618560791,10.38910961151123,16.01690101623535,0.3911685049533844,0.0,0.08315572887659073,99
1667030225.87949109,97668611,0,23.377470016479492,24.34626007080078,11.405217170715332,16.333471298217773,0.39856913685798645,0.0,0.08494263887405396,99
1667030225.97953105,97768651,0,23.5469913482666,24.696950912475586,13.73361873626709,16.715116500854492,0.4075557589530945,0.0,0.08373317122459412,99
1667030226.07948804,97868608,0,23.46611213684082,24.437320709228516,11.46383285522461,17.033464431762695,0.41502612829208374,0.0,0.08471941202878952,99
1667030226.17960310,97968723,0,23.453943252563477,24.502864837646484,12.326191902160645,17.376283645629883,0.4230665862560272,0.0,0.08509701490402222,99
1667030226.27957511,98068695,0,23.012557983398438,24.315214157104492,15.006865501403809,17.793058395385742,0.4326576292514801,0.0,0.08680405467748642,99
1667030226.37957096,98168691,0,23.029518127441406,24.24509620666504,13.681719779968262,18.173120498657227,0.4414103031158447,0.0,0.088846854865551,99
1667030226.47956014,98268680,0,23.00843620300293,24.286663055419922,14.13959789276123,18.565876007080078,0.4504469931125641,0.0,0.09040049463510513,99
1667030226.57965398,98368774,0,22.919315338134766,24.284677505493164,14.867538452148438,18.979280471801758,0.4599219262599945,0.0,0.0918351262807846,99
1667030226.67950797,98468628,0,22.89181137084961,24.264413833618164,14.713172912597656,19.387414932250977,0.4692648947238922,0.0,0.09329073876142502,99
1667030226.77971506,98568835,0,22.885391235351562,24.325359344482422,15.293498992919922,19.813152313232422,0.4790080487728119,0.0,0.09415556490421295,99
1667030226.87941599,98668536,0,22.623098373413086,24.23192024230957,16.84819984436035,20.279796600341797,0.48956498503685,0.0,0.09548920392990112,99
1667030226.97968507,98768805,0,22.732738494873047,24.36505126953125,17.035400390625,20.75431251525879,0.5003520250320435,0.0,0.09581885486841202,99
1667030227.07959604,98868716,0,22.537342071533203,24.346235275268555,18.803081512451172,21.27619743347168,0.5121139287948608,0.0,0.09620194137096405,99
1667030227.17963600,98968756,0,22.61870002746582,24.442039489746094,18.99611473083496,21.804121017456055,0.5240548849105835,0.0,0.09598490595817566,99
1667030227.27943110,99068551,0,22.508209228515625,24.249412536621094,17.967422485351562,22.302227020263672,0.5352663993835449,0.0,0.09690895676612854,99
1667030227.37961292,99168733,0,22.31913948059082,24.026161193847656,17.235797882080078,22.781856536865234,0.5459713339805603,0.0,0.09903936833143234,99
1667030227.47951007,99268630,0,22.33955192565918,24.221193313598633,18.842670440673828,23.304824829101562,0.5576542019844055,0.0,0.09986060857772827,99
1667030227.57946205,99368582,0,22.215742111206055,24.128528594970703,18.90987777709961,23.82989501953125,0.5693190097808838,0.0,0.10115277022123337,99
1667030227.67974997,99468870,0,22.312911987304688,24.25434684753418,19.10904884338379,24.362274169921875,0.5811979174613953,0.0,0.1015976294875145,99
1667030227.77968502,99568805,0,22.261716842651367,24.193265914916992,18.870254516601562,24.88614845275879,0.5928602814674377,0.0,0.10235949605703354,99
1667030227.87956715,99668687,0,22.242572784423828,24.173173904418945,18.71193504333496,25.405353546142578,0.6044087409973145,0.0,0.1031748503446579,99
1667030227.97967410,99768794,0,22.380184173583984,24.399478912353516,19.676179885864258,25.952537536621094,0.6166548132896423,0.0,0.10262636095285416,99
1667030228.07954812,99868668,0,22.462785720825195,24.710891723632812,21.90572738647461,26.560317993164062,0.6303072571754456,0.0,0.10262636095285416,99
1667030228.17964005,99968760,0,22.313199996948242,24.39846420288086,20.340288162231445,27.125885009765625,0.6429268717765808,0.0,0.10251892358064651,99
1667030228.27960110,100068721,0,22.18402099609375,24.188270568847656,19.369596481323242,27.66376304626465,0.654859185218811,0.0,0.10347400605678558,99
1667030228.37976909,100168889,0,22.171276092529297,24.230554580688477,19.774999618530273,28.214035034179688,0.6670594215393066,0.0,0.10413549840450287,99
1667030228.47954607,100268666,0,22.151058197021484,24.259111404418945,20.15400505065918,28.77267074584961,0.6794337630271912,0.0,0.10459721833467484,99
1667030228.57955694,100368677,0,22.12307357788086,24.186704635620117,19.582578659057617,29.316734313964844,0.6914701461791992,0.0,0.10538095980882645,99
1667030228.67946696,100468587,0,22.227859497070312,24.329160690307617,19.939594268798828,29.870113372802734,0.7037705779075623,0.0,0.10538338124752045,99
1667030228.77952194,100568642,0,22.250141143798828,24.34486198425293,19.89161491394043,30.423049926757812,0.7160735130310059,0.0,0.10530676692724228,99
1667030228.87946105,100668581,0,22.27055549621582,24.37523078918457,19.98613739013672,30.97792625427246,0.7284309267997742,0.0,0.10530676692724228,99
1667030228.97952199,100768642,0,22.28090476989746,24.39798927307129,20.103981018066406,31.536754608154297,0.740882158279419,0.0,0.10530676692724228,99
1667030229.07947612,100868596,0,22.440841674804688,24.578481674194336,20.299163818359375,32.100406646728516,0.7535309791564941,0.0,0.10530676692724228,99
1667030229.17976213,100968882,0,22.78199005126953,24.53538703918457,16.551130294799805,32.5615119934082,0.7640358805656433,0.0,0.10593820363283157,99
1667030229.27956414,101068684,0,22.549894332885742,24.34660530090332,17.011157989501953,33.033145904541016,0.774671196937561,0.0,0.10561951249837875,99
1667030229.37964010,101168760,0,22.560531616210938,24.394241333007812,17.368375778198242,33.51594161987305,0.7855633497238159,0.0,0.10557746142148972,99
1667030229.47973299,101268853,0,22.640453338623047,24.573328018188477,18.18316650390625,34.0216064453125,0.7970117926597595,0.0,0.10630019754171371,99
1667030229.57972503,101368845,0,22.709449768066406,24.67418098449707,18.314104080200195,34.530330657958984,0.8085646629333496,0.0,0.10727972537279129,99
1667030229.67955303,101468673,0,22.670734405517578,24.552331924438477,17.500030517578125,35.01564407348633,0.819567084312439,0.0,0.10751964896917343,99
1667030229.77968216,101568802,0,22.666805267333984,24.569713592529297,17.65593147277832,35.50675964355469,0.83069908618927,0.0,0.10777723789215088,99
1667030229.87949204,101668612,0,22.555644989013672,24.412214279174805,17.22597885131836,35.9843864440918,0.841472327709198,0.0,0.10777723789215088,99
1667030229.97954392,101768664,0,22.643327713012695,24.575084686279297,17.874128341674805,36.4811897277832,0.8527215719223022,0.0,0.10807555913925171,99
1667030230.07971215,101868832,0,22.64131736755371,24.568437576293945,17.798019409179688,36.97644805908203,0.8639348745346069,0.0,0.10827720165252686,99
1667030230.17966604,101968786,0,22.61496353149414,24.520410537719727,17.605600357055664,37.465301513671875,0.8749902844429016,0.0,0.1082296371459961,99
1667030230.27943015,102068550,0,22.534658432006836,24.406593322753906,17.295948028564453,37.94465255737305,0.8857923150062561,0.0,0.1082296371459961,99
1667030230.37955308,102168673,0,22.565227508544922,24.48685073852539,17.755056381225586,38.43849563598633,0.8969359993934631,0.0,0.1082296371459961,99
1667030230.47949600,102268616,0,22.658340454101562,24.60814094543457,18.015399932861328,38.93867874145508,0.9082692861557007,0.0,0.1082296371459961,99
1667030230.57954907,102368669,0,22.638248443603516,24.568174362182617,17.799861907958984,39.433414459228516,0.9194692969322205,0.0,0.10842366516590118,99
1667030230.67939901,102468519,0,22.615442276000977,24.55345344543457,17.874435424804688,39.929222106933594,0.9306821823120117,0.0,0.10842366516590118,99
1667030230.77975297,102568873,0,22.630102157592773,24.567049026489258,17.86461639404297,40.427249908447266,0.9419525861740112,0.0,0.10842366516590118,99
1667030230.87956810,102668688,0,22.68099021911621,24.632644653320312,18.000259399414062,40.9263801574707,0.9532734155654907,0.0,0.10842366516590118,99
1667030230.97969508,102768815,0,22.585830688476562,24.51915168762207,17.83116340637207,41.42236328125,0.9644756317138672,0.0,0.10842366516590118,99
1667030231.07952309,102868643,0,22.639305114746094,24.55878257751465,17.69766616821289,41.91315841674805,0.9755868911743164,0.0,0.10845935344696045,99
1667030231.17957115,102968691,0,22.56791114807129,24.479167938232422,17.62186622619629,42.40291976928711,0.9866397380828857,0.0,0.10845935344696045,99
1667030231.27973604,103068856,0,22.515108108520508,24.415679931640625,17.52335548400879,42.89052200317383,0.9976181387901306,0.0,0.10845935344696045,99
1667030231.37968612,103168806,0,22.46316909790039,24.355234146118164,17.444927215576172,43.374908447265625,1.008499026298523,0.0,0.10845935344696045,99
1667030231.47954607,103268666,0,22.583820343017578,24.50918960571289,17.751985549926758,43.86736297607422,1.0196205377578735,0.0,0.10845935344696045,99
1667030231.57964802,103368768,0,22.513669967651367,24.444942474365234,17.765796661376953,44.36140441894531,1.0307432413101196,0.0,0.10870737582445145,99
1667030231.67951393,103468634,0,22.541845321655273,24.49353790283203,17.956375122070312,44.85955810546875,1.0419725179672241,0.0,0.10869082063436508,99
1667030231.77943707,103568557,0,22.529102325439453,24.5079345703125,18.220605850219727,45.36527633666992,1.05336594581604,0.0,0.10860411077737808,99
1667030231.87947607,103668596,0,22.42110252380371,24.352874755859375,17.787277221679688,45.859657287597656,1.0644505023956299,0.0,0.10860411077737808,99
1667030231.97960806,103768728,0,22.37769317626953,24.310932159423828,17.800783157348633,46.35478591918945,1.0755302906036377,0.0,0.10860411077737808,99
1667030232.07946301,103868583,0,22.400785446166992,24.363075256347656,18.002716064453125,46.854209899902344,1.0867178440093994,0.0,0.10899963974952698,99
1667030232.17953205,103968652,0,22.50849723815918,24.530763626098633,18.552967071533203,47.36996841430664,1.0983268022537231,0.0,0.10899963974952698,99
1667030232.27949715,104068617,0,22.47584342956543,24.41684341430664,17.807397842407227,47.86448669433594,1.1094415187835693,0.0,0.10899963974952698,99
1667030232.37981105,104168931,0,22.570114135742188,24.563344955444336,18.286588668823242,48.37408447265625,1.1209431886672974,0.0,0.10899963974952698,99
1667030232.47956896,104268689,0,22.615249633789062,24.597442626953125,18.185314178466797,48.8780517578125,1.1323405504226685,0.0,0.10899963974952698,99
1667030232.57974601,104368866,0,22.65837287902832,24.659465789794922,18.358705520629883,49.38895797729492,1.1439168453216553,0.0,0.10899963974952698,99
1667030232.67962313,104468743,0,22.814956665039062,24.843847274780273,18.61372947692871,49.90541076660156,1.1556997299194336,0.0,0.10899963974952698,99
1667030232.77975893,104568879,0,22.57442855834961,24.576602935791016,18.373743057250977,50.416526794433594,1.1672378778457642,0.0,0.10896936804056168,99
1667030232.87963700,104668757,0,22.647449493408203,24.699485778808594,18.831315994262695,50.939022064208984,1.179071068763733,0.0,0.10896936804056168,99
1667030232.97966814,104768788,0,22.699867248535156,24.752506256103516,18.83683967590332,51.46247100830078,1.190953254699707,0.0,0.10896936804056168,99
1667030233.07979703,104868917,0,22.839967727661133,24.927947998046875,19.399978637695312,52.00209045410156,1.2032781839370728,0.0,0.10762792825698853,99
1667030233.17978096,104968901,0,22.852872848510742,24.927738189697266,19.359912872314453,52.53982925415039,1.2155669927597046,0.0,0.10717330127954483,99
1667030233.27963710,105068757,0,22.77806282043457,24.832685470581055,19.171039581298828,53.071632385253906,1.2276804447174072,0.0,0.10717330127954483,99
1667030233.37960815,105168728,0,22.637195587158203,24.66176414489746,18.845430374145508,53.59500503540039,1.2395281791687012,0.0,0.10743021965026855,99
1667030233.47959399,105268714,0,22.67936134338379,24.768203735351562,19.49787712097168,54.136573791503906,1.2518106698989868,0.0,0.10713179409503937,99
1667030233.57956600,105368686,0,22.76848030090332,24.844369888305664,19.376962661743164,54.67470932006836,1.2640632390975952,0.0,0.10713179409503937,99
1667030233.67996097,105469081,0,22.770204544067383,24.781234741210938,18.738019943237305,55.19731140136719,1.2759630680084229,0.0,0.10732349008321762,99
1667030233.77975297,105568873,0,22.785728454589844,24.78145408630371,18.56984519958496,55.71210861206055,1.2876931428909302,0.0,0.10747126489877701,99
1667030233.87954998,105668670,0,22.6407413482666,24.538742065429688,17.660533905029297,56.20172882080078,1.2987784147262573,0.0,0.10747126489877701,99
1667030233.97971106,105768831,0,22.670448303222656,24.60759735107422,18.024808883666992,56.70326232910156,1.3101484775543213,0.0,0.10747126489877701,99
1667030234.07962894,105868749,0,22.65567970275879,24.62831687927246,18.355022430419922,57.212745666503906,1.3216911554336548,0.0,0.10747126489877701,99
1667030234.17986012,105968980,0,22.60173797607422,24.56570053100586,18.274311065673828,57.721580505371094,1.3331916332244873,0.0,0.10747126489877701,99
1667030234.27964306,106068763,0,22.579124450683594,24.57510757446289,18.492815017700195,58.23419189453125,1.3447659015655518,0.0,0.10793286561965942,99
1667030234.37978911,106168909,0,22.613525390625,24.572608947753906,18.150941848754883,58.73915481567383,1.356184959411621,0.0,0.10793286561965942,99
1667030234.47963095,106268751,0,22.63901710510254,24.619001388549805,18.344589233398438,59.24797439575195,1.3677040338516235,0.0,0.10793286561965942,99
1667030234.57975101,106368871,0,22.687219619750977,24.661815643310547,18.27952766418457,59.75638961791992,1.3792386054992676,0.0,0.10802227258682251,99
1667030234.67985201,106468972,0,22.58036994934082,24.516942977905273,17.927528381347656,60.254920959472656,1.3904955387115479,0.0,0.10802227258682251,99
1667030234.77981400,106568934,0,22.61065101623535,24.63849449157715,18.784975051879883,60.77656936645508,1.4022903442382812,0.0,0.10795029252767563,99
1667030234.87959409,106668714,0,22.56513214111328,24.569116592407227,18.515832901000977,61.2898063659668,1.4138716459274292,0.0,0.10823087394237518,99
1667030234.97964907,106768769,0,22.58444595336914,24.552610397338867,18.184871673583984,61.79526138305664,1.4252870082855225,0.0,0.10823087394237518,99
1667030235.07953906,106868659,0,22.657413482666016,24.695709228515625,18.83285140991211,62.31786346435547,1.4371278285980225,0.0,0.10823087394237518,99
1667030235.17968011,106968800,0,22.701974868774414,24.722135543823242,18.665287017822266,62.83711624145508,1.4489158391952515,0.0,0.10823087394237518,99
1667030235.27964711,107068767,0,22.76416778564453,24.77326774597168,18.563093185424805,63.35256576538086,1.4606496095657349,0.0,0.10823087394237518,99
1667030235.37958694,107168707,0,22.715198516845703,24.706758499145508,18.369140625,63.86260986328125,1.4722353219985962,0.0,0.1084187775850296,99
1667030235.47965598,107268776,0,22.682140350341797,24.681882858276367,18.437883377075195,64.37517547607422,1.4838613271713257,0.0,0.10845837742090225,99
1667030235.57982707,107368947,0,22.709640502929688,24.76540184020996,18.954376220703125,64.90262603759766,1.4958394765853882,0.0,0.10845837742090225,99
1667030235.67964005,107468760,0,22.6701602935791,24.737899780273438,19.107208251953125,65.43243408203125,1.5078504085540771,0.0,0.10821772366762161,99
1667030235.77968216,107568802,0,22.69411849975586,24.782747268676758,19.30023956298828,65.96881866455078,1.520023226737976,0.0,0.10821772366762161,99
1667030235.87963605,107668756,0,22.610321044921875,24.701168060302734,19.313879013061523,66.5051040649414,1.532148838043213,0.0,0.10825622826814651,99
1667030235.98068309,107769803,0,22.544336318969727,24.633609771728516,19.2330322265625,67.04499053955078,1.5443202257156372,0.0,0.10862941294908524,99
1667030236.07962608,107868746,0,22.649078369140625,24.79942512512207,19.795251846313477,67.5890884399414,1.5566436052322388,0.0,0.10862941294908524,99
1667030236.17975807,107968878,0,22.706480026245117,24.873994827270508,19.95330047607422,68.14412689208984,1.5692466497421265,0.0,0.10862941294908524,99
1667030236.27977800,108068898,0,22.66498565673828,24.798864364624023,19.643648147583008,68.68993377685547,1.5816174745559692,0.0,0.10862941294908524,99
1667030236.37983298,108168953,0,22.572704315185547,24.70456314086914,19.58135223388672,69.23419952392578,1.5939030647277832,0.0,0.10887186229228973,99
1667030236.47964811,108268768,0,22.632404327392578,24.80916404724121,20.049663543701172,69.79002380371094,1.606482744216919,0.0,0.10856835544109344,99
1667030236.57971501,108368835,0,22.623777389526367,24.761808395385742,19.700117111206055,70.33778381347656,1.6188750267028809,0.0,0.10852888226509094,99
1667030236.67958903,108468709,0,22.548553466796875,24.64988136291504,19.36192512512207,70.87491607666016,1.6309865713119507,0.0,0.10852888226509094,99
1667030236.77964616,108568766,0,22.589664459228516,24.68737030029297,19.328542709350586,71.41213989257812,1.6431223154067993,0.0,0.10852888226509094,99
1667030236.87958097,108668701,0,22.518461227416992,24.563669204711914,18.844818115234375,71.93533325195312,1.6549038887023926,0.0,0.10852888226509094,99
1667030236.98067808,108769798,0,22.598480224609375,24.679391860961914,19.17380142211914,72.47389221191406,1.66707444190979,0.0,0.10852888226509094,99
1667030237.07962012,108868740,0,22.642370223999023,24.705453872680664,19.003786087036133,72.99622344970703,1.6789013147354126,0.0,0.10856170207262039,99
1667030237.17974401,108968864,0,22.582189559936523,24.60879135131836,18.667743682861328,73.51546478271484,1.690626859664917,0.0,0.10856170207262039,99
1667030237.27962899,109068749,0,22.54357147216797,24.53829002380371,18.37405014038086,74.02530670166016,1.7021205425262451,0.0,0.10856170207262039,99
1667030237.37966895,109168789,0,22.523447036743164,24.515766143798828,18.35195541381836,74.53532409667969,1.713607907295227,0.0,0.10856170207262039,99
1667030237.47967815,109268798,0,22.548553466796875,24.528879165649414,18.241474151611328,75.04212188720703,1.725035548210144,0.0,0.10856170207262039,99
1667030237.57972407,109368844,0,22.54749870300293,24.546180725097656,18.41057014465332,75.55380249023438,1.7365726232528687,0.0,0.10856170207262039,99
1667030237.67976308,109468883,0,22.59221839904785,24.576557159423828,18.299442291259766,76.06236267089844,1.748062014579773,0.0,0.10843709856271744,99
1667030237.77978611,109568906,0,22.527280807495117,24.499675750732422,18.189302444458008,76.56777954101562,1.759447693824768,0.0,0.10843709856271744,99
1667030237.87966204,109668782,0,22.463457107543945,24.415252685546875,17.999340057373047,77.06718444824219,1.7706660032272339,0.0,0.10843709856271744,99
1667030237.97965407,109768774,0,22.490482330322266,24.509868621826172,18.584270477294922,77.58341217041016,1.7822761535644531,0.0,0.10866102576255798,99
1667030238.07950306,109868623,0,22.54596710205078,24.593698501586914,18.845125198364258,78.10614013671875,1.794061541557312,0.0,0.10866102576255798,99
1667030238.17966795,109968788,0,22.524789810180664,24.531169891357422,18.464584350585938,78.61993408203125,1.805634617805481,0.0,0.10866102576255798,99
1667030238.27950907,110068629,0,22.504087448120117,24.509334564208984,18.454147338867188,79.13177490234375,1.8171530961990356,0.0,0.10866102576255798,99
1667030238.37971997,110168840,0,22.419857025146484,24.42506980895996,18.453842163085938,79.6455078125,1.828670859336853,0.0,0.10866102576255798,99
1667030238.47960114,110268721,0,22.532455444335938,24.592456817626953,18.958059310913086,80.1715087890625,1.8405230045318604,0.0,0.10866102576255798,98
1667030238.57960510,110368725,0,22.57538414001465,24.638153076171875,18.983530044555664,80.69892120361328,1.8524295091629028,0.0,0.10866102576255798,98
1667030238.67982793,110468948,0,22.569435119628906,24.650352478027344,19.15054702758789,81.23211669921875,1.864463448524475,0.0,0.10866102576255798,98
1667030238.77975297,110568873,0,22.522584915161133,24.561471939086914,18.756433486938477,81.75277709960938,1.8761900663375854,0.0,0.10870335251092911,98
1667030238.87967396,110668794,0,22.480804443359375,24.552444458007812,19.043067932128906,82.2813720703125,1.8880733251571655,0.0,0.10878711193799973,98
1667030238.97960114,110768721,0,22.357280731201172,24.484790802001953,19.48222541809082,82.82219696044922,1.9001647233963013,0.0,0.10920261591672897,98
1667030239.07965493,110868775,0,22.465564727783203,24.563182830810547,19.210935592651367,83.35614013671875,1.9121601581573486,0.0,0.10918870568275452,98
1667030239.17975593,110968876,0,22.482624053955078,24.587894439697266,19.305150985717773,83.89299774169922,1.9242302179336548,0.0,0.10905229300260544,98
1667030239.27968502,111068805,0,22.432504653930664,24.520490646362305,19.109355926513672,84.42347717285156,1.936130166053772,0.0,0.10926506668329239,98
1667030239.37969613,111168816,0,22.416120529174805,24.489484786987305,18.975553512573242,84.95068359375,1.9479480981826782,0.0,0.10926506668329239,98
1667030239.47974896,111268869,0,22.516088485717773,24.63059425354004,19.352069854736328,85.48857116699219,1.9600591659545898,0.0,0.10926506668329239,98
1667030239.57974005,111368860,0,22.475820541381836,24.59522819519043,19.426984786987305,86.0281982421875,1.9721877574920654,0.0,0.10909609496593475,98
1667030239.67956996,111468690,0,22.463552474975586,24.557479858398438,19.187305450439453,86.56031799316406,1.9841409921646118,0.0,0.10913088917732239,98
1667030239.77965212,111568772,0,22.487703323364258,24.56515884399414,19.035396575927734,87.08955383300781,1.9960423707962036,0.0,0.10913646221160889,98
1667030239.87952614,111668646,0,22.502460479736328,24.569307327270508,18.934429168701172,87.61487579345703,2.0078632831573486,0.0,0.10915816575288773,98
1667030239.97975016,111768870,0,22.455215454101562,24.465181350708008,18.413331985473633,88.1275634765625,2.019375801086426,0.0,0.10915816575288773,98
1667030240.07961893,111868739,0,22.484827041625977,24.524625778198242,18.703956604003906,88.64647674560547,2.031043529510498,0.0,0.10905709862709045,98
1667030240.17964602,111968766,0,22.416885375976562,24.414613723754883,18.318195343017578,89.15548706054688,2.0424540042877197,0.0,0.10905709862709045,98
1667030240.27967501,112068795,0,22.47170066833496,24.550155639648438,19.058412551879883,89.6850814819336,2.0543549060821533,0.0,0.10905709862709045,98
1667030240.37974405,112168864,0,22.526514053344727,24.587900161743164,18.901899337768555,90.21054077148438,2.0661916732788086,0.0,0.10905709862709045,98
1667030240.47975111,112268871,0,22.52194595336914,24.596019744873047,19.01824378967285,90.73890686035156,2.0780913829803467,0.0,0.10905709862709045,98
1667030240.57980108,112368921,0,22.463359832763672,24.57444953918457,19.38248634338379,91.27761840820312,2.0901927947998047,0.0,0.10891735553741455,98
1667030240.68068695,112469807,0,22.398006439208984,24.55219841003418,19.78113555908203,91.8320083618164,2.1026101112365723,0.0,0.10890129953622818,98
1667030240.78072000,112569840,0,22.41583251953125,24.514272689819336,19.238248825073242,92.36662292480469,2.114593982696533,0.0,0.10907649248838425,98
1667030240.87963605,112668756,0,22.38372802734375,24.415822982788086,18.629995346069336,92.87855529785156,2.1260528564453125,0.0,0.10907649248838425,98
1667030240.97980905,112768929,0,22.47160530090332,24.573928833007812,19.273849487304688,93.41490936279297,2.138105630874634,0.0,0.10907649248838425,98
1667030241.07968903,112868809,0,22.381715774536133,24.471187591552734,19.10198974609375,93.9449234008789,2.149968147277832,0.0,0.10938508063554764,98
1667030241.17957997,112968700,0,22.353349685668945,24.37759780883789,18.505706787109375,94.45845794677734,2.161447286605835,0.0,0.10938508063554764,98
1667030241.27955914,113068679,0,22.454736709594727,24.589527130126953,19.51629066467285,95.00044250488281,2.173617362976074,0.0,0.10938508063554764,98
1667030241.37962508,113168745,0,22.44687843322754,24.590299606323242,19.595195770263672,95.54521942138672,2.1858458518981934,0.0,0.10938508063554764,98
1667030241.47958207,113268702,0,22.445154190063477,24.51853370666504,18.962661743164062,96.07177734375,2.197664499282837,0.0,0.10934007167816162,98
1667030241.57961392,113368734,0,22.516645431518555,24.610057830810547,19.145877838134766,96.60382080078125,2.209644317626953,0.0,0.10934007167816162,98
1667030241.67954993,113468670,0,22.445825576782227,24.447664260864258,18.308374404907227,97.11209869384766,2.221052885055542,0.0,0.10934007167816162,98
1667030241.77982593,113568946,0,22.562641143798828,24.64291000366211,18.939952850341797,97.63970947265625,2.232957124710083,0.0,0.1098349317908287,98
1667030241.87961292,113668733,0,22.586885452270508,24.68754768371582,19.125621795654297,98.16988372802734,2.244932174682617,0.0,0.1098349317908287,98
1667030241.97984195,113768962,0,22.596277236938477,24.63580894470215,18.52596092224121,98.68572235107422,2.2565882205963135,0.0,0.11009050905704498,98
1667030242.07968402,113868804,0,22.526227951049805,24.604724884033203,18.86875343322754,99.20906829833984,2.2683773040771484,0.0,0.11015551537275314,98
1667030242.17969203,113968812,0,22.862106323242188,24.927570343017578,19.33860206604004,99.746337890625,2.280660390853882,0.0,0.10680520534515381,98
1667030242.27978206,114068902,0,22.632892608642578,24.619047164916992,18.579051971435547,100.26293182373047,2.2923524379730225,0.0,0.10690292716026306,98
1667030242.37977195,114168892,0,22.405288696289062,24.48586082458496,19.357629776000977,100.8006362915039,2.3043997287750244,0.0,0.10748071223497391,98
1667030242.48064208,114269762,0,22.41956901550293,24.63210678100586,20.625080108642578,101.37857818603516,2.317357063293457,0.0,0.10727417469024658,98
1667030242.58066797,114369788,0,22.337923049926758,24.671833038330078,21.836061477661133,101.9853515625,2.3309109210968018,0.0,0.10688331723213196,98
1667030242.68056893,114469689,0,22.38516616821289,24.737058639526367,22.145408630371094,102.59994506835938,2.3446686267852783,0.0,0.10620227456092834,98
1667030242.78065896,114569779,0,22.363414764404297,24.68421745300293,21.92659568786621,103.20954895019531,2.3583014011383057,0.0,0.1058441773056984,98
1667030242.87964892,114668769,0,22.298919677734375,24.616106033325195,21.889768600463867,103.81156921386719,2.3717257976531982,0.0,0.10585705935955048,98
1667030242.97975993,114768880,0,22.17290496826172,24.464357376098633,21.49020004272461,104.40922546386719,2.3849775791168213,0.0,0.10662776976823807,98
1667030243.07964516,114868765,0,22.55545425415039,24.923534393310547,24.161975860595703,105.07959747314453,2.4000980854034424,0.0,0.09800852090120316,98
1667030243.17972207,114968842,0,22.594562530517578,24.534013748168945,19.7697811126709,105.62928771972656,2.41251802444458,0.0,0.09810183942317963,98
1667030243.27956510,115068685,0,22.512332916259766,24.267736434936523,18.06930923461914,106.1304702758789,2.4238007068634033,0.0,0.0971483439207077,98
1667030243.37968802,115168808,0,22.386123657226562,24.26447868347168,19.334917068481445,106.66825866699219,2.4358396530151367,0.0,0.0971483439207077,98
1667030243.47962093,115268741,0,22.45502471923828,24.43387222290039,20.362382888793945,107.2335433959961,2.448533296585083,0.0,0.09718151390552521,98
1667030243.57967710,115368797,0,22.57969856262207,24.542987823486328,20.110734939575195,107.79253387451172,2.4611551761627197,0.0,0.09762392938137054,98
1667030243.67962694,115468747,0,22.549224853515625,24.488496780395508,19.837909698486328,108.34335327148438,2.4735758304595947,0.0,0.09775584191083908,98
1667030243.77974701,115568867,0,22.525938034057617,24.52560043334961,20.455678939819336,108.91229248046875,2.48639178276062,0.0,0.09775584191083908,98
1667030243.87963009,115668750,0,22.39618492126465,24.464868545532227,21.154157638549805,109.499267578125,2.499537706375122,0.0,0.09779088199138641,98
1667030243.97973299,115768853,0,22.17827033996582,24.279644012451172,21.29839515686035,110.0913314819336,2.5126686096191406,0.0,0.09866349399089813,98
1667030244.08064699,115869767,0,22.252731323242188,24.394515991210938,21.647939682006836,110.69842529296875,2.5261781215667725,0.0,0.09893714636564255,98
1667030244.18083310,115969953,0,22.22296142578125,24.40009307861328,21.95551300048828,111.30948638916016,2.53975772857666,0.0,0.0991610586643219,98
1667030244.27958608,116068706,0,22.218233108520508,24.351665496826172,21.423297882080078,111.89720153808594,2.5528156757354736,0.0,0.09958471357822418,98
1667030244.37972307,116168843,0,22.241422653198242,24.29353141784668,20.606666564941406,112.47040557861328,2.5655646324157715,0.0,0.09958471357822418,98
1667030244.47956896,116268689,0,22.280426025390625,24.237733840942383,19.65469741821289,113.0156021118164,2.577711820602417,0.0,0.09958471357822418,98
1667030244.57971597,116368836,0,22.400785446166992,24.356626510620117,19.6605281829834,113.56256866455078,2.5899643898010254,0.0,0.09948060661554337,98
1667030244.67962003,116468740,0,22.33073616027832,24.252384185791016,19.31681251525879,114.09867858886719,2.601936101913452,0.0,0.09948060661554337,98
1667030244.78079104,116569911,0,22.306013107299805,24.241613388061523,19.457061767578125,114.64552307128906,2.6141340732574463,0.0,0.09948060661554337,98
1667030244.87962604,116668746,0,22.248132705688477,24.212156295776367,19.742774963378906,115.18759155273438,2.6261940002441406,0.0,0.09948060661554337,98
1667030244.97963595,116768756,0,22.438682556152344,24.433364868164062,19.961416244506836,115.74217224121094,2.6386380195617676,0.0,0.09992688149213791,98
1667030245.07961392,116868734,0,22.56292724609375,24.510255813598633,19.363767623901367,116.27997589111328,2.6507725715637207,0.0,0.10056556761264801,98
1667030245.18078804,116969908,0,22.65089988708496,24.55886459350586,18.845125198364258,116.80963897705078,2.6627700328826904,0.0,0.10124441981315613,98
1667030245.27963805,117068758,0,22.65377426147461,24.52630043029785,18.4228458404541,117.31553649902344,2.6742305755615234,0.0,0.10164148360490799,98
1667030245.37970304,117168823,0,22.604228973388672,24.534442901611328,18.92767906188965,117.84169006347656,2.686123847961426,0.0,0.1019783616065979,98
1667030245.47962809,117268748,0,22.44304656982422,24.41213035583496,19.308834075927734,118.377685546875,2.698153018951416,0.0,0.1019783616065979,98
1667030245.57977915,117368899,0,22.479366302490234,24.4992733001709,19.807220458984375,118.92876434326172,2.710540771484375,0.0,0.1019783616065979,98
1667030245.67966795,117468788,0,22.438446044921875,24.392194747924805,19.158456802368164,119.46040344238281,2.7224698066711426,0.0,0.1019783616065979,98
1667030245.77973604,117568856,0,22.4289608001709,24.399765014648438,19.325712203979492,119.99761962890625,2.7345190048217773,0.0,0.1019783616065979,98
1667030245.88059402,117669714,0,22.38593292236328,24.31214141845703,18.888395309448242,120.52685546875,2.746366500854492,0.0,0.1019783616065979,98
1667030245.98072100,117769841,0,22.358184814453125,24.285358428955078,18.89787483215332,121.05249786376953,2.7581188678741455,0.0,0.1019783616065979,98
1667030246.07956910,117868689,0,22.34463119506836,24.27187156677246,18.898523330688477,121.57144927978516,2.769714593887329,0.0,0.1019783616065979,98
1667030246.17956209,117968682,0,22.39015007019043,24.28312110900879,18.562480926513672,122.08702087402344,2.7812583446502686,0.0,0.1019783616065979,98
1667030246.28081203,118069932,0,22.6068172454834,24.495738983154297,18.42990493774414,122.60541534423828,2.7929775714874268,0.0,0.10249216109514236,98
1667030246.38068700,118169807,0,22.632883071899414,24.549348831176758,18.589487075805664,123.1212387084961,2.804652214050293,0.0,0.10309401899576187,98
1667030246.48071408,118269834,0,22.682619094848633,24.709407806396484,19.659608840942383,123.66753387451172,2.8170435428619385,0.0,0.10309401899576187,98
1667030246.58071399,118369834,0,22.6790714263916,24.741579055786133,20.006084442138672,124.22330474853516,2.8296477794647217,0.0,0.10309401899576187,98
1667030246.67962313,118468743,0,22.521339416503906,24.536977767944336,19.566314697265625,124.76092529296875,2.8417558670043945,0.0,0.10301575064659119,98
1667030246.78074408,118569864,0,22.247461318969727,24.282297134399414,19.548513412475586,125.31007385253906,2.853972911834717,0.0,0.10409162193536758,98
1667030246.87963796,118668758,0,22.126493453979492,24.11798858642578,19.13213539123535,125.83568572998047,2.865602970123291,0.0,0.10409162193536758,98
1667030246.98070407,118769824,0,22.12968635559082,24.11411476135254,19.06424331665039,126.37093353271484,2.8774478435516357,0.0,0.10409162193536758,98
1667030247.08058214,118869702,0,22.11847496032715,24.112167358398438,19.153242111206055,126.9023666381836,2.889202356338501,0.0,0.10409162193536758,98
1667030247.18073797,118969858,0,22.15450668334961,24.06686782836914,18.371902465820312,127.41353607177734,2.900527000427246,0.0,0.10409162193536758,98
1667030247.27969098,119068811,0,22.271991729736328,24.277362823486328,19.25359344482422,127.94280242919922,2.9123148918151855,0.0,0.10415572673082352,98
1667030247.37972713,119168847,0,22.317800521850586,24.385374069213867,19.850799560546875,128.4944610595703,2.924626588821411,0.0,0.10415572673082352,98
1667030247.47957110,119268691,0,22.451095581054688,24.47142791748047,19.397218704223633,129.032470703125,2.9367055892944336,0.0,0.10415572673082352,98
1667030247.57971907,119368839,0,22.548351287841797,24.5240478515625,18.836498260498047,129.556396484375,2.948519468307495,0.0,0.10488662123680115,98
1667030247.67957711,119468697,0,22.550758361816406,24.51342010498047,18.61925506591797,130.07302856445312,2.960170030593872,0.0,0.10541027784347534,98
1667030247.77960110,119568721,0,22.50773048400879,24.46327781677246,18.514606475830078,130.58749389648438,2.9717493057250977,0.0,0.10562188178300858,98
1667030247.88068008,119669800,0,22.47026252746582,24.409137725830078,18.36453628540039,131.10316467285156,2.9833366870880127,0.0,0.10557711869478226,98
1667030247.98076105,119769881,0,22.435285568237305,24.356103897094727,18.234722137451172,131.61013793945312,2.994710683822632,0.0,0.10533849149942398,98
1667030248.07964897,119868769,0,22.579029083251953,24.56882095336914,18.776687622070312,132.12591552734375,3.006356716156006,0.0,0.10597137361764908,98
1667030248.17975807,119968878,0,22.456172943115234,24.4788761138916,19.08725929260254,132.65676879882812,3.018277883529663,0.0,0.10597137361764908,98
1667030248.27963209,120068752,0,22.393024444580078,24.382295608520508,18.771778106689453,133.17759704589844,3.029940605163574,0.0,0.10597137361764908,98
1667030248.37977505,120168895,0,22.31894874572754,24.283178329467773,18.53547477722168,133.69325256347656,3.0414493083953857,0.0,0.10597137361764908,98
1667030248.47961497,120268735,0,22.436626434326172,24.390697479248047,18.453227996826172,134.20506286621094,3.0529325008392334,0.0,0.10589317977428436,98
1667030248.58060694,120369727,0,22.5876407623291,24.56040382385254,18.526199340820312,134.72482299804688,3.0646727085113525,0.0,0.10648508369922638,98
1667030248.67964602,120468766,0,22.606433868408203,24.5225887298584,17.94194984436035,135.21844482421875,3.075831890106201,0.0,0.10679741948843002,98
1667030248.77964997,120568770,0,22.617645263671875,24.53460121154785,17.901134490966797,135.7157745361328,3.087080240249634,0.0,0.1070856899023056,98
1667030248.87959504,120668715,0,22.52814292907715,24.445716857910156,17.926912307739258,136.21351623535156,3.0982933044433594,0.0,0.10696624964475632,98
1667030248.98060513,120769725,0,22.465564727783203,24.407629013061523,18.155853271484375,136.72299194335938,3.109738826751709,0.0,0.10696624964475632,98
1667030249.08058906,120869709,0,22.434804916381836,24.389015197753906,18.26940155029297,137.2304229736328,3.1211230754852295,0.0,0.10696624964475632,98
1667030249.18076706,120969887,0,22.39446258544922,24.369731903076172,18.406274795532227,137.74266052246094,3.132594347000122,0.0,0.10731496661901474,98
1667030249.27961302,121068733,0,22.40586280822754,24.309499740600586,17.73879051208496,138.22975158691406,3.143508195877075,0.0,0.10731496661901474,98
1667030249.37972808,121168848,0,22.33888053894043,24.195554733276367,17.301166534423828,138.7109375,3.154257297515869,0.0,0.10731496661901474,98
1667030249.47956610,121268686,0,22.318470001220703,24.10256576538086,16.62485122680664,139.17202758789062,3.16454815864563,0.0,0.10731496661901474,98
1667030249.57969999,121368820,0,22.510509490966797,24.362932205200195,17.24408531188965,139.65170288085938,3.1753461360931396,0.0,0.10742369294166565,98
1667030249.67962408,121468744,0,22.530250549316406,24.498586654663086,18.32310676574707,140.1603240966797,3.186805486679077,0.0,0.10742369294166565,98
1667030249.77975202,121568872,0,22.40797233581543,24.14972496032715,16.213857650756836,140.61129760742188,3.196910858154297,0.0,0.10742369294166565,98
1667030249.87963200,121668752,0,22.573949813842773,24.310382843017578,16.176420211791992,141.06016540527344,3.2070436477661133,0.0,0.10734342038631439,98
1667030249.97975302,121768873,0,22.536575317382812,24.32929229736328,16.699050903320312,141.52462768554688,3.217510938644409,0.0,0.10735440999269485,98
1667030250.07966399,121868784,0,22.720949172973633,24.66808319091797,18.137439727783203,142.0280303955078,3.2289488315582275,0.0,0.10735440999269485,98
1667030250.17978001,121968900,0,22.39848518371582,24.24457359313965,17.196208953857422,142.50628662109375,3.23966121673584,0.0,0.10735440999269485,98
1667030250.27963114,122068751,0,22.3366756439209,24.164710998535156,17.02803611755371,142.97862243652344,3.250211715698242,0.0,0.10735440999269485,98
1667030250.37978196,122168902,0,22.45901870727539,24.31365203857422,17.275798797607422,143.45925903320312,3.2610063552856445,0.0,0.10735440999269485,98
1667030250.47964501,122268765,0,22.36753273010254,24.36410140991211,18.62784767150879,143.97604370117188,3.2725653648376465,0.0,0.10718191415071487,98
1667030250.57973695,122368857,0,22.4205265045166,24.498188018798828,19.522735595703125,144.51876831054688,3.284733533859253,0.0,0.10642266273498535,98
1667030250.67959595,122468716,0,22.25656509399414,24.262203216552734,18.779144287109375,145.03982543945312,3.296330690383911,0.0,0.10680133104324341,98
1667030250.77977395,122568894,0,22.294702529907227,24.151142120361328,17.382184982299805,145.5235595703125,3.3071155548095703,0.0,0.10680133104324341,98
1667030250.87954402,122668664,0,22.342138290405273,24.236663818359375,17.73879051208496,146.0152130126953,3.3180999755859375,0.0,0.10680133104324341,98
1667030250.97977114,122768891,0,22.307832717895508,24.377946853637695,19.45061683654785,146.55677795410156,3.330181121826172,0.0,0.10642918199300766,98
1667030251.07963514,122868755,0,22.239315032958984,24.377342224121094,20.151857376098633,147.11582946777344,3.34261417388916,0.0,0.10609577596187592,98
1667030251.17969513,122968815,0,22.293649673461914,24.434173583984375,20.281978607177734,147.67959594726562,3.355182647705078,0.0,0.1055382490158081,98
1667030251.27964497,123068765,0,22.211566925048828,24.321271896362305,19.98869514465332,148.23460388183594,3.3675103187561035,0.0,0.10554493963718414,98
1667030251.37971711,123168837,0,22.211332321166992,24.32210922241211,19.9984130859375,148.79046630859375,3.379856586456299,0.0,0.1055472195148468,98
1667030251.47968102,123268801,0,22.200889587402344,24.372798919677734,20.622011184692383,149.3632354736328,3.3925726413726807,0.0,0.10531993210315704,98
1667030251.57969594,123368816,0,22.140899658203125,24.287567138671875,20.3476505279541,149.92857360839844,3.405089855194092,0.0,0.10549955815076828,98
1667030251.67967010,123468790,0,22.107742309570312,24.277915954589844,20.53025245666504,150.49874877929688,3.4176952838897705,0.0,0.10570616275072098,98
1667030251.77976012,123568880,0,22.07745933532715,24.239097595214844,20.37957000732422,151.06539916992188,3.4302055835723877,0.0,0.10606888681650162,98
1667030251.87967515,123668795,0,22.052928924560547,24.191938400268555,20.063779830932617,151.62229919433594,3.4424867630004883,0.0,0.1066104844212532,98
1667030251.97972298,123768843,0,22.273334503173828,24.470319747924805,20.607587814331055,152.1950225830078,3.4552433490753174,0.0,0.1066104844212532,98
1667030252.07961798,123868738,0,22.301509857177734,24.489431381225586,20.522579193115234,152.7645721435547,3.467945098876953,0.0,0.1066104844212532,98
1667030252.17975497,123968875,0,22.37458038330078,24.512828826904297,19.944366455078125,153.31935119628906,3.4803578853607178,0.0,0.107210673391819,98
1667030252.27955008,124068670,0,22.277263641357422,24.34607696533203,19.328475952148438,153.855224609375,3.492295742034912,0.0,0.10703449696302414,98
1667030252.37970614,124168826,0,22.287036895751953,24.32381248474121,19.068538665771484,154.38577270507812,3.504120349884033,0.0,0.10681342333555222,98
1667030252.47954297,124268663,0,22.308696746826172,24.36656379699707,19.26709747314453,154.92013549804688,3.5160412788391113,0.0,0.10680727660655975,98
1667030252.57977104,124368891,0,22.32929801940918,24.41320037841797,19.479156494140625,155.46249389648438,3.5281519889831543,0.0,0.10698116570711136,98
1667030252.67962313,124468743,0,22.287708282470703,24.33685302734375,19.182703018188477,155.99459838867188,3.540011405944824,0.0,0.10682254284620285,98
1667030252.77981806,124568938,0,22.199451446533203,24.242761611938477,19.128076553344727,156.52700805664062,3.551830530166626,0.0,0.10682254284620285,98
1667030252.87962413,124668744,0,22.18392562866211,24.242183685302734,19.268016815185547,157.0612335205078,3.5636818408966064,0.0,0.10682254284620285,98
1667030252.97970009,124768820,0,22.16638946533203,24.253828048706055,19.478544235229492,157.60275268554688,3.575685501098633,0.0,0.10716608166694641,98
1667030253.07965302,124868773,0,22.16706085205078,24.296655654907227,19.84991455078125,158.15391540527344,3.5879032611846924,0.0,0.10728486627340317,98
1667030253.17970896,124968829,0,22.2332763671875,24.33590316772461,19.59853744506836,158.69866943359375,3.6000149250030518,0.0,0.10728486627340317,98
1667030253.27964616,125068766,0,22.295948028564453,24.401174545288086,19.622779846191406,159.2434539794922,3.61216139793396,0.0,0.10728486627340317,98
1667030253.37967515,125168795,0,22.222640991210938,24.302879333496094,19.38985252380371,159.78225708007812,3.6241350173950195,0.0,0.10728486627340317,98
1667030253.47965693,125268777,0,22.17424774169922,24.26044464111328,19.445398330688477,160.322265625,3.6361091136932373,0.0,0.10728486627340317,97
1667030253.57974505,125368865,0,22.2292537689209,24.363290786743164,19.891307830810547,160.87542724609375,3.6484055519104004,0.0,0.10728486627340317,97
1667030253.67967010,125468790,0,22.290199279785156,24.435462951660156,19.99595832824707,161.4304962158203,3.660778045654297,0.0,0.10728486627340317,97
1667030253.77974796,125568868,0,22.22484588623047,24.340259552001953,19.7142333984375,161.9785919189453,3.672959327697754,0.0,0.10730390250682831,97
1667030253.87955403,125668674,0,22.203571319580078,24.27360725402832,19.29134178161621,162.5134735107422,3.68483567237854,0.0,0.10730390250682831,97
1667030253.97971606,125768836,0,22.224132537841797,24.341609954833984,19.74113655090332,163.06277465820312,3.6970434188842773,0.0,0.10726214945316315,97
1667030254.07954597,125868666,0,22.273141860961914,24.437833786010742,20.181320190429688,163.62245178222656,3.7095091342926025,0.0,0.10726214945316315,97
1667030254.17973900,125968859,0,22.261451721191406,24.39427947998047,19.88425064086914,164.17588806152344,3.721829414367676,0.0,0.10726214945316315,97
1667030254.27963400,126068754,0,22.19331932067871,24.28835678100586,19.53194236755371,164.71792602539062,3.733859062194824,0.0,0.10726214945316315,97
1667030254.37979913,126168919,0,22.187183380126953,24.26424789428711,19.364381790161133,165.25665283203125,3.745811939239502,0.0,0.10726214945316315,97
1667030254.47963214,126268752,0,22.278030395507812,24.40220069885254,19.803539276123047,165.80596923828125,3.758049726486206,0.0,0.10726214945316315,97
1667030254.57982016,126368940,0,22.308792114257812,24.41438865661621,19.58135223388672,166.35096740722656,3.7702078819274902,0.0,0.10753071308135986,97
1667030254.67975402,126468874,0,22.22522735595703,24.286571502685547,19.16981315612793,166.88314819335938,3.7820358276367188,0.0,0.10753071308135986,97
1667030254.77973413,126568854,0,22.16035270690918,24.219980239868164,19.153854370117188,167.41513061523438,3.7938249111175537,0.0,0.10753071308135986,97
1667030254.87964416,126668764,0,22.17919921875,24.220834732055664,18.98653221130371,167.94210815429688,3.8055126667022705,0.0,0.10753071308135986,97
1667030254.97971511,126768835,0,22.203285217285156,24.241561889648438,18.955297470092773,168.46896362304688,3.8172106742858887,0.0,0.10753071308135986,97
1667030255.07960916,126868729,0,22.28387451171875,24.344484329223633,19.131145477294922,168.9999542236328,3.82904314994812,0.0,0.10770972073078156,97
1667030255.17971611,126968836,0,22.298248291015625,24.381549835205078,19.291648864746094,169.5364532470703,3.84100604057312,0.0,0.10798980295658112,97
1667030255.27961016,127068730,0,22.23988914489746,24.266916275024414,18.770549774169922,170.05734252929688,3.852590560913086,0.0,0.10798980295658112,97
1667030255.37968206,127168802,0,22.23874282836914,24.187524795532227,18.045984268188477,170.5590057373047,3.8637471199035645,0.0,0.10798980295658112,97
1667030255.47963715,127268757,0,22.356035232543945,24.47055435180664,19.580738067626953,171.10272216796875,3.8759024143218994,0.0,0.10798980295658112,97
1667030255.57972503,127368845,0,22.352678298950195,24.423254013061523,19.17380142211914,171.63583374023438,3.8878190517425537,0.0,0.10798980295658112,97
1667030255.67965293,127468773,0,22.473617553710938,24.58064842224121,19.51137924194336,172.17738342285156,3.899989604949951,0.0,0.10798980295658112,97
1667030255.77980304,127568923,0,22.408761978149414,24.44529151916504,18.815013885498047,172.70094299316406,3.91172194480896,0.0,0.10823959112167358,97
1667030255.87960005,127668720,0,22.47974967956543,24.52359962463379,18.79694366455078,173.22206115722656,3.9234366416931152,0.0,0.10873312503099442,97
1667030255.97972798,127768848,0,22.361976623535156,24.49632453918457,19.629226684570312,173.76806640625,3.9356462955474854,0.0,0.10873312503099442,97
1667030256.07958794,127868708,0,22.213727951049805,24.47825813293457,20.862918853759766,174.34683227539062,3.948502779006958,0.0,0.10854331403970718,97
1667030256.17974305,127968863,0,22.175779342651367,24.42102813720703,20.668659210205078,174.92178344726562,3.9612529277801514,0.0,0.10863058269023895,97
1667030256.27963901,128068759,0,22.178462982177734,24.390819549560547,20.325557708740234,175.48594665527344,3.9737651348114014,0.0,0.10884609073400497,97
1667030256.37971997,128168840,0,22.089534759521484,24.32110023498535,20.406269073486328,176.05328369140625,3.986297369003296,0.0,0.10935687273740768,97
1667030256.47963214,128268752,0,22.239410400390625,24.50050926208496,20.742311477661133,176.62899780273438,3.999101161956787,0.0,0.10900900512933731,97
1667030256.57970715,128368827,0,22.262218475341797,24.46310043334961,20.189910888671875,177.19029235839844,4.0115966796875,0.0,0.10900900512933731,97
1667030256.67964196,128468762,0,22.36553192138672,24.596778869628906,20.468463897705078,177.75852966308594,4.024305820465088,0.0,0.10900900512933731,97
1667030256.77975512,128568875,0,22.351049423217773,24.527841567993164,19.923532485961914,178.31263732910156,4.036690711975098,0.0,0.10925731807947159,97
1667030256.87964296,128668763,0,22.28828239440918,24.430532455444336,19.63996696472168,178.8576202392578,4.048837661743164,0.0,0.10907607525587082,97
1667030256.97967100,128768791,0,22.290294647216797,24.468080520629883,19.964962005615234,179.41236877441406,4.0612030029296875,0.0,0.10908035933971405,97
1667030257.07959604,128868716,0,22.301889419555664,24.458276748657227,19.774999618530273,179.96133422851562,4.073446273803711,0.0,0.10904615372419357,97
1667030257.17973208,128968852,0,22.28972053527832,24.472143173217773,20.013757705688477,180.51806640625,4.085855484008789,0.0,0.10904615372419357,97
1667030257.27967811,129068798,0,22.2845458984375,24.422863006591797,19.609277725219727,181.06253051757812,4.097988605499268,0.0,0.10904615372419357,97
