timestamp,TimeUS,Instance,Volt,VoltR,Curr,CurrTot,EnrgTot,Temp,Res,RemPct
1667026889.77949405,175207791,0,24.779481887817383,24.790348052978516,0.0462525375187397,6.893213748931885,0.17110629379749298,0.0,0.23491926491260529,99
1667026889.87993097,175308228,0,24.807233810424805,24.822154998779297,0.06352600455284119,6.894986152648926,0.17115026712417603,0.0,0.23487621545791626,99
1667026889.97973585,175408033,0,24.82016944885254,24.839487075805664,0.08224621415138245,6.897266387939453,0.17120686173439026,0.0,0.23487621545791626,99
1667026890.07995486,175508252,0,24.751941680908203,24.757707595825195,0.024551108479499817,6.897949695587158,0.17122377455234528,0.0,0.23487621545791626,99
1667026890.18003488,175608332,0,24.76363182067871,24.7706241607666,0.029768219217658043,6.898777484893799,0.17124426364898682,0.0,0.23487621545791626,99
1667026890.27968001,175707977,0,24.817678451538086,24.838581085205078,0.08899776637554169,6.901241302490234,0.17130540311336517,0.0,0.23487621545791626,99
1667026890.37976694,175808064,0,24.802152633666992,24.819955825805664,0.0758015513420105,6.903348922729492,0.1713576763868332,0.0,0.23487621545791626,99
1667026890.47971702,175908014,0,24.813941955566406,24.833044052124023,0.08132554590702057,6.905607223510742,0.17141370475292206,0.0,0.23487621545791626,99
1667026890.57977295,176008070,0,24.798128128051758,24.81304931640625,0.06352600455284119,6.907372951507568,0.17145748436450958,0.0,0.23487621545791626,99
1667026890.67979598,176108093,0,24.757837295532227,24.764083862304688,0.02659703604876995,6.908112049102783,0.17147578299045563,0.0,0.23487621545791626,99
1667026890.77978802,176208085,0,24.797744750976562,24.81331443786621,0.06628799438476562,6.909953594207764,0.17152144014835358,0.0,0.23487621545791626,99
1667026890.87982392,176308121,0,24.818923950195312,24.840259552001953,0.09083910286426544,6.912477970123291,0.1715840995311737,0.0,0.23487621545791626,99
1667026890.97987795,176408175,0,24.807138442993164,24.824941635131836,0.0758015513420105,6.914584636688232,0.17163635790348053,0.0,0.23487621545791626,99
1667026891.07980895,176508106,0,24.77168083190918,24.77982521057129,0.034678444266319275,6.9155473709106445,0.17166019976139069,0.0,0.23487621545791626,99
1667026891.17986488,176608162,0,24.75347137451172,24.759958267211914,0.027619997039437294,6.916315078735352,0.17167919874191284,0.0,0.23487621545791626,99
1667026891.27981091,176708108,0,24.81700897216797,24.838272094726562,0.09053221344947815,6.91882848739624,0.1717415750026703,0.0,0.23487621545791626,99
1667026891.37984896,176808146,0,24.814708709716797,24.833881378173828,0.08163243532180786,6.9210968017578125,0.17179787158966064,0.0,0.23487621545791626,99
1667026891.47983789,176908135,0,24.803686141967773,24.82062530517578,0.07211887836456299,6.923099517822266,0.17184755206108093,0.0,0.23487621545791626,99
1667026891.57990789,177008205,0,24.820446014404297,24.841188430786133,0.08831579983234406,6.925555229187012,0.17190851271152496,0.0,0.23487621545791626,99
1667026891.67969298,177107990,0,24.765356063842773,24.77184295654297,0.027619997039437294,6.926321029663086,0.17192746698856354,0.0,0.23487621545791626,99
1667026891.77974296,177208040,0,24.769859313964844,24.7784366607666,0.03651977330446243,6.9273362159729,0.17195260524749756,0.0,0.23487621545791626,99
1667026891.87976384,177308061,0,24.816625595092773,24.836231231689453,0.08347377181053162,6.9296555519104,0.1720101684331894,0.0,0.23487621545791626,99
1667026891.97979689,177408094,0,24.80675506591797,24.82499122619629,0.07764288038015366,6.9318132400512695,0.1720636934041977,0.0,0.23487621545791626,99
1667026892.07967091,177507968,0,24.76583480834961,24.856348037719727,0.3912833034992218,6.94266939163208,0.1723325550556183,0.0,0.2313249558210373,99
1667026892.17975307,177608050,0,24.434459686279297,25.01791763305664,2.617455244064331,7.01544189453125,0.17411071062088013,0.0,0.22291047871112823,99
1667026892.27984285,177708140,0,24.594589233398438,24.976110458374023,1.7514148950576782,7.0641398429870605,0.17530842125415802,0.0,0.217835932970047,99
1667026892.37977099,177808068,0,24.68303871154785,24.92203140258789,1.1075619459152222,7.09488582611084,0.1760673224925995,0.0,0.2157822549343109,99
1667026892.47976089,177908058,0,24.66360855102539,24.90498161315918,1.1242362260818481,7.1261138916015625,0.1768375188112259,0.0,0.21469973027706146,99
1667026892.57995200,178008249,0,24.63886070251465,24.879453659057617,1.1201443672180176,7.157291412353516,0.17760568857192993,0.0,0.2147877812385559,99
1667026892.67978597,178108083,0,24.622474670410156,24.83769989013672,0.9940130710601807,7.184859275817871,0.17828448116779327,0.0,0.2165214866399765,99
1667026892.77987695,178208174,0,24.691471099853516,24.930683135986328,1.1047999858856201,7.215578556060791,0.1790429800748825,0.0,0.2165214866399765,99
1667026892.87980986,178308107,0,24.684667587280273,24.909461975097656,1.0382049083709717,7.244400501251221,0.17975443601608276,0.0,0.2165214866399765,99
1667026892.97978091,178408078,0,24.69635772705078,24.922016143798828,1.0421946048736572,7.273341178894043,0.18046917021274567,0.0,0.2165214866399765,99
1667026893.07996893,178508266,0,24.702205657958984,24.927398681640625,1.0400463342666626,7.302291393280029,0.1811842918395996,0.0,0.2165214866399765,99
1667026893.17989397,178608191,0,24.62630844116211,24.817678451538086,0.8838399052619934,7.326826095581055,0.18178848922252655,0.0,0.2165214866399765,99
1667026893.27975392,178708051,0,24.67268943786621,24.889699935913086,1.0029127597808838,7.3546366691589355,0.18247464299201965,0.0,0.21637937426567078,99
1667026893.37977505,178808072,0,24.65966796875,24.869653701782227,0.9704508185386658,7.381612300872803,0.1831398606300354,0.0,0.21637937426567078,99
1667026893.47969484,178907992,0,24.695974349975586,24.926132202148438,1.0636768341064453,7.411137580871582,0.18386901915073395,0.0,0.21637937426567078,99
1667026893.57972789,179008025,0,24.672977447509766,24.890336990356445,1.0044472217559814,7.439050197601318,0.18455770611763,0.0,0.21639694273471832,99
1667026893.67978096,179108078,0,24.62784194946289,24.824813842773438,0.910232424736023,7.46435022354126,0.18518078327178955,0.0,0.21639694273471832,99
1667026893.77985692,179208154,0,24.684860229492188,24.90819549560547,1.0320671796798706,7.493042945861816,0.18588905036449432,0.0,0.21639694273471832,99
1667026893.87976885,179308066,0,24.656686782836914,24.86773681640625,0.9752928018569946,7.52011251449585,0.18655650317668915,0.0,0.21639694273471832,99
1667026893.97993088,179408228,0,24.692142486572266,24.9199275970459,1.0526288747787476,7.5493927001953125,0.18727949261665344,0.0,0.21639694273471832,99
1667026894.07980585,179508103,0,24.639055252075195,24.840078353881836,0.9289526343345642,7.575174808502197,0.18791474401950836,0.0,0.21639694273471832,99
1667026894.17994499,179608242,0,24.635986328125,24.8350830078125,0.9200528264045715,7.60076904296875,0.18854528665542603,0.0,0.21639694273471832,99
1667026894.27977490,179708072,0,24.672231674194336,24.889907836914062,1.005913496017456,7.628665924072266,0.18923357129096985,0.0,0.21639694273471832,99
1667026894.37997103,179808268,0,24.68064308166504,24.903514862060547,1.0299190282821655,7.6573333740234375,0.18994109332561493,0.0,0.21639694273471832,99
1667026894.47979498,179908092,0,24.687639236450195,24.913896560668945,1.0455704927444458,7.686328411102295,0.1906569004058838,0.0,0.21639694273471832,99
1667026894.57992792,180008225,0,24.667802810668945,24.886716842651367,1.0118125677108765,7.714463710784912,0.19135093688964844,0.0,0.21635904908180237,99
1667026894.67995095,180108248,0,24.626020431518555,24.824087142944336,0.9154494404792786,7.739909648895264,0.1919775754213333,0.0,0.21635904908180237,99
1667026894.77989888,180208196,0,24.645282745361328,24.854969024658203,0.969154953956604,7.76680850982666,0.1926404982805252,0.0,0.21635904908180237,99
1667026894.87969804,180307995,0,24.674222946166992,24.8967227935791,1.0283845663070679,7.795331001281738,0.19334426522254944,0.0,0.21635904908180237,99
1667026894.97972107,180408018,0,24.686582565307617,24.91465950012207,1.0541632175445557,7.82462215423584,0.19406737387180328,0.0,0.21635904908180237,99
1667026895.07972503,180508022,0,24.664926528930664,24.882518768310547,1.0056748390197754,7.852560520172119,0.19475647807121277,0.0,0.21636521816253662,99
1667026895.17969108,180607988,0,24.616865158081055,24.811786651611328,0.9008892774581909,7.8775787353515625,0.19537235796451569,0.0,0.21636521816253662,99
1667026895.27978706,180708084,0,24.663585662841797,24.88317108154297,1.0148816108703613,7.905799388885498,0.19606837630271912,0.0,0.21636521816253662,99
1667026895.37979889,180808096,0,24.67939567565918,24.906217575073242,1.0483324527740479,7.934925556182861,0.19678719341754913,0.0,0.21636521816253662,99
1667026895.47995591,180908253,0,24.665502548217773,24.885818481445312,1.0182572603225708,7.9632568359375,0.1974859982728958,0.0,0.21636521816253662,99
1667026895.57996702,181008264,0,24.637136459350586,24.84483528137207,0.9599483609199524,7.989927291870117,0.19814307987689972,0.0,0.21636521816253662,99
1667026895.67976594,181108063,0,24.621612548828125,24.82107925415039,0.9218941330909729,8.015485763549805,0.1987723708152771,0.0,0.21636521816253662,99
1667026895.77994084,181208238,0,24.68064308166504,24.90972328186035,1.0587666034698486,8.04494857788086,0.19949953258037567,0.0,0.21636521816253662,99
1667026895.87979794,181308095,0,24.666173934936523,24.889211654663086,1.0308396816253662,8.0735445022583,0.20020489394664764,0.0,0.21636521816253662,99
1667026895.97984886,181408146,0,24.681791305541992,24.910804748535156,1.0584596395492554,8.1029634475708,0.20093101263046265,0.0,0.21636521816253662,99
1667026896.07980394,181508101,0,24.683198928833008,24.913755416870117,1.0655864477157593,8.132552146911621,0.2016613483428955,0.0,0.21636521816253662,99
1667026896.17984796,181608145,0,24.660423278808594,24.87921142578125,1.0111987590789795,8.160655975341797,0.20235440135002136,0.0,0.21636521816253662,99
1667026896.27990198,181708199,0,24.629854202270508,24.83357048034668,0.9415349960327148,8.1868257522583,0.20299896597862244,0.0,0.21636521816253662,99
1667026896.37996888,181808266,0,24.623720169067383,24.825510025024414,0.9326352477073669,8.212751388549805,0.20363736152648926,0.0,0.21636521816253662,99
1667026896.47981906,181908116,0,24.68064308166504,24.91045379638672,1.0621423721313477,8.242213249206543,0.20436450839042664,0.0,0.21636521816253662,99
1667026896.57969093,182007988,0,24.652278900146484,24.867481231689453,0.9946268796920776,8.269808769226074,0.20504479110240936,0.0,0.21636521816253662,99
1667026896.67981386,182108111,0,24.615097045898438,24.812040328979492,0.910232424736023,8.295125961303711,0.20566798746585846,0.0,0.21636521816253662,99
1667026896.77983189,182208129,0,24.665502548217773,24.88933753967285,1.0345224142074585,8.323869705200195,0.20637698471546173,0.0,0.21636521816253662,99
1667026896.87995386,182308251,0,24.68083381652832,24.911972045898438,1.0682801008224487,8.353582382202148,0.20711031556129456,0.0,0.21636521816253662,99
1667026896.97970796,182408005,0,24.65615463256836,24.87647819519043,1.018530011177063,8.381808280944824,0.20780624449253082,0.0,0.21631531417369843,99
1667026897.07950187,182507799,0,24.625829696655273,24.83122444152832,0.9495141506195068,8.40813159942627,0.20845447480678558,0.0,0.21631531417369843,99
1667026897.17976093,182608058,0,24.618928909301758,24.820140838623047,0.9301801323890686,8.434035301208496,0.2090921849012375,0.0,0.21631531417369843,99
1667026897.28006887,182708366,0,24.655536651611328,24.876863479614258,1.0231674909591675,8.462547302246094,0.20979517698287964,0.0,0.21631531417369843,99
1667026897.37980294,182808100,0,24.6511287689209,24.869667053222656,1.0102781057357788,8.490541458129883,0.21048526465892792,0.0,0.21631531417369843,99
1667026897.47952390,182907821,0,24.664640426635742,24.891145706176758,1.0471049547195435,8.519548416137695,0.21120072901248932,0.0,0.21631531417369843,99
1667026897.58007193,183008369,0,24.667898178100586,24.893938064575195,1.0449566841125488,8.548736572265625,0.21192073822021484,0.0,0.21631531417369843,99
1667026897.67974186,183108039,0,24.598230361938477,24.788488388061523,0.8795435428619385,8.573089599609375,0.2125197798013687,0.0,0.21631531417369843,99
1667026897.77999306,183208290,0,24.639244079589844,24.852405548095703,0.9854201674461365,8.600533485412598,0.21319596469402313,0.0,0.21631531417369843,99
1667026897.87995100,183308248,0,24.65615463256836,24.877805709838867,1.024667739868164,8.628985404968262,0.2138974815607071,0.0,0.21631531417369843,99
1667026897.97980499,183408102,0,24.670101165771484,24.89813232421875,1.0541632175445557,8.658228874206543,0.21461892127990723,0.0,0.21631531417369843,99
1667026898.07972097,183508018,0,24.6529483795166,24.872283935546875,1.013960838317871,8.686372756958008,0.21531276404857635,0.0,0.21631531417369843,99
1667026898.17972684,183608024,0,24.602542877197266,24.79764747619629,0.9019463658332825,8.711430549621582,0.21592923998832703,0.0,0.21631531417369843,99
1667026898.27981305,183708110,0,24.656015396118164,24.876413345336914,1.0188710689544678,8.739758491516113,0.21662770211696625,0.0,0.21631531417369843,99
1667026898.37996697,183808264,0,24.67259407043457,24.90142250061035,1.057845950126648,8.769190788269043,0.21735386550426483,0.0,0.21631531417369843,99
1667026898.47984791,183908145,0,24.66013526916504,24.883054733276367,1.030532717704773,8.797784805297852,0.2180590033531189,0.0,0.21631531417369843,99
1667026898.57975197,184008049,0,24.61768341064453,24.81916046142578,0.9314076900482178,8.82363510131836,0.21869537234306335,0.0,0.21631531417369843,99
1667026898.67954206,184107839,0,24.618833541870117,24.820842742919922,0.9338628053665161,8.849517822265625,0.21933257579803467,0.0,0.21631531417369843,99
1667026898.77977395,184208071,0,24.670530319213867,24.899410247802734,1.0580846071243286,8.878985404968262,0.2200595587491989,0.0,0.21631531417369843,99
1667026898.87956500,184307862,0,24.65860366821289,24.88119125366211,1.0289983749389648,8.907511711120605,0.2207629680633545,0.0,0.21631531417369843,99
1667026898.97977304,184408070,0,24.67192268371582,24.901348114013672,1.06060791015625,8.937031745910645,0.221491277217865,0.0,0.21631531417369843,99
1667026899.07954288,184507840,0,24.673551559448242,24.9034423828125,1.062756061553955,8.966492652893066,0.22221817076206207,0.0,0.21631531417369843,99
1667026899.17984200,184608139,0,24.594877243041992,24.784406661987305,0.8761677145957947,8.99090576171875,0.22281859815120697,0.0,0.21631531417369843,99
1667026899.27949786,184707795,0,24.640968322753906,24.85366439819336,0.9832718968391418,9.01812744140625,0.22348935902118683,0.0,0.21631531417369843,99
1667026899.37998104,184808278,0,24.652565002441406,24.871767044067383,1.0133470296859741,9.046414375305176,0.22418668866157532,0.0,0.21631531417369843,99
1667026899.47993493,184908232,0,24.669334411621094,24.89955711364746,1.0642905235290527,9.075966835021973,0.22491572797298431,0.0,0.21631531417369843,99
1667026899.57974505,185008042,0,24.638381958007812,24.85161018371582,0.9857271313667297,9.10329818725586,0.22558912634849548,0.0,0.21631531417369843,99
1667026899.67976284,185108060,0,24.706518173217773,24.72796058654785,0.10158021003007889,9.106120109558105,0.2256588637828827,0.0,0.21108582615852356,99
1667026899.77991700,185208214,0,24.778282165527344,24.798505783081055,0.0964994952082634,9.108804702758789,0.22572539746761322,0.0,0.20957903563976288,99
1667026899.87984300,185308140,0,24.793241500854492,24.814855575561523,0.10342154651880264,9.111675262451172,0.22579658031463623,0.0,0.20898668467998505,99
1667026899.97989893,185408196,0,24.8022518157959,24.826040267944336,0.1138557642698288,9.114839553833008,0.22587506473064423,0.0,0.20893236994743347,99
1667026900.07990003,185508197,0,24.73957633972168,24.74798011779785,0.04081621766090393,9.115973472595215,0.22590312361717224,0.0,0.20591042935848236,99
1667026900.17990303,185608200,0,24.758840560913086,24.77043914794922,0.05677444115281105,9.11755084991455,0.22594217956066132,0.0,0.2043015956878662,99
1667026900.27992487,185708222,0,24.790557861328125,24.81020164489746,0.09605620801448822,9.120220184326172,0.226008340716362,0.0,0.20449969172477722,99
1667026900.37975407,185808051,0,24.799373626708984,24.82127571105957,0.10679732263088226,9.12318229675293,0.22608178853988647,0.0,0.20508360862731934,99
1667026900.47997189,185908269,0,24.796594619750977,24.816068649291992,0.09482865780591965,9.125822067260742,0.22614724934101105,0.0,0.2053658813238144,99
1667026900.57979798,186008095,0,24.815282821655273,24.841144561767578,0.12521065771579742,9.129294395446777,0.22623342275619507,0.0,0.20655161142349243,99
1667026900.67952895,186107826,0,24.728132247924805,24.73242950439453,0.02080024592578411,9.129870414733887,0.2262476682662964,0.0,0.20655161142349243,99
1667026900.77972198,186208019,0,24.779634475708008,24.796733856201172,0.08285999298095703,9.132176399230957,0.2263048142194748,0.0,0.20636220276355743,99
1667026900.87998390,186308281,0,24.789791107177734,24.808563232421875,0.09083910286426544,9.134706497192383,0.2263675332069397,0.0,0.2066563218832016,99
1667026900.97998905,186408286,0,24.816720962524414,24.84189224243164,0.12091422080993652,9.138065338134766,0.22645089030265808,0.0,0.20816682279109955,99
1667026901.07969904,186507996,0,24.777620315551758,24.79290771484375,0.07365332543849945,9.140105247497559,0.2265014350414276,0.0,0.2075534611940384,99
1667026901.17970085,186607998,0,24.745038986206055,24.750389099121094,0.02577866241335869,9.14082145690918,0.2265191525220871,0.0,0.2075534611940384,99
1667026901.27989697,186708194,0,24.788545608520508,24.80551528930664,0.08163243532180786,9.143094062805176,0.22657547891139984,0.0,0.20787957310676575,99
1667026901.37968898,186807986,0,24.825056076049805,24.85414695739746,0.13994131982326508,9.146973609924316,0.22667178511619568,0.0,0.20787957310676575,99
1667026901.47975397,186908051,0,24.790367126464844,24.807016372680664,0.080097995698452,9.149200439453125,0.2267269790172577,0.0,0.2078559696674347,99
1667026901.57959199,187007889,0,24.764652252197266,24.77400779724121,0.04501036927103996,9.1504487991333,0.22675789892673492,0.0,0.2078559696674347,99
1667026901.67992997,187108227,0,24.74964141845703,24.757488250732422,0.0377473309636116,9.151500701904297,0.22678393125534058,0.0,0.2078559696674347,99
1667026901.78007889,187208376,0,24.822948455810547,24.849994659423828,0.1301208734512329,9.155120849609375,0.22687380015850067,0.0,0.2078559696674347,99
1667026901.87990689,187308204,0,24.79237937927246,24.809171676635742,0.08071176707744598,9.15735912322998,0.22692929208278656,0.0,0.20806221663951874,99
1667026901.97969985,187407997,0,24.813077926635742,24.837406158447266,0.11692465841770172,9.160600662231445,0.22700972855091095,0.0,0.20806221663951874,99
1667026902.07995200,187508249,0,24.80406951904297,24.823528289794922,0.09329421818256378,9.163198471069336,0.22707417607307434,0.0,0.20857387781143188,99
1667026902.17967701,187607974,0,24.74321937561035,24.74802017211914,0.023016665130853653,9.163836479187012,0.22708995640277863,0.0,0.20857387781143188,99
1667026902.27945495,187707752,0,24.777141571044922,24.79256820678711,0.07396021485328674,9.165886878967285,0.22714075446128845,0.0,0.20857387781143188,99
1667026902.37969589,187807993,0,24.80685043334961,24.829509735107422,0.10863865911960602,9.168911933898926,0.22721579670906067,0.0,0.20857387781143188,99
1667026902.47996187,187908259,0,24.805007934570312,24.825634002685547,0.0988864079117775,9.171666145324707,0.22728411853313446,0.0,0.20857387781143188,99
1667026902.57967591,188007973,0,24.794965744018555,24.81245231628418,0.08378066122531891,9.17398738861084,0.2273416668176651,0.0,0.20872235298156738,99
1667026902.67968702,188107984,0,24.739673614501953,24.74466896057129,0.02393733151257038,9.174652099609375,0.2273581176996231,0.0,0.20872235298156738,99
1667026902.77962804,188207925,0,24.81212043762207,24.836973190307617,0.11907287687063217,9.177957534790039,0.22744014859199524,0.0,0.20872235298156738,99
1667026902.87946486,188307762,0,24.81125831604004,24.832395553588867,0.10127332806587219,9.180766105651855,0.22750984132289886,0.0,0.20872235298156738,99
1667026902.97967386,188407971,0,24.810108184814453,24.833616256713867,0.11262821406126022,9.1839017868042,0.22758762538433075,0.0,0.20872235298156738,99
1667026903.07950592,188507803,0,24.756444931030273,24.765413284301758,0.04296444356441498,9.18509292602539,0.22761711478233337,0.0,0.20872235298156738,99
1667026903.17996907,188608266,0,24.773597717285156,24.78474235534668,0.05339866131544113,9.186583518981934,0.22765405476093292,0.0,0.20872235298156738,99
1667026903.27937508,188707672,0,24.79381561279297,24.811302185058594,0.08378066122531891,9.188897132873535,0.22771142423152924,0.0,0.20872235298156738,99
1667026903.37986588,188808163,0,24.8079891204834,24.8301944732666,0.1063881441950798,9.191866874694824,0.2277851104736328,0.0,0.20872235298156738,99
1667026903.47946596,188907763,0,24.806943893432617,24.828018188476562,0.1009664386510849,9.194660186767578,0.2278544157743454,0.0,0.20872235298156738,99
1667026903.57977605,189008073,0,24.825632095336914,24.852279663085938,0.12766577303409576,9.198217391967773,0.22794273495674133,0.0,0.20872235298156738,99
1667026903.67991996,189108217,0,24.73440170288086,24.737220764160156,0.013503110967576504,9.198593139648438,0.2279520332813263,0.0,0.20872235298156738,99
1667026903.77969694,189207994,0,24.796499252319336,24.81584358215332,0.0926804393529892,9.201162338256836,0.22801573574543,0.0,0.20872235298156738,99
1667026903.87996101,189308258,0,24.79391098022461,24.812294006347656,0.0880771055817604,9.203615188598633,0.22807656228542328,0.0,0.20872235298156738,99
1667026903.97969890,189407996,0,24.828123092651367,24.856626510620117,0.13656553626060486,9.207399368286133,0.2281704992055893,0.0,0.20872235298156738,99
1667026904.07992887,189508226,0,24.779155731201172,24.792287826538086,0.062912218272686,9.209151268005371,0.22821390628814697,0.0,0.20872235298156738,99
1667026904.17963886,189607936,0,24.757211685180664,24.764129638671875,0.03314399719238281,9.21006965637207,0.2282366305589676,0.0,0.20872235298156738,99
1667026904.27970195,189707999,0,24.804901123046875,24.824615478515625,0.09445357322692871,9.212695121765137,0.2283017635345459,0.0,0.20872235298156738,99
1667026904.37967587,189807973,0,24.820552825927734,24.84739112854004,0.12858644127845764,9.216265678405762,0.2283903807401657,0.0,0.20872235298156738,99
1667026904.47976184,189908059,0,24.798128128051758,24.81658363342285,0.0883839875459671,9.21872329711914,0.22845132648944855,0.0,0.20882120728492737,99
1667026904.57947898,190007776,0,24.769859313964844,24.780305862426758,0.05002288520336151,9.220108032226562,0.22848562896251678,0.0,0.20882120728492737,99
1667026904.67985988,190108157,0,24.751171112060547,24.759117126464844,0.0380542166531086,9.221169471740723,0.22851191461086273,0.0,0.20882120728492737,99
1667026904.77980399,190208101,0,24.823331832885742,24.851016998291016,0.13257598876953125,9.22485065460205,0.2286032885313034,0.0,0.20882120728492737,99
1667026904.87968087,190307978,0,24.795446395874023,24.812761306762695,0.08285999298095703,9.227149963378906,0.22866030037403107,0.0,0.20896930992603302,99
1667026904.97973800,190408035,0,24.828218460083008,24.855667114257812,0.13134843111038208,9.23080062866211,0.22875094413757324,0.0,0.20896930992603302,99
1667026905.07945585,190507753,0,24.807329177856445,24.82556915283203,0.08715642988681793,9.233214378356934,0.22881081700325012,0.0,0.20928499102592468,99
1667026905.17972994,190608027,0,24.751983642578125,24.75626564025879,0.020459258928894997,9.233784675598145,0.2288249284029007,0.0,0.20928499102592468,99
1667026905.27947497,190707772,0,24.783946990966797,24.7998104095459,0.0758015513420105,9.235884666442871,0.2288769781589508,0.0,0.20928499102592468,99
1667026905.37975097,190808048,0,24.803781509399414,24.823562622070312,0.09452176839113235,9.238517761230469,0.22894230484962463,0.0,0.20928499102592468,99
1667026905.47946692,190907764,0,24.811546325683594,24.832162857055664,0.09851132333278656,9.241246223449707,0.22901001572608948,0.0,0.20928499102592468,99
1667026905.57994199,191008239,0,24.767559051513672,24.77899169921875,0.0546262189745903,9.24277114868164,0.2290477752685547,0.0,0.20928499102592468,99
1667026905.67991805,191108215,0,24.746667861938477,24.754310607910156,0.03651977330446243,9.243785858154297,0.22907286882400513,0.0,0.20928499102592468,99
1667026905.77969193,191207989,0,24.786054611206055,24.799673080444336,0.06506043672561646,9.245589256286621,0.22911757230758667,0.0,0.20932218432426453,99
1667026905.87966204,191307959,0,24.768325805664062,24.779502868652344,0.05339866131544113,9.247072219848633,0.2291543036699295,0.0,0.20932218432426453,99
1667026905.98004103,191408338,0,24.80119514465332,24.81789779663086,0.0797910988330841,9.249297142028809,0.22920949757099152,0.0,0.20932218432426453,99
1667026906.07970285,191508000,0,24.734785079956055,24.739410400390625,0.022095996886491776,9.249908447265625,0.22922462224960327,0.0,0.20932218432426453,99
1667026906.17983198,191608129,0,24.74357032775879,24.750207901000977,0.03171185031533241,9.2507905960083,0.22924645245075226,0.0,0.20932218432426453,99
1667026906.27999806,191708295,0,24.794677734375,24.81015968322754,0.07396021485328674,9.252848625183105,0.22929747402668,0.0,0.20932218432426453,99
1667026906.37977195,191808069,0,24.777141571044922,24.7895450592041,0.05922954902052879,9.25448989868164,0.2293381541967392,0.0,0.20940321683883667,99
1667026906.47991800,191908215,0,24.797170639038086,24.813621520996094,0.07856355607509613,9.256675720214844,0.22939234972000122,0.0,0.20940321683883667,99
1667026906.57994795,192008245,0,24.797649383544922,24.813201904296875,0.07426710426807404,9.258739471435547,0.2294435352087021,0.0,0.20940321683883667,99
1667026906.67984486,192108142,0,24.727214813232422,24.73055648803711,0.01595822162926197,9.25918197631836,0.22945448756217957,0.0,0.20940321683883667,99
1667026906.77975106,192208048,0,24.790367126464844,24.806047439575195,0.07488088309764862,9.261260032653809,0.2295060008764267,0.0,0.20940321683883667,99
1667026906.87948990,192307787,0,24.76296043395996,24.77330780029297,0.049409110099077225,9.262628555297852,0.2295399010181427,0.0,0.20940321683883667,99
1667026906.97978902,192408086,0,24.801673889160156,24.819217681884766,0.08378066122531891,9.264963150024414,0.229597806930542,0.0,0.20940321683883667,99
1667026907.07994199,192508239,0,24.76891326904297,24.779695510864258,0.05148913338780403,9.266395568847656,0.22963328659534454,0.0,0.20940321683883667,99
1667026907.17979503,192608092,0,24.72625732421875,24.73043441772461,0.019947774708271027,9.266948699951172,0.2296469658613205,0.0,0.20940321683883667,99
1667026907.27990890,192708206,0,24.787395477294922,24.802175521850586,0.07058443874120712,9.268911361694336,0.2296956181526184,0.0,0.20940321683883667,99
1667026907.37968493,192807982,0,24.80119514465332,24.817838668823242,0.07948421686887741,9.271114349365234,0.22975026071071625,0.0,0.20940321683883667,99
1667026907.47971797,192908015,0,24.79075050354004,24.806495666503906,0.07518777251243591,9.27320384979248,0.22980205714702606,0.0,0.20940321683883667,99
1667026907.57963991,193007937,0,24.76717758178711,24.778038024902344,0.05186421796679497,9.274643898010254,0.22983771562576294,0.0,0.20940321683883667,99
1667026907.67994189,193108239,0,24.755678176879883,24.763904571533203,0.039281778037548065,9.275738716125488,0.22986480593681335,0.0,0.20940321683883667,99
1667026907.77944899,193207746,0,24.765356063842773,24.775896072387695,0.050329774618148804,9.277130126953125,0.22989925742149353,0.0,0.20940321683883667,99
1667026907.87980103,193308098,0,24.79170799255371,24.80815887451172,0.07856355607509613,9.27932071685791,0.2299535572528839,0.0,0.20940321683883667,99
1667026907.97949004,193407787,0,24.529447555541992,24.982227325439453,2.249495267868042,9.34157943725586,0.23148071765899658,0.0,0.20128069818019867,99
1667026908.07984996,193508147,0,24.5512752532959,24.947237014770508,2.020249366760254,9.397937774658203,0.2328643947839737,0.0,0.19599676132202148,99
1667026908.17973995,193608037,0,24.58893394470215,24.78270149230957,0.9774410128593445,9.425061225891113,0.23353134095668793,0.0,0.19823911786079407,99
1667026908.27946687,193707764,0,24.644420623779297,24.853544235229492,1.0596872568130493,9.454419136047363,0.234254851937294,0.0,0.19734454154968262,99
1667026908.37974286,193808040,0,24.637710571289062,24.864973068237305,1.1588122844696045,9.486700057983398,0.23505017161369324,0.0,0.19611597061157227,99
1667026908.47947693,193907774,0,24.668855667114258,24.892263412475586,1.1517539024353027,9.518606185913086,0.23583726584911346,0.0,0.1939712017774582,99
1667026908.57978392,194008081,0,24.635986328125,24.832548141479492,1.0105849504470825,9.546761512756348,0.23653091490268707,0.0,0.19450326263904572,99
1667026908.67945194,194107749,0,24.614809036254883,24.793642044067383,0.9194390773773193,9.572226524353027,0.23715771734714508,0.0,0.19450326263904572,99
1667026908.77965593,194207953,0,24.67642593383789,24.878658294677734,1.0397393703460693,9.60116958618164,0.2378719300031662,0.0,0.19450326263904572,99
1667026908.87990785,194308205,0,24.679014205932617,24.877307891845703,1.0194848775863647,9.629562377929688,0.2385726273059845,0.0,0.19450326263904572,99
1667026908.97974706,194408044,0,24.666696548461914,24.862085342407227,1.0045496225357056,9.657423973083496,0.23925988376140594,0.0,0.19450326263904572,99
1667026909.07969189,194507989,0,24.61614990234375,24.78865623474121,0.8869088292121887,9.682044982910156,0.23986594378948212,0.0,0.19450326263904572,99
1667026909.17945385,194607751,0,24.621803283691406,24.797832489013672,0.9050152897834778,9.707130432128906,0.2404835969209671,0.0,0.19450326263904572,99
1667026909.27988005,194708177,0,24.6702938079834,24.86870574951172,1.0200985670089722,9.735589981079102,0.24118569493293762,0.0,0.19450326263904572,99
1667026909.37993002,194808227,0,24.659561157226562,24.853199005126953,0.9955475330352783,9.763252258300781,0.24186784029006958,0.0,0.19450326263904572,99
1667026909.47986197,194908159,0,24.6823673248291,24.88477897644043,1.0406601428985596,9.792150497436523,0.24258111417293549,0.0,0.19450326263904572,99
1667026909.57976294,195008060,0,24.66684341430664,24.8637638092041,1.0124262571334839,9.820247650146484,0.24327418208122253,0.0,0.19450326263904572,99
1667026909.67974997,195108047,0,24.60944175720215,24.78105354309082,0.8823055028915405,9.844755172729492,0.24387729167938232,0.0,0.19450326263904572,99
1667026909.77972603,195208023,0,24.644229888916016,24.83304786682129,0.9694619178771973,9.87168025970459,0.24454084038734436,0.0,0.19476525485515594,99
1667026909.87949085,195307788,0,24.656579971313477,24.851036071777344,0.9984117746353149,9.899351119995117,0.24522310495376587,0.0,0.19476525485515594,99
1667026909.97977400,195408071,0,24.673551559448242,24.875459671020508,1.0366705656051636,9.928231239318848,0.24593569338321686,0.0,0.19476525485515594,99
1667026910.07971096,195508008,0,24.638093948364258,24.823205947875977,0.9504348635673523,9.954617500305176,0.24658580124378204,0.0,0.19476525485515594,99
1667026910.17997384,195608271,0,24.602447509765625,24.77255630493164,0.8734056949615479,9.97894287109375,0.24718427658081055,0.0,0.19476525485515594,99
1667026910.27975106,195708048,0,24.649404525756836,24.84049415588379,0.9811237454414368,10.006138801574707,0.24785465002059937,0.0,0.19476525485515594,99
1667026910.37979102,195808088,0,24.660903930664062,24.8576717376709,1.0102781057357788,10.034215927124023,0.2485470473766327,0.0,0.19476525485515594,99
1667026910.47967386,195907971,0,24.656496047973633,24.852008819580078,1.003833532333374,10.0620698928833,0.24923382699489594,0.0,0.19476525485515594,99
1667026910.57974195,196008039,0,24.595165252685547,24.762346267700195,0.8583681583404541,10.085931777954102,0.24982070922851562,0.0,0.19476525485515594,99
1667026910.67968988,196107987,0,24.61155128479004,24.78692054748535,0.9004119038581848,10.110928535461426,0.2504359185695648,0.0,0.19476525485515594,99
1667026910.77982187,196208119,0,24.66775894165039,24.868391036987305,1.0301235914230347,10.13958740234375,0.25114285945892334,0.0,0.19476525485515594,99
1667026910.87977195,196308069,0,24.653717041015625,24.84916877746582,1.0035265684127808,10.167451858520508,0.2518298029899597,0.0,0.19476525485515594,99
1667026910.97983503,196408132,0,24.670677185058594,24.871509552001953,1.03114652633667,10.196114540100098,0.25253695249557495,0.0,0.19476525485515594,99
1667026911.07975793,196508055,0,24.662147521972656,24.8604679107666,1.0182572603225708,10.224380493164062,0.25323405861854553,0.0,0.19476525485515594,99
1667026911.17977190,196608069,0,24.61318016052246,24.790821075439453,0.9120737314224243,10.24972152709961,0.2538577914237976,0.0,0.19476525485515594,99
1667026911.27976704,196708064,0,24.624582290649414,24.80784034729004,0.9409213066101074,10.275858879089355,0.2545014023780823,0.0,0.19476525485515594,99
1667026911.37976503,196808062,0,24.64739227294922,24.84081268310547,0.99309241771698,10.303446769714355,0.25518137216567993,0.0,0.19476525485515594,99
1667026911.47978687,196908084,0,24.667417526245117,24.869264602661133,1.0363637208938599,10.332239151000977,0.2558916211128235,0.0,0.19476525485515594,99
1667026911.57980204,197008099,0,24.62199592590332,24.804895401000977,0.9390799403190613,10.3583345413208,0.2565341293811798,0.0,0.19476525485515594,99
1667026911.67983985,197108137,0,24.600465774536133,24.773801803588867,0.889977753162384,10.383060455322266,0.25714239478111267,0.0,0.19476525485515594,99
1667026911.77984405,197208141,0,24.66023063659668,24.863452911376953,1.0434222221374512,10.412055969238281,0.25785744190216064,0.0,0.19476525485515594,99
1667026911.87975097,197308048,0,23.8746280670166,24.989986419677734,9.699835777282715,10.68126392364502,0.2642847001552582,0.0,0.11498730629682541,99
1667026911.97981596,197408113,0,23.997482299804688,24.88735580444336,7.812163352966309,10.898428916931152,0.2694961130619049,0.0,0.11390876024961472,99
1667026912.07970285,197508000,0,23.95148468017578,24.7991943359375,7.437758922576904,11.104816436767578,0.27443939447402954,0.0,0.11397375166416168,99
1667026912.17988300,197608180,0,23.968637466430664,24.816225051879883,7.445431232452393,11.311945915222168,0.27940401434898376,0.0,0.11383985728025436,99
1667026912.27979994,197708097,0,24.0065860748291,24.870256423950195,7.635087490081787,11.523951530456543,0.2844935357570648,0.0,0.11311860382556915,99
1667026912.37983584,197808133,0,23.925704956054688,24.849502563476562,8.195775032043457,11.75171184539795,0.2899428606033325,0.0,0.1127164363861084,99
1667026912.47975492,197908052,0,23.89781951904297,24.866674423217773,8.637694358825684,11.991472244262695,0.29567262530326843,0.0,0.11216599494218826,99
1667026912.57986403,198008161,0,23.530380249023438,24.830684661865234,11.599717140197754,12.314064025878906,0.3032633364200592,0.0,0.11209786683320999,99
1667026912.67977500,198108072,0,23.186485290527344,24.7274112701416,13.65010929107666,12.692922592163086,0.3120477497577667,0.0,0.1128874346613884,99
1667026912.77977896,198208076,0,22.777679443359375,24.74324607849121,17.343210220336914,13.174736022949219,0.32302233576774597,0.0,0.11333348602056503,99
1667026912.87982798,198308125,0,22.256277084350586,24.75257110595703,21.975391387939453,13.785517692565918,0.33661606907844543,0.0,0.11359497904777527,99
1667026912.97976589,198408063,0,21.844980239868164,24.749462127685547,25.521493911743164,14.494065284729004,0.35209426283836365,0.0,0.11380532383918762,99
1667026913.07981396,198508111,0,21.640291213989258,24.65396499633789,26.34640884399414,15.226320266723633,0.3679404556751251,0.0,0.11438652873039246,99
1667026913.17981505,198608112,0,21.506418228149414,24.53520965576172,26.246057510375977,15.955443382263184,0.3836212754249573,0.0,0.11539989709854126,99
1667026913.27955699,198707854,0,21.430139541625977,24.605499267578125,27.37786293029785,16.714038848876953,0.39987805485725403,0.0,0.11598273366689682,99
1667026913.37975502,198808052,0,21.32233238220215,24.54073715209961,27.5638370513916,17.481277465820312,0.41623738408088684,0.0,0.11676186323165894,99
1667026913.47982407,198908121,0,21.291507720947266,24.549991607666016,27.750938415527344,18.252723693847656,0.43266260623931885,0.0,0.11741887778043747,99
1667026913.57982707,199008124,0,21.140544891357422,24.43754005432129,27.832365036010742,19.025938034057617,0.4490087628364563,0.0,0.11845903843641281,99
1667026913.67968488,199107982,0,21.191429138183594,24.507896423339844,27.841262817382812,19.798269271850586,0.4653755724430084,0.0,0.11912056803703308,99
1667026913.77986884,199208166,0,21.131057739257812,24.495609283447266,28.092607498168945,20.58011817932129,0.48189684748649597,0.0,0.11976642161607742,99
1667026913.87973404,199308031,0,21.11016845703125,24.515087127685547,28.309885025024414,21.36550521850586,0.498476505279541,0.0,0.120273157954216,99
1667026913.97982502,199408122,0,21.187788009643555,24.588253021240234,28.23162841796875,22.15043067932129,0.5151073336601257,0.0,0.12044874578714371,99
1667026914.07982206,199508119,0,21.098478317260742,24.52118492126465,28.316635131835938,22.937097549438477,0.531704843044281,0.0,0.12087265402078629,99
1667026914.17986298,199608160,0,21.07145118713379,24.495466232299805,28.213212966918945,23.721189498901367,0.5482268333435059,0.0,0.12136213481426239,99
1667026914.27976203,199708059,0,20.987985610961914,24.507265090942383,28.904022216796875,24.523332595825195,0.5650622248649597,0.0,0.12175742536783218,99
1667026914.38024187,199808539,0,20.948652267456055,24.521076202392578,29.266969680786133,25.34026336669922,0.5821758508682251,0.0,0.12206336110830307,99
1667026914.48010397,199908401,0,21.056791305541992,24.576187133789062,28.815635681152344,26.139657974243164,0.5990085005760193,0.0,0.12213493138551712,99
1667026914.57984591,200008143,0,21.121761322021484,24.516294479370117,27.727102279663086,26.90793800354004,0.6152359247207642,0.0,0.12242652475833893,99
1667026914.68034196,200108639,0,21.178014755249023,24.335472106933594,25.790634155273438,27.62795639038086,0.6304844617843628,0.0,0.12242652475833893,99
1667026914.78033996,200208637,0,21.31236457824707,24.413646697998047,25.41776466369629,28.333843231201172,0.6455285549163818,0.0,0.12201239168643951,99
1667026914.88003492,200308332,0,21.294830322265625,24.248016357421875,24.371578216552734,29.009017944335938,0.659906268119812,0.0,0.12117337435483932,99
1667026914.97984385,200408141,0,21.439531326293945,24.277481079101562,23.527021408081055,29.661069869995117,0.6738859415054321,0.0,0.1206250861287117,99
1667026915.07987595,200508173,0,21.64057731628418,24.569202423095703,24.17793083190918,30.333229064941406,0.6884318590164185,0.0,0.12112805247306824,99
1667026915.17979288,200608090,0,21.56861114501953,24.46086311340332,23.86920166015625,30.99565887451172,0.7027195692062378,0.0,0.12117088586091995,99
1667026915.27978301,200708080,0,21.616474151611328,24.399520874023438,22.998592376708984,31.634605407714844,0.7165313363075256,0.0,0.1210094466805458,99
1667026915.37976503,200808062,0,21.684371948242188,24.501413345336914,23.241308212280273,32.28013229370117,0.7305291891098022,0.0,0.12120836228132248,99
1667026915.47980404,200908101,0,21.63243293762207,24.42518424987793,23.05778694152832,32.920921325683594,0.7443910241127014,0.0,0.12111964821815491,99
1667026915.57984304,201008140,0,21.655719757080078,24.35854148864746,22.366979598999023,33.54252624511719,0.75785231590271,0.0,0.12083981931209564,99
1667026915.67983985,201108137,0,21.610584259033203,24.275625228881836,22.142032623291016,34.15761184692383,0.771144688129425,0.0,0.12036117166280746,99
1667026915.77984285,201208140,0,21.59937286376953,24.328262329101562,22.710390090942383,34.78852462768555,0.7847720384597778,0.0,0.12016038596630096,99
1667026915.87980103,201308098,0,21.578384399414062,24.331310272216797,22.938100814819336,35.425472259521484,0.7985163331031799,0.0,0.12001543492078781,99
1667026915.97983694,201408134,0,21.616046905517578,24.318025588989258,22.542522430419922,36.051937103271484,0.8120579719543457,0.0,0.11986138671636581,99
1667026916.07985687,201508154,0,21.67124366760254,24.259613037109375,21.649782180786133,36.65348815917969,0.8250943422317505,0.0,0.11955640465021133,99
1667026916.17991304,201608210,0,21.641387939453125,24.2127628326416,21.577014923095703,37.25322723388672,0.8380735516548157,0.0,0.11917196214199066,99
1667026916.27983403,201708131,0,21.508527755737305,24.117612838745117,21.893451690673828,37.86095428466797,0.8511448502540588,0.0,0.11917196214199066,99
1667026916.37986088,201808158,0,21.522132873535156,24.249740600585938,22.87027931213379,38.49644470214844,0.8648219108581543,0.0,0.11926428228616714,99
1667026916.48000407,201908301,0,21.559412002563477,24.28620147705078,22.87334632873535,39.13279342651367,0.8785412311553955,0.0,0.11921253800392151,99
1667026916.57978392,202008081,0,21.426403045654297,24.236419677734375,23.544206619262695,39.7854118347168,0.8925245404243469,0.0,0.11935064941644669,99
1667026916.67983794,202108135,0,21.350791931152344,24.173107147216797,23.57612419128418,40.440711975097656,0.9065156579017639,0.0,0.11971075087785721,99
1667026916.77972794,202208025,0,21.391328811645508,24.1547908782959,23.00899314880371,41.079193115234375,0.9201735854148865,0.0,0.12010356783866882,99
1667026916.87975502,202308052,0,21.386825561523438,24.049848556518555,22.17272186279297,41.695316314697266,0.9333505630493164,0.0,0.12010356783866882,99
1667026916.97976184,202408059,0,21.53478240966797,24.061925888061523,21.12837791442871,42.282310485839844,0.9459913372993469,0.0,0.11960896849632263,99
1667026917.07985687,202508154,0,21.548433303833008,24.001285552978516,20.606563568115234,42.85529708862305,0.9583383202552795,0.0,0.1190326064825058,99
1667026917.17976689,202608064,0,21.588733673095703,24.062938690185547,20.8294677734375,43.43341827392578,0.9708192348480225,0.0,0.1187838688492775,99
1667026917.27975392,202708051,0,21.585285186767578,24.048828125,20.781286239624023,44.01065444946289,0.9832789897918701,0.0,0.11854624003171921,99
1667026917.37974501,202808042,0,21.638086318969727,23.97011375427246,19.74461555480957,44.559104919433594,0.9951463937759399,0.0,0.11810954660177231,99
1667026917.47976995,202908067,0,21.909759521484375,24.08837127685547,18.439416885375977,45.071449279785156,1.0063717365264893,0.0,0.11814972013235092,99
1667026917.57980800,203008105,0,21.86452865600586,23.945104598999023,17.674036026000977,45.56257629394531,1.017109990119934,0.0,0.11771932244300842,99
1667026917.67978692,203108084,0,21.830989837646484,23.921293258666992,17.81888771057129,46.057559967041016,1.0279159545898438,0.0,0.11730834096670151,99
1667026917.77980185,203208099,0,21.879192352294922,24.01025390625,18.171504974365234,46.56243896484375,1.0389623641967773,0.0,0.11727491766214371,99
1667026917.87979198,203308089,0,21.873729705810547,23.982563018798828,17.99964714050293,47.062416076660156,1.0498987436294556,0.0,0.11715970933437347,99
1667026917.97986698,203408164,0,21.92631721496582,24.011653900146484,17.79853057861328,47.55723190307617,1.0607482194900513,0.0,0.11716341227293015,99
1667026918.07976294,203508060,0,22.026002883911133,23.958097457885742,16.514610290527344,48.015533447265625,1.0708428621292114,0.0,0.11699309945106506,99
1667026918.17967987,203607977,0,22.107358932495117,23.854005813598633,14.989986419677734,48.43159866333008,1.0800409317016602,0.0,0.1165209636092186,99
1667026918.27969694,203707994,0,22.07381820678711,23.839887619018555,15.210947036743164,48.85424041748047,1.0893702507019043,0.0,0.11610521376132965,99
1667026918.37967396,203807971,0,21.935922622680664,23.78356170654297,15.983386993408203,49.29815673828125,1.0991079807281494,0.0,0.11559741944074631,99
1667026918.48005795,203908355,0,21.928447723388672,23.87264060974121,16.83469581604004,49.76762390136719,1.1094026565551758,0.0,0.11548730731010437,99
1667026918.57978392,204008081,0,21.921354293823242,23.881132125854492,16.97831916809082,50.23798370361328,1.119713544845581,0.0,0.11542829126119614,99
1667026918.68013000,204108427,0,21.883024215698242,23.84099578857422,16.962669372558594,50.710838317871094,1.1300610303878784,0.0,0.11542829126119614,99
1667026918.77975702,204208054,0,21.906023025512695,23.895273208618164,17.233652114868164,51.187808990478516,1.1405094861984253,0.0,0.11542829126119614,99
1667026918.88014197,204308439,0,21.945802688598633,23.893712997436523,16.872751235961914,51.65833282470703,1.1508355140686035,0.0,0.11544706672430038,99
1667026918.97977304,204408070,0,21.975500106811523,23.884658813476562,16.539161682128906,52.11609649658203,1.1608951091766357,0.0,0.11543256789445877,99
1667026919.08008695,204508384,0,21.96016502380371,23.868480682373047,16.54100227355957,52.57705307006836,1.1710177659988403,0.0,0.11536883562803268,99
1667026919.17978001,204608077,0,22.038267135620117,23.908946990966797,16.203426361083984,53.02579879760742,1.1809073686599731,0.0,0.11544959992170334,99
1667026919.28003788,204708335,0,22.085798263549805,23.898000717163086,15.693070411682129,53.46288299560547,1.1905606985092163,0.0,0.11547782272100449,99
1667026919.37983584,204808133,0,22.075639724731445,23.851558685302734,15.396000862121582,53.88959503173828,1.199980616569519,0.0,0.11534932255744934,99
1667026919.48001695,204908314,0,22.08311653137207,23.88118553161621,15.588726997375488,54.32355880737305,1.2095638513565063,0.0,0.11534418910741806,99
1667026919.57982707,205008124,0,22.018335342407227,23.836273193359375,15.781453132629395,54.761131286621094,1.21919846534729,0.0,0.11519453674554825,99
1667026919.67973900,205108036,0,21.9943790435791,23.773252487182617,15.442340850830078,55.18974304199219,1.2286255359649658,0.0,0.11519453674554825,99
1667026919.77979898,205208096,0,22.10732650756836,23.806015014648438,14.76715087890625,55.6002197265625,1.23770010471344,0.0,0.11503151059150696,99
1667026919.87991595,205308213,0,22.113204956054688,23.80278778076172,14.70580768585205,56.00922775268555,1.2467446327209473,0.0,0.11489223688840866,99
1667026919.97971606,205408013,0,22.104677200317383,23.792945861816406,14.712559700012207,56.4171257019043,1.2557610273361206,0.0,0.11475013941526413,99
1667026920.08006907,205508366,0,22.169265747070312,23.831228256225586,14.481778144836426,56.82085037231445,1.2647112607955933,0.0,0.1147623136639595,99
1667026920.17968607,205607983,0,22.16983985900879,23.796449661254883,14.186552047729492,57.21343994140625,1.2734148502349854,0.0,0.11465861648321152,99
1667026920.28003097,205708328,0,22.240943908691406,23.819679260253906,13.769796371459961,57.5972900390625,1.2819520235061646,0.0,0.11465207487344742,99
1667026920.37979388,205808091,0,22.23912239074707,23.79715347290039,13.598552703857422,57.97416305541992,1.2903333902359009,0.0,0.11457335948944092,99
1667026920.48008490,205908382,0,22.21037483215332,23.787250518798828,13.774399757385254,58.35792541503906,1.2988568544387817,0.0,0.11447867006063461,99
1667026920.57979107,206008088,0,22.164377212524414,23.784799575805664,14.165070533752441,58.75027847290039,1.3075530529022217,0.0,0.11439565569162369,99
1667026920.68022585,206108523,0,22.187822341918945,23.610368728637695,12.50503921508789,59.099178314208984,1.3152943849563599,0.0,0.11375781148672104,99
1667026920.77979803,206208095,0,22.363510131835938,23.826276779174805,12.835933685302734,59.4542350769043,1.3232346773147583,0.0,0.11395876109600067,99
1667026920.88007593,206308373,0,22.307544708251953,23.85956573486328,13.587198257446289,59.83273696899414,1.3316781520843506,0.0,0.11422676593065262,99
1667026920.97982097,206408118,0,22.25139045715332,23.724496841430664,12.922170639038086,60.190799713134766,1.339645504951477,0.0,0.1139984130859375,99
1667026921.07977200,206508069,0,22.680700302124023,23.984756469726562,11.372074127197266,60.50652313232422,1.346806287765503,0.0,0.11467183381319046,99
1667026921.17976093,206608058,0,22.506868362426758,23.926544189453125,12.343377113342285,60.84941101074219,1.3545236587524414,0.0,0.11501514166593552,99
1667026921.27998686,206708284,0,22.23912239074707,23.939586639404297,14.829484939575195,61.2623176574707,1.363706350326538,0.0,0.11466784030199051,99
1667026921.37970304,206808000,0,22.218902587890625,24.00172996520996,15.619722366333008,61.69500732421875,1.37332022190094,0.0,0.11413955688476562,99
1667026921.47969794,206907995,0,22.186321258544922,23.96097755432129,15.591182708740234,62.128108978271484,1.3829292058944702,0.0,0.11382433027029037,99
1667026921.57973194,207008029,0,22.063350677490234,23.836490631103516,15.554150581359863,62.56034469604492,1.3924658298492432,0.0,0.11399781703948975,99
1667026921.67973900,207108036,0,22.002809524536133,23.85300064086914,16.216928482055664,63.010887145996094,1.402379035949707,0.0,0.11409012973308563,99
1667026921.77973795,207208035,0,21.844406127929688,23.795181274414062,17.055042266845703,63.48466491699219,1.4127284288406372,0.0,0.1143810898065567,99
1667026921.88013887,207308436,0,21.835493087768555,23.799999237060547,17.139436721801758,63.96270751953125,1.4231667518615723,0.0,0.11461904644966125,99
1667026921.97975707,207408054,0,21.769277572631836,23.75984001159668,17.313135147094727,64.44183349609375,1.4335969686508179,0.0,0.11497414857149124,99
1667026922.08014894,207508446,0,21.700664520263672,23.735761642456055,17.63905143737793,64.93376922607422,1.4442722797393799,0.0,0.11537455022335052,99
1667026922.17978406,207608081,0,21.686670303344727,23.70530128479004,17.426376342773438,65.41610717773438,1.4547325372695923,0.0,0.1158376932144165,99
1667026922.27980590,207708103,0,21.792369842529297,23.898225784301758,18.225515365600586,65.92252349853516,1.465768575668335,0.0,0.11554435640573502,99
1667026922.37980485,207808102,0,21.664249420166016,23.755191802978516,18.055498123168945,66.42410278320312,1.4766348600387573,0.0,0.11580643802881241,99
1667026922.48009396,207908391,0,21.636701583862305,23.75203514099121,18.227834701538086,66.93193817138672,1.4876227378845215,0.0,0.11604968458414078,99
1667026922.57986498,208008162,0,21.611160278320312,23.808561325073242,18.933507919311523,67.45670318603516,1.498963475227356,0.0,0.11605888605117798,99
1667026922.67998695,208108284,0,21.56928062438965,23.777706146240234,19.008695602416992,67.98541259765625,1.5103673934936523,0.0,0.11617979407310486,99
1667026922.77992296,208208220,0,21.60598373413086,23.856367111206055,19.399978637695312,68.52399444580078,1.5220040082931519,0.0,0.1159992590546608,99
1667026922.88007402,208308371,0,21.60588836669922,23.857725143432617,19.440181732177734,69.06486511230469,1.5336899757385254,0.0,0.11583410203456879,99
1667026922.97970891,208408006,0,21.665685653686523,23.883602142333984,19.187305450439453,69.59593963623047,1.5451961755752563,0.0,0.11559294164180756,99
1667026923.08006096,208508358,0,21.62802505493164,23.811006546020508,18.876733779907227,70.12218475341797,1.5565776824951172,0.0,0.11564400792121887,99
1667026923.17974901,208608046,0,21.668657302856445,23.826515197753906,18.661296844482422,70.63897705078125,1.567775845527649,0.0,0.11563277989625931,99
1667026923.28003287,208708330,0,21.624000549316406,23.82147789001465,19.0025577545166,71.16834259033203,1.5792229175567627,0.0,0.11564118415117264,99
1667026923.38003087,208808328,0,21.587617874145508,23.793127059936523,19.053707122802734,71.69766235351562,1.5906497240066528,0.0,0.11575227975845337,99
1667026923.48017907,208908476,0,21.526350021362305,23.765869140625,19.314359664916992,72.2349853515625,1.6022162437438965,0.0,0.11595095694065094,99
1667026923.57978392,209008081,0,21.46722412109375,23.740156173706055,19.556800842285156,72.7761459350586,1.6138335466384888,0.0,0.11622211337089539,99
1667026923.68010306,209108400,0,21.4746036529541,23.759017944335938,19.626462936401367,73.32311248779297,1.6255794763565063,0.0,0.11639459431171417,99
1667026923.77979398,209208091,0,21.634828567504883,23.789199829101562,18.515220642089844,73.83586883544922,1.6366729736328125,0.0,0.1163567379117012,99
1667026923.88015985,209308457,0,21.723758697509766,23.76069450378418,17.524272918701172,74.32447814941406,1.647287368774414,0.0,0.11623513698577881,99
1667026923.97978806,209408085,0,21.758541107177734,23.798137664794922,17.543302536010742,74.81002044677734,1.6578521728515625,0.0,0.11626068502664566,99
1667026924.08009195,209508389,0,21.7353515625,23.771888732910156,17.526731491088867,75.29839324951172,1.6684671640396118,0.0,0.11619607359170914,99
1667026924.17974496,209608042,0,21.700281143188477,23.656112670898438,16.893924713134766,75.76607513427734,1.678615927696228,0.0,0.1157713383436203,99
1667026924.28012300,209708420,0,21.70171546936035,23.67117691040039,17.05350685119629,76.24161529541016,1.6889359951019287,0.0,0.11548716574907303,99
1667026924.37976789,209808065,0,21.72156524658203,23.675798416137695,16.952199935913086,76.71087646484375,1.6991291046142578,0.0,0.11527904868125916,99
1667026924.48006892,209908366,0,21.779146194458008,23.765483856201172,17.21186065673828,77.19046020507812,1.7095741033554077,0.0,0.11540521681308746,99
1667026924.57972789,210008025,0,21.788633346557617,23.818714141845703,17.549747467041016,77.67633056640625,1.7201604843139648,0.0,0.11567580699920654,99
1667026924.68001890,210108316,0,21.8022403717041,23.728866577148438,16.666519165039062,78.14067077636719,1.7302842140197754,0.0,0.11559860408306122,99
1667026924.77974701,210208044,0,21.855426788330078,23.685523986816406,15.85909652709961,78.58003997802734,1.73988676071167,0.0,0.11539728939533234,99
1667026924.88124204,210309539,0,21.826486587524414,23.670854568481445,16.01131248474121,79.03148651123047,1.7497402429580688,0.0,0.11519159376621246,99
1667026924.97979903,210408096,0,21.842967987060547,23.680519104003906,15.970189094543457,79.46873474121094,1.7592910528182983,0.0,0.11506129801273346,99
1667026925.08118987,210509487,0,21.83664321899414,23.692514419555664,16.13836669921875,79.92329406738281,1.7692171335220337,0.0,0.11499743163585663,99
1667026925.17999506,210608292,0,21.759469985961914,23.64109230041504,16.36229133605957,80.37240600585938,1.778989553451538,0.0,0.11499743163585663,99
1667026925.28008604,210708383,0,21.690696716308594,23.61761474609375,16.71439552307129,80.837158203125,1.7890702486038208,0.0,0.11528497189283371,99
1667026925.37981200,210808109,0,21.75595474243164,23.65131378173828,16.440650939941406,81.2926254272461,1.7989792823791504,0.0,0.11528497189283371,99
1667026925.48006892,210908366,0,21.817096710205078,23.67566680908203,16.124248504638672,81.74171447753906,1.808777093887329,0.0,0.11526555567979813,99
1667026925.57980084,211008098,0,21.79189109802246,23.65780258178711,16.198209762573242,82.19049072265625,1.818556785583496,0.0,0.11519240587949753,99
1667026925.68112087,211109418,0,21.741771697998047,23.631439208984375,16.404438018798828,82.65222930908203,1.828595757484436,0.0,0.11519240587949753,99
1667026925.77975798,211208055,0,21.732093811035156,23.626108169555664,16.442184448242188,83.1027603149414,1.8383867740631104,0.0,0.11519240587949753,99
1667026925.88114405,211309441,0,21.714366912841797,23.65033531188965,16.800630569458008,83.57595825195312,1.8486618995666504,0.0,0.11523193120956421,99
1667026925.97967792,211407975,0,21.784320831298828,23.762903213500977,17.170433044433594,84.04595947265625,1.858900547027588,0.0,0.11523193120956421,98
1667026926.08009601,211508393,0,21.777568817138672,23.74125862121582,17.04119873046875,84.5213394165039,1.8692532777786255,0.0,0.11523193120956421,98
1667026926.17997003,211608267,0,21.756528854370117,23.673402786254883,16.634912490844727,84.98286437988281,1.8792943954467773,0.0,0.11523193120956421,98
1667026926.28006291,211708360,0,21.719636917114258,23.660511016845703,16.83009147644043,85.45081329345703,1.889458179473877,0.0,0.11532170325517654,98
1667026926.37999797,211808295,0,21.73956871032715,23.680456161499023,16.82917022705078,85.91806030273438,1.8996158838272095,0.0,0.11532873660326004,98
1667026926.48006606,211908363,0,21.787004470825195,23.765869140625,17.158464431762695,86.39505004882812,1.9100080728530884,0.0,0.11532873660326004,98
1667026926.58000803,212008305,0,21.810867309570312,23.7877140045166,17.140972137451172,86.8709487915039,1.920387864112854,0.0,0.11532873660326004,98
1667026926.68012285,212108420,0,21.80128288269043,23.63133430480957,15.903902053833008,87.31327056884766,1.9300309419631958,0.0,0.11506930738687515,98
1667026926.77999496,212208292,0,21.769563674926758,23.56130027770996,15.570926666259766,87.74527740478516,1.9394354820251465,0.0,0.11506930738687515,98
1667026926.88008189,212308379,0,21.708616256713867,23.566953659057617,16.14971923828125,88.19430541992188,1.9491832256317139,0.0,0.11506930738687515,98
1667026926.98013997,212408437,0,21.700801849365234,23.703256607055664,17.42890167236328,88.67876434326172,1.9596964120864868,0.0,0.11489278823137283,98
1667026927.08010006,212508397,0,21.769468307495117,23.74046516418457,17.155088424682617,89.15514373779297,1.9700669050216675,0.0,0.11489278823137283,98
1667026927.18007088,212608368,0,21.90554428100586,23.82318687438965,16.620792388916016,89.61672973632812,1.9801782369613647,0.0,0.11537609249353409,98
1667026927.28007603,212708373,0,21.762664794921875,23.591716766357422,15.852958679199219,90.05714416503906,1.9897629022598267,0.0,0.11537609249353409,98
1667026927.37999988,212808297,0,21.759885787963867,23.701799392700195,16.839298248291016,90.52458953857422,1.999934434890747,0.0,0.11532029509544373,98
1667026927.48116398,212909461,0,21.767744064331055,23.774639129638672,17.450315475463867,91.01499938964844,2.0106096267700195,0.0,0.11500623822212219,98
1667026927.57967997,213007977,0,21.75901985168457,23.726642608642578,17.12409210205078,91.48365020751953,2.0208070278167725,0.0,0.11490371823310852,98
1667026927.68113303,213109430,0,21.772247314453125,23.725059509277344,16.99519920349121,91.96263885498047,2.031235694885254,0.0,0.11490371823310852,98
1667026927.77992702,213208224,0,21.663192749023438,23.682401657104492,17.5601806640625,92.44452667236328,2.041674852371216,0.0,0.11498790979385376,98
1667026927.88013387,213308431,0,21.624563217163086,23.63974952697754,17.490278244018555,92.93145751953125,2.0522043704986572,0.0,0.11521747708320618,98
1667026927.97997594,213408273,0,21.713695526123047,23.700626373291016,17.24776840209961,93.40985107421875,2.062592029571533,0.0,0.11519934982061386,98
1667026928.08008790,213508385,0,21.741580963134766,23.687299728393555,16.89423179626465,93.87942504882812,2.072801351547241,0.0,0.11517056822776794,98
1667026928.18002796,213608325,0,21.67210578918457,23.6088809967041,16.81658935546875,94.3465805053711,2.08292555809021,0.0,0.11517056822776794,98
1667026928.28007603,213708373,0,21.655336380004883,23.603988647460938,16.919702529907227,94.81684112548828,2.093109130859375,0.0,0.11517056822776794,98
1667026928.37998700,213808284,0,21.65715789794922,23.612384796142578,16.97678565979004,95.28803253173828,2.103313684463501,0.0,0.11517056822776794,98
1667026928.48009205,213908389,0,21.76822280883789,23.707088470458984,16.81167984008789,95.75555419921875,2.1134908199310303,0.0,0.11532843858003616,98
1667026928.57999897,214008296,0,21.746660232543945,23.680131912231445,16.75950813293457,96.22069549560547,2.1236062049865723,0.0,0.11536567658185959,98
1667026928.68010998,214108407,0,21.633869171142578,23.602584838867188,17.028343200683594,96.69427490234375,2.1338515281677246,0.0,0.11561408638954163,98
1667026928.78002501,214208322,0,21.62722396850586,23.628759384155273,17.293529510498047,97.17427825927734,2.144232749938965,0.0,0.11573896557092667,98
1667026928.87980795,214308105,0,21.674789428710938,23.68585968017578,17.390472412109375,97.65614318847656,2.154677152633667,0.0,0.11564205586910248,98
1667026928.98111892,214409416,0,21.77579116821289,23.76535415649414,17.204498291015625,98.14054107666016,2.1652252674102783,0.0,0.11564205586910248,98
