timestamp,TimeUS,Instance,Volt,VoltR,Curr,CurrTot,EnrgTot,Temp,Res,RemPct
1667028468.07963610,112209676,0,24.72031593322754,24.762468338012695,0.23814575374126434,11.696813583374023,0.29024288058280945,0.0,0.17700433731079102,99
1667028468.17995095,112309991,0,24.741683959960938,24.791658401489258,0.2823377549648285,11.704681396484375,0.2904375493526459,0.0,0.17700433731079102,99
1667028468.28004003,112410080,0,24.78509521484375,24.85257339477539,0.3812241554260254,11.71528148651123,0.2907002568244934,0.0,0.17700433731079102,99
1667028468.38002110,112510061,0,24.73880958557129,24.788240432739258,0.27926886081695557,11.723036766052246,0.2908921241760254,0.0,0.17700433731079102,99
1667028468.47999811,112610038,0,24.729036331176758,24.77450180053711,0.2568659782409668,11.730172157287598,0.29106855392456055,0.0,0.17700433731079102,99
1667028468.57983303,112709873,0,24.756057739257812,24.812387466430664,0.31824374198913574,11.738998413085938,0.29128706455230713,0.0,0.17700433731079102,99
1667028468.68003011,112810070,0,24.779441833496094,24.844463348388672,0.3673459589481354,11.749223709106445,0.2915404438972473,0.0,0.17700433731079102,99
1667028468.77994418,112909984,0,24.766889572143555,24.82593536376953,0.333588182926178,11.758482933044434,0.29176977276802063,0.0,0.17700433731079102,99
1667028468.88006115,113010101,0,24.788928985595703,24.857210159301758,0.3857593238353729,11.769211769104004,0.2920357286930084,0.0,0.17700433731079102,99
1667028468.97998214,113110022,0,24.714567184448242,24.754547119140625,0.22587020695209503,11.775481224060059,0.29219067096710205,0.0,0.17700433731079102,99
1667028469.08001995,113210060,0,24.73871421813965,24.78907012939453,0.28448596596717834,11.783387184143066,0.2923862636089325,0.0,0.17700433731079102,99
1667028469.17995811,113309998,0,24.765823364257812,24.82811164855957,0.35189923644065857,11.793156623840332,0.2926282286643982,0.0,0.17700433731079102,99
1667028469.27995300,113409993,0,24.785480499267578,24.854305267333984,0.38882818818092346,11.80395793914795,0.29289594292640686,0.0,0.17700433731079102,99
1667028469.37996602,113510006,0,24.76880645751953,24.82828712463379,0.3360433280467987,11.813294410705566,0.2931272089481354,0.0,0.17700433731079102,99
1667028469.48004103,113610081,0,24.71082878112793,24.74983024597168,0.22034621238708496,11.819419860839844,0.2932785749435425,0.0,0.17700433731079102,99
1667028469.58001709,113710057,0,24.755102157592773,24.811922073364258,0.32100576162338257,11.82833480834961,0.29349929094314575,0.0,0.17700433731079102,99
1667028469.68000507,113810045,0,24.767080307006836,24.827104568481445,0.33911219239234924,11.837754249572754,0.29373258352279663,0.0,0.17700433731079102,99
1667028469.77996516,113910005,0,24.78423309326172,24.85104751586914,0.37747329473495483,11.848236083984375,0.29399237036705017,0.0,0.17700433731079102,99
1667028469.88001609,114010056,0,24.738618850708008,24.78794288635254,0.27865511178970337,11.85598087310791,0.29418396949768066,0.0,0.17700433731079102,99
1667028469.97989011,114109930,0,24.724149703979492,24.76787757873535,0.24704553186893463,11.862835884094238,0.2943534553050995,0.0,0.17700433731079102,99
1667028470.07997608,114210016,0,24.77210807800293,24.834274291992188,0.35121724009513855,11.872600555419922,0.2945953607559204,0.0,0.17700433731079102,99
1667028470.17987204,114309912,0,24.76641082763672,24.8270320892334,0.34248799085617065,11.882104873657227,0.2948307394981384,0.0,0.17700433731079102,99
1667028470.27965617,114409696,0,24.78126335144043,24.84813117980957,0.37778016924858093,11.892577171325684,0.2950902581214905,0.0,0.17700433731079102,99
1667028470.37993312,114509973,0,24.753087997436523,24.87750816345215,0.719654381275177,11.91262435913086,0.295586496591568,0.0,0.17288804054260254,99
1667028470.48003912,114610079,0,24.51409149169922,24.99578857421875,2.8939619064331055,11.993104934692383,0.2975594103336334,0.0,0.16644877195358276,99
1667028470.57995105,114709991,0,24.55817413330078,24.872468948364258,1.895959496498108,12.04572868347168,0.29885175824165344,0.0,0.16577111184597015,99
1667028470.67999601,114810036,0,24.619888305664062,24.84394645690918,1.3478559255599976,12.083183288574219,0.2997739017009735,0.0,0.16623371839523315,99
1667028470.77994704,114909987,0,24.660999298095703,24.92452621459961,1.6099389791488647,12.127891540527344,0.3008764684200287,0.0,0.1636878103017807,99
1667028470.87999415,115010034,0,24.635602951049805,24.886096954345703,1.5378201007843018,12.170631408691406,0.30192941427230835,0.0,0.16288906335830688,99
1667028470.97994900,115109989,0,24.626340866088867,24.858882904052734,1.4249873161315918,12.210200309753418,0.3029038608074188,0.0,0.16318871080875397,99
1667028471.08005404,115210094,0,24.62429428100586,24.852258682250977,1.3926615715026855,12.248929023742676,0.3038575053215027,0.0,0.1636900007724762,99
1667028471.17994118,115309981,0,24.651607513427734,24.879932403564453,1.3997201919555664,12.287769317626953,0.30481499433517456,0.0,0.16312120854854584,99
1667028471.28006101,115410101,0,24.677959442138672,24.912139892578125,1.4356261491775513,12.327699661254883,0.3058003783226013,0.0,0.16312120854854584,99
1667028471.38002205,115510062,0,24.628032684326172,24.841089248657227,1.3061189651489258,12.363969802856445,0.3066936433315277,0.0,0.16312120854854584,99
1667028471.47997713,115610017,0,24.61394691467285,24.82415008544922,1.2886263132095337,12.399751663208008,0.30757439136505127,0.0,0.16312120854854584,99
1667028471.58002210,115710062,0,24.664735794067383,24.89631462097168,1.4196678400039673,12.439207077026367,0.3085475564002991,0.0,0.16312120854854584,99
1667028471.67998409,115810024,0,24.658220291137695,24.887245178222656,1.4040166139602661,12.478194236755371,0.30950891971588135,0.0,0.16312120854854584,99
1667028471.77978516,115909825,0,24.66981315612793,24.903894424438477,1.4350123405456543,12.517980575561523,0.3104904592037201,0.0,0.16312120854854584,99
1667028471.88003516,116010075,0,24.67623519897461,24.912569046020508,1.4488223791122437,12.558329582214355,0.3114861249923706,0.0,0.16312120854854584,99
1667028471.97998810,116110028,0,24.603235244750977,24.811763763427734,1.2783626317977905,12.59382152557373,0.31235936284065247,0.0,0.16312120854854584,99
1667028472.08012605,116210166,0,24.630142211914062,24.849355697631836,1.3438663482666016,12.631209373474121,0.31328025460243225,0.0,0.16312120854854584,99
1667028472.17984700,116309887,0,24.6542911529541,24.882715225219727,1.4003338813781738,12.670001983642578,0.31423667073249817,0.0,0.16312120854854584,99
1667028472.28002906,116410069,0,24.659751892089844,24.890228271484375,1.4129163026809692,12.70932388305664,0.3152063488960266,0.0,0.16312120854854584,99
1667028472.38001704,116510057,0,24.643651962280273,24.868017196655273,1.3739415407180786,12.747480392456055,0.3161466717720032,0.0,0.16330039501190186,99
1667028472.47998214,116610022,0,24.595739364624023,24.804067611694336,1.2757370471954346,12.782914161682129,0.31701821088790894,0.0,0.16330039501190186,99
1667028472.58002210,116710062,0,24.641834259033203,24.867000579833984,1.3788516521453857,12.821233749389648,0.3179624676704407,0.0,0.16330039501190186,99
1667028472.68005610,116810096,0,24.64844512939453,24.875064849853516,1.3877514600753784,12.859798431396484,0.3189130425453186,0.0,0.16330039501190186,99
1667028472.77996612,116910006,0,24.66377830505371,24.895811080932617,1.4208954572677612,12.899234771728516,0.3198857009410858,0.0,0.16330039501190186,99
1667028472.88005400,117010094,0,24.619951248168945,24.836057662963867,1.3233729600906372,12.936030387878418,0.320791631937027,0.0,0.16330039501190186,99
1667028472.98003101,117110071,0,24.59775161743164,24.807283401489258,1.2831023931503296,12.97166633605957,0.32166820764541626,0.0,0.16330039501190186,99
1667028473.08009410,117210134,0,24.66071128845215,24.893896102905273,1.4279539585113525,13.011360168457031,0.3226470947265625,0.0,0.16330039501190186,99
1667028473.18004608,117310086,0,24.652374267578125,24.882001876831055,1.4061648845672607,13.050397872924805,0.32360947132110596,0.0,0.16330039501190186,99
1667028473.28004217,117410082,0,24.671539306640625,24.907581329345703,1.445446491241455,13.090558052062988,0.3246002793312073,0.0,0.16330039501190186,99
1667028473.38007903,117510119,0,24.670005798339844,24.905044555664062,1.439308762550354,13.130556106567383,0.32558703422546387,0.0,0.16330039501190186,99
1667028473.48004603,117610086,0,24.52741241455078,24.968524932861328,2.7601585388183594,13.207207679748535,0.3274671137332916,0.0,0.1598140299320221,99
1667028473.58009005,117710130,0,23.765958786010742,24.99254035949707,10.379288673400879,13.495674133300781,0.3343227803707123,0.0,0.11817596852779388,99
1667028473.68005013,117810090,0,23.82230567932129,24.954994201660156,9.676513671875,13.76435375213623,0.34072333574295044,0.0,0.11705546081066132,99
1667028473.78004718,117910087,0,23.968957901000977,24.976655960083008,8.696548461914062,14.005960464477539,0.34651440382003784,0.0,0.1158733069896698,99
1667028473.88002300,118010063,0,23.951580047607422,24.929466247558594,8.47811222076416,14.241423606872559,0.35215410590171814,0.0,0.11534234881401062,99
1667028473.97991014,118109950,0,23.828536987304688,24.87884521484375,9.100789070129395,14.49395751953125,0.35817164182662964,0.0,0.1154085025191307,99
1667028474.08006811,118210108,0,23.578805923461914,24.95411491394043,11.984010696411133,14.827399253845215,0.36603379249572754,0.0,0.11476194858551025,99
1667028474.17995310,118309993,0,23.234590530395508,24.954940795898438,15.050750732421875,15.24503231048584,0.37573733925819397,0.0,0.11430327594280243,99
1667028474.28006005,118410100,0,22.864980697631836,24.86418914794922,17.455223083496094,15.730452537536621,0.3868364691734314,0.0,0.11453352123498917,99
1667028474.38004613,118510086,0,22.025524139404297,24.40686798095703,20.317270278930664,16.29478645324707,0.39926624298095703,0.0,0.11720789968967438,99
1667028474.48009109,118610131,0,21.32923126220703,24.32236099243164,25.049497604370117,16.990982055664062,0.4141155481338501,0.0,0.11948858201503754,99
1667028474.58006501,118710105,0,21.0662784576416,24.379310607910156,27.36067771911621,17.750864028930664,0.4301234483718872,0.0,0.12108736485242844,99
1667028474.68008995,118810130,0,21.055450439453125,24.311176300048828,26.519800186157227,18.487768173217773,0.44563931226730347,0.0,0.12276583164930344,99
1667028474.78006005,118910100,0,20.966007232666016,24.24702262878418,26.350500106811523,19.219566345214844,0.46098217368125916,0.0,0.12451435625553131,99
1667028474.88014913,119010189,0,21.024017333984375,24.36408042907715,26.591920852661133,19.958948135375977,0.4765269458293915,0.0,0.12560440599918365,99
1667028474.97984219,119109882,0,20.928476333618164,24.28929901123047,26.486963272094727,20.692489624023438,0.491878867149353,0.0,0.12688589096069336,99
1667028475.08009005,119210130,0,20.936811447143555,24.304443359375,26.313264846801758,21.42528533935547,0.5072212815284729,0.0,0.1279822736978531,99
1667028475.18005300,119310093,0,20.76595115661621,24.19141960144043,26.46548080444336,22.16022491455078,0.5224829912185669,0.0,0.1294315904378891,99
1667028475.28001904,119410059,0,20.487377166748047,23.90253448486328,25.889759063720703,22.87920570373535,0.5372130274772644,0.0,0.1319114863872528,99
1667028475.38003111,119510071,0,20.5535945892334,24.076576232910156,26.395206451416016,23.612552642822266,0.5522859692573547,0.0,0.13347049057483673,99
1667028475.47999310,119610033,0,20.901933670043945,24.47677993774414,26.823314666748047,24.357421875,0.567855179309845,0.0,0.13327383995056152,99
1667028475.58001018,119710050,0,20.7243595123291,24.13768768310547,25.38523292541504,25.062744140625,0.5824725031852722,0.0,0.1344611793756485,99
1667028475.68003702,119810077,0,20.637529373168945,24.064626693725586,25.22865104675293,25.763784408569336,0.596940279006958,0.0,0.1358415186405182,99
1667028475.77989316,119909933,0,20.664758682250977,24.30118179321289,26.707923889160156,26.504653930664062,0.6122502088546753,0.0,0.13615520298480988,99
1667028475.88004303,120010083,0,20.394329071044922,24.07326889038086,26.78188705444336,27.249778747558594,0.6274465322494507,0.0,0.13736669719219208,99
1667028475.98003697,120110077,0,20.606300354003906,24.350858688354492,27.26247215270996,28.007083892822266,0.64305180311203,0.0,0.13735215365886688,99
1667028476.08012104,120210161,0,20.431316375732422,23.926589965820312,25.44753074645996,28.714611053466797,0.6575074791908264,0.0,0.13735215365886688,99
1667028476.18005705,120310097,0,20.276554107666016,23.563217163085938,23.928739547729492,29.37891960144043,0.6709773540496826,0.0,0.13735215365886688,99
1667028476.28026509,120410305,0,20.505582809448242,23.898849487304688,24.70486068725586,30.066654205322266,0.6850797533988953,0.0,0.13735215365886688,99
1667028476.37996316,120510003,0,20.662647247314453,24.0235538482666,24.524105072021484,30.74587631225586,0.6991142630577087,0.0,0.1370450258255005,99
1667028476.48082113,120610861,0,20.60457420349121,23.918291091918945,24.179773330688477,31.42335319519043,0.7130733728408813,0.0,0.1370450258255005,99
1667028476.58085108,120710891,0,20.81453514099121,23.99433708190918,23.242536544799805,32.0692253112793,0.7265169024467468,0.0,0.13680963218212128,99
1667028476.68090200,120810942,0,20.827482223510742,23.910842895507812,22.61395835876465,32.69775390625,0.739607572555542,0.0,0.136347696185112,99
1667028476.78088808,120910928,0,20.90020751953125,24.106197357177734,23.46073341369629,33.349403381347656,0.753227174282074,0.0,0.13665342330932617,99
1667028476.88087702,121010917,0,20.758859634399414,23.99216651916504,23.686601638793945,34.00735092163086,0.7668853998184204,0.0,0.13650359213352203,99
1667028476.98087096,121110911,0,20.563369750976562,23.757591247558594,23.40027618408203,34.657196044921875,0.7802484035491943,0.0,0.13650359213352203,99
1667028477.08077002,121210810,0,20.48756980895996,23.801820755004883,24.15215492248535,35.3276481628418,0.7939842939376831,0.0,0.13722383975982666,99
1667028477.18083811,121310878,0,20.463613510131836,23.72088623046875,23.7369327545166,35.98750686645508,0.807487428188324,0.0,0.13722383975982666,99
1667028477.28077006,121410810,0,20.552349090576172,23.69385528564453,22.893295288085938,36.62287902832031,0.8205457925796509,0.0,0.13722383975982666,99
1667028477.38086414,121510904,0,20.736629486083984,23.835538864135742,22.611263275146484,37.2515983581543,0.8335832953453064,0.0,0.13705159723758698,99
1667028477.48075414,121610794,0,20.669931411743164,23.676645278930664,22.046281814575195,37.863548278808594,0.8462322354316711,0.0,0.13638189435005188,99
1667028477.58086014,121710900,0,20.757848739624023,23.774208068847656,22.146804809570312,38.47943878173828,0.8590167760848999,0.0,0.13619840145111084,99
1667028477.68080902,121810849,0,20.754642486572266,23.709205627441406,21.750749588012695,39.083343505859375,0.8715505599975586,0.0,0.13583727180957794,99
1667028477.78082705,121910867,0,20.733274459838867,23.55154800415039,20.872432708740234,39.663299560546875,0.8835749626159668,0.0,0.13502369821071625,99
1667028477.88082719,122010867,0,20.950326919555664,23.83718490600586,21.326013565063477,40.255741119384766,0.8959868550300598,0.0,0.13536790013313293,99
1667028477.98082709,122110867,0,20.76470375061035,23.530223846435547,20.547744750976562,40.82655715942383,0.9078397154808044,0.0,0.13458995521068573,99
1667028478.08084917,122210889,0,20.71161460876465,23.39617919921875,19.94624137878418,41.38077926635742,0.9193185567855835,0.0,0.13458995521068573,99
1667028478.18078113,122310821,0,20.90892791748047,23.624099731445312,20.189298629760742,41.94125747680664,0.9310375452041626,0.0,0.13448573648929596,99
1667028478.28082299,122410863,0,20.836193084716797,23.519821166992188,20.01958656311035,42.497642517089844,0.9426304697990417,0.0,0.13405011594295502,99
1667028478.38094497,122510985,0,20.844436645507812,23.52808952331543,20.065927505493164,43.055747985839844,0.9542638659477234,0.0,0.1337418258190155,99
1667028478.48088217,122610922,0,20.900421142578125,23.467666625976562,19.259662628173828,43.590450286865234,0.9654393792152405,0.0,0.13329650461673737,99
1667028478.58083701,122710877,0,21.02823257446289,23.50160026550293,18.587339401245117,44.10657501220703,0.9762925505638123,0.0,0.13306738436222076,99
1667028478.68079305,122810833,0,21.142078399658203,23.61157989501953,18.53056526184082,44.62112808227539,0.9871712923049927,0.0,0.133266419172287,99
1667028478.78081799,122910858,0,21.23809814453125,23.758745193481445,18.821495056152344,45.14411926269531,0.9982786178588867,0.0,0.13392381370067596,99
1667028478.88083506,123010875,0,21.17877960205078,23.656225204467773,18.476858139038086,45.65748977661133,1.0091511011123657,0.0,0.13408365845680237,99
1667028478.98078108,123110821,0,21.113616943359375,23.47049331665039,17.64518928527832,46.14740753173828,1.0194950103759766,0.0,0.13357046246528625,99
1667028479.08075619,123210796,0,20.976869583129883,23.441307067871094,18.45046615600586,46.65983963012695,1.03024423122406,0.0,0.13357046246528625,99
1667028479.18079019,123310830,0,20.909215927124023,23.399436950683594,18.64349937438965,47.17793273925781,1.0410771369934082,0.0,0.13357046246528625,99
1667028479.28076196,123410802,0,21.049911499023438,23.5029354095459,18.38025665283203,47.688392639160156,1.051822304725647,0.0,0.13345973193645477,99
1667028479.38082719,123510867,0,21.012615203857422,23.383684158325195,17.8323917388916,48.1840934753418,1.062238335609436,0.0,0.1329641342163086,99
1667028479.48080611,123610846,0,21.089468002319336,23.368127822875977,17.194368362426758,48.661659240722656,1.0723098516464233,0.0,0.13252365589141846,99
1667028479.58082700,123710867,0,21.059282302856445,23.197345733642578,16.2479248046875,49.113121032714844,1.0818172693252563,0.0,0.13158994913101196,99
1667028479.68086314,123810903,0,21.227846145629883,23.514537811279297,17.32940101623535,49.594703674316406,1.0920403003692627,0.0,0.13195449113845825,99
1667028479.78079796,123910838,0,21.064937591552734,23.279081344604492,16.846664428710938,50.062400817871094,1.1018922328948975,0.0,0.13142916560173035,99
1667028479.88086915,124010909,0,21.10135269165039,23.360187530517578,17.203882217407227,50.54066467285156,1.1119842529296875,0.0,0.13129791617393494,99
1667028479.98081708,124110857,0,20.986356735229492,23.191116333007812,16.79203987121582,51.00690460205078,1.1217689514160156,0.0,0.13129791617393494,99
1667028480.08088708,124210927,0,21.196796417236328,23.423017501831055,16.926149368286133,51.47743606567383,1.1317427158355713,0.0,0.13152551651000977,99
1667028480.18079901,124310839,0,21.220489501953125,23.39759635925293,16.541309356689453,51.936553955078125,1.1414854526519775,0.0,0.13161633908748627,99
1667028480.28090000,124410940,0,21.256689071655273,23.372602462768555,16.078214645385742,52.38365936279297,1.1509894132614136,0.0,0.13160131871700287,99
1667028480.38084006,124510880,0,21.355104446411133,23.52264976501465,16.40750503540039,52.83918762207031,1.160717248916626,0.0,0.1321069300174713,99
1667028480.48091602,124610956,0,21.357118606567383,23.37713623046875,15.30301284790039,53.264625549316406,1.1698033809661865,0.0,0.13200128078460693,99
1667028480.58089304,124710933,0,21.289653778076172,23.244991302490234,14.873983383178711,53.677635192871094,1.1785962581634521,0.0,0.13146021962165833,99
1667028480.68075013,124810790,0,21.468181610107422,23.56458854675293,15.864927291870117,54.11783981323242,1.1880465745925903,0.0,0.13214094936847687,99
1667028480.78080416,124910844,0,21.34801483154297,23.349275588989258,15.168902397155762,54.539459228515625,1.1970473527908325,0.0,0.13193178176879883,99
1667028480.88081098,125010851,0,21.530757904052734,23.592418670654297,15.546989440917969,54.97138214111328,1.2063469886779785,0.0,0.13260841369628906,99
1667028480.98080111,125110841,0,21.602439880371094,23.595407485961914,14.967584609985352,55.38714599609375,1.2153284549713135,0.0,0.13315226137638092,99
1667028481.08081198,125210852,0,21.602630615234375,23.444860458374023,13.845292091369629,55.77180480957031,1.2236381769180298,0.0,0.13305824995040894,99
1667028481.18085909,125310899,0,21.635425567626953,23.578929901123047,14.563581466674805,56.17657470703125,1.2323955297470093,0.0,0.13344965875148773,99
1667028481.28082800,125410868,0,21.568323135375977,23.467872619628906,14.24240493774414,56.571956634521484,1.240923285484314,0.0,0.13337278366088867,99
1667028481.38080502,125510845,0,21.670284271240234,23.63335609436035,14.662229537963867,56.97933578491211,1.249751329421997,0.0,0.13388629257678986,99
1667028481.48081899,125610859,0,21.65888214111328,23.580127716064453,14.326187133789062,57.37737274169922,1.25837242603302,0.0,0.134107306599617,99
1667028481.58086205,125710902,0,21.78355598449707,23.703826904296875,14.254681587219238,57.773536682128906,1.2670023441314697,0.0,0.1347115933895111,99
1667028481.68083596,125810876,0,21.9034366607666,23.740314483642578,13.574614524841309,58.15053939819336,1.2752599716186523,0.0,0.13531717658042908,99
1667028481.78080297,125910843,0,21.998306274414062,23.836627960205078,13.504030227661133,58.5255012512207,1.283508539199829,0.0,0.13613131642341614,99
1667028481.88082910,126010869,0,22.13381004333496,24.004701614379883,13.620342254638672,58.90403366088867,1.2918869256973267,0.0,0.1373600959777832,99
1667028481.98076415,126110804,0,21.988628387451172,23.709514617919922,12.533341407775879,59.251983642578125,1.2995378971099854,0.0,0.1373046636581421,99
1667028482.08088708,126210927,0,21.984987258911133,23.656002044677734,12.190648078918457,59.59105682373047,1.3069924116134644,0.0,0.13707348704338074,99
1667028482.18076801,126310808,0,21.89318084716797,23.705211639404297,13.220464706420898,59.95783996582031,1.3150224685668945,0.0,0.13706250488758087,99
1667028482.28075600,126410796,0,21.820449829101562,23.786001205444336,14.372220039367676,60.35710144042969,1.3237345218658447,0.0,0.13676050305366516,99
1667028482.38077712,126510817,0,21.761035919189453,23.62145233154297,13.603463172912598,60.73508071899414,1.3319597244262695,0.0,0.13676050305366516,99
1667028482.48077106,126610811,0,21.696828842163086,23.501508712768555,13.195914268493652,61.10164260864258,1.3399128913879395,0.0,0.13676050305366516,99
1667028482.58100796,126711048,0,21.72797393798828,23.56690216064453,13.446335792541504,61.47603225708008,1.3480476140975952,0.0,0.13676050305366516,99
1667028482.68081808,126810858,0,21.633678436279297,23.401214599609375,12.924317359924316,61.83442306518555,1.355800986289978,0.0,0.13676050305366516,99
1667028482.78088403,126910924,0,21.43339729309082,23.36488151550293,14.026355743408203,62.22433090209961,1.364158034324646,0.0,0.13770386576652527,99
1667028482.88088799,127010928,0,21.32204246520996,23.33207130432129,14.49620246887207,62.627052307128906,1.3727449178695679,0.0,0.13865898549556732,99
1667028482.98089314,127110933,0,21.192058563232422,23.323762893676758,15.277609825134277,63.05148696899414,1.3817394971847534,0.0,0.13953132927417755,99
1667028483.08088398,127210924,0,21.27384376525879,23.527706146240234,16.15585708618164,63.5002555847168,1.3912864923477173,0.0,0.13950739800930023,99
1667028483.18082809,127310868,0,21.15242576599121,23.368297576904297,15.815825462341309,63.93937301635742,1.4005749225616455,0.0,0.1401047557592392,99
1667028483.28083611,127410876,0,21.104415893554688,23.43712043762207,16.61895179748535,64.40108489990234,1.4103190898895264,0.0,0.14036411046981812,99
1667028483.38082099,127510861,0,20.952434539794922,23.294231414794922,16.591026306152344,64.86190795898438,1.419974446296692,0.0,0.14114844799041748,99
1667028483.48085308,127610893,0,20.977922439575195,23.325929641723633,16.568315505981445,65.32232666015625,1.4296330213546753,0.0,0.14171665906906128,99
1667028483.58087301,127710913,0,20.943998336791992,23.32532501220703,16.74385643005371,65.78756713867188,1.4393770694732666,0.0,0.1422208845615387,99
1667028483.68085814,127810898,0,21.09272575378418,23.542421340942383,17.273239135742188,66.26734161376953,1.449496865272522,0.0,0.14182031154632568,99
1667028483.78082108,127910861,0,21.099340438842773,23.50139808654785,16.960519790649414,66.73833465576172,1.4594345092773438,0.0,0.14162638783454895,99
1667028483.88086915,128010909,0,21.15436553955078,23.554780960083008,16.994482040405273,67.21066284179688,1.4694262742996216,0.0,0.1412467062473297,99
1667028483.98079610,128110836,0,20.98932647705078,23.344541549682617,16.617725372314453,67.6719741821289,1.4791088104248047,0.0,0.14172904193401337,99
1667028484.08081102,128210851,0,20.978017807006836,23.300003051757812,16.314210891723633,68.12525177001953,1.4886176586151123,0.0,0.14232900738716125,99
1667028484.18083000,128310870,0,20.911802291870117,23.20094108581543,16.083431243896484,68.57213592529297,1.4979628324508667,0.0,0.14232900738716125,99
1667028484.28082013,128410860,0,21.09186363220215,23.56314468383789,17.363157272338867,69.05443572998047,1.508135437965393,0.0,0.14232900738716125,99
1667028484.38087010,128510910,0,21.06024169921875,23.456884384155273,16.853418350219727,69.5228500366211,1.5180003643035889,0.0,0.14220519363880157,99
1667028484.48082209,128610862,0,21.32827377319336,23.764368057250977,17.130844116210938,69.99851989746094,1.5281455516815186,0.0,0.14220519363880157,99
1667028484.58089995,128710940,0,21.486196517944336,23.861574172973633,16.55266571044922,70.45870971679688,1.538033366203308,0.0,0.14350424706935883,99
1667028484.68094802,128810988,0,21.576467514038086,23.94959259033203,16.385717391967773,70.91412353515625,1.5478595495224,0.0,0.14482887089252472,99
1667028484.78090501,128910945,0,21.327219009399414,23.624155044555664,15.868608474731445,71.35476684570312,1.5572571754455566,0.0,0.14474712312221527,99
1667028484.88087606,129010916,0,21.32472801208496,23.67849349975586,16.247379302978516,71.80585479736328,1.5668765306472778,0.0,0.14487044513225555,99
1667028484.98079705,129110837,0,21.148401260375977,23.435733795166016,15.788818359375,72.24424743652344,1.5761479139328003,0.0,0.14487044513225555,99
1667028485.08085108,129210891,0,21.100679397583008,23.36449432373047,15.626474380493164,72.67858123779297,1.5853126049041748,0.0,0.14487044513225555,99
1667028485.18078899,129310829,0,21.12339210510254,23.432910919189453,15.94195556640625,73.12117767333984,1.5946617126464844,0.0,0.14487044513225555,99
1667028485.28080201,129410842,0,21.145238876342773,23.440263748168945,15.841910362243652,73.56131744384766,1.6039685010910034,0.0,0.14487044513225555,99
1667028485.38077617,129510816,0,21.22554588317871,23.545351028442383,16.007631301879883,74.00590515136719,1.6134051084518433,0.0,0.14491870999336243,99
1667028485.48081112,129610851,0,21.250938415527344,23.589555740356445,16.13744354248047,74.45436096191406,1.622935175895691,0.0,0.14491870999336243,99
1667028485.58081317,129710853,0,21.31763458251953,23.65660858154297,16.13990020751953,74.9027328491211,1.6324933767318726,0.0,0.14491870999336243,99
1667028485.68087602,129810916,0,21.390945434570312,23.711448669433594,15.955767631530762,75.34626007080078,1.6419808864593506,0.0,0.1454334557056427,99
1667028485.78085613,129910896,0,21.382225036621094,23.75054359436035,16.284547805786133,75.7985610961914,1.6516520977020264,0.0,0.1454334557056427,99
1667028485.88083696,130010877,0,21.2530460357666,23.53382682800293,15.682635307312012,76.23413848876953,1.6609094142913818,0.0,0.1454334557056427,99
1667028485.98087406,130110914,0,21.33574867248535,23.662927627563477,15.980010032653809,76.67823028564453,1.6703845262527466,0.0,0.14563068747520447,99
1667028486.08087206,130210912,0,21.26080894470215,23.553932189941406,15.746159553527832,77.11564636230469,1.6796844005584717,0.0,0.14563068747520447,99
1667028486.18088913,130310929,0,21.32396125793457,23.648115158081055,15.943796157836914,77.55863952636719,1.6891307830810547,0.0,0.14577165246009827,99
1667028486.28083014,130410870,0,21.214141845703125,23.512035369873047,15.763652801513672,77.99629211425781,1.6984152793884277,0.0,0.14577165246009827,99
1667028486.38090801,130510948,0,21.070112228393555,23.408124923706055,15.957914352416992,78.43994903564453,1.7077631950378418,0.0,0.14651115238666534,99
1667028486.48081899,130610859,0,21.041553497314453,23.450170516967773,16.384796142578125,78.89471435546875,1.717332124710083,0.0,0.1470031589269638,99
1667028486.58095813,130710998,0,21.12434959411621,23.536836624145508,16.4001407623291,79.35094451904297,1.7269697189331055,0.0,0.14710165560245514,99
1667028486.68088198,130810922,0,21.175342559814453,23.45405387878418,15.490726470947266,79.78095245361328,1.7360752820968628,0.0,0.14710165560245514,99
1667028486.78098607,130911026,0,21.357213973999023,23.60683250427246,15.269562721252441,80.20558166503906,1.7451441287994385,0.0,0.1473270207643509,99
1667028486.88082314,131010863,0,21.46808624267578,23.71989631652832,15.225676536560059,80.62786102294922,1.7542096376419067,0.0,0.14789561927318573,99
1667028486.98075414,131110794,0,21.537656784057617,23.844877243041992,15.508013725280762,81.05838012695312,1.7634819746017456,0.0,0.14877602458000183,99
1667028487.08081102,131210851,0,21.460134506225586,23.693429946899414,14.993975639343262,81.47514343261719,1.7724257707595825,0.0,0.14894618093967438,99
1667028487.18079209,131310832,0,21.468469619750977,23.714963912963867,15.061491012573242,81.89347076416016,1.7814066410064697,0.0,0.14915481209754944,99
1667028487.28080916,131410849,0,21.41288948059082,23.67458724975586,15.160923957824707,82.3147201538086,1.7904267311096191,0.0,0.1491793990135193,99
1667028487.38085198,131510892,0,21.51341438293457,23.833070755004883,15.549445152282715,82.74687194824219,1.799723744392395,0.0,0.1491793990135193,99
1667028487.48089719,131610937,0,21.360471725463867,23.565767288208008,14.7828369140625,83.15772247314453,1.8084996938705444,0.0,0.1491793990135193,99
1667028487.58090210,131710942,0,21.282562255859375,23.48414421081543,14.757944107055664,83.56771850585938,1.817225456237793,0.0,0.1491793990135193,99
1667028487.68083096,131810871,0,21.32377052307129,23.57823371887207,15.112435340881348,83.98723602294922,1.8261712789535522,0.0,0.1491793990135193,99
1667028487.78086495,131910905,0,21.2454776763916,23.5776309967041,15.611129760742188,84.42105865478516,1.8353880643844604,0.0,0.14939041435718536,98
1667028487.88084006,132010880,0,21.37532615661621,23.6734619140625,15.383419036865234,84.84830474853516,1.8445205688476562,0.0,0.14939041435718536,98
1667028487.98081112,132110851,0,21.430906295776367,23.685441970825195,15.073460578918457,85.26692962646484,1.853492021560669,0.0,0.14956985414028168,98
1667028488.08081412,132210854,0,21.369478225708008,23.571434020996094,14.746930122375488,85.6766128540039,1.8622467517852783,0.0,0.14931625127792358,98
1667028488.18083501,132310875,0,21.398515701293945,23.67255210876465,15.229667663574219,86.09978485107422,1.8713018894195557,0.0,0.14931625127792358,98
1667028488.28081012,132410850,0,21.490032196044922,23.772043228149414,15.283065795898438,86.5241470336914,1.8804214000701904,0.0,0.14931625127792358,98
1667028488.38093400,132510974,0,21.567461013793945,23.75518798828125,14.618958473205566,86.93086242675781,1.8891931772232056,0.0,0.1496499925851822,98
1667028488.48077416,132610814,0,21.504671096801758,23.578031539916992,13.88740348815918,87.3160400390625,1.8974761962890625,0.0,0.14929789304733276,98
1667028488.58082318,132710863,0,21.450838088989258,23.4974422454834,13.759669303894043,87.69847106933594,1.905679702758789,0.0,0.14873933792114258,98
1667028488.68080711,132810847,0,21.29319953918457,23.41954803466797,14.29580307006836,88.09554290771484,1.9141346216201782,0.0,0.14873933792114258,98
1667028488.78077698,132910817,0,21.4233341217041,23.664894104003906,15.070392608642578,88.51407623291016,1.9231009483337402,0.0,0.14873933792114258,98
1667028488.88097095,133011011,0,21.43416404724121,23.531362533569336,14.123332023620605,88.90718078613281,1.9315268993377686,0.0,0.1484917253255844,98
1667028488.98082113,133110861,0,21.48130989074707,23.5821590423584,14.149725914001465,89.29966735839844,1.939958095550537,0.0,0.14847281575202942,98
1667028489.08086801,133210908,0,21.441064834594727,23.571178436279297,14.351964950561523,89.69855499267578,1.9485106468200684,0.0,0.14841970801353455,98
1667028489.18081307,133310853,0,21.36756134033203,23.486652374267578,14.277697563171387,90.094970703125,1.9569810628890991,0.0,0.14841970801353455,98
1667028489.28091502,133410955,0,21.359514236450195,23.553062438964844,14.773937225341797,90.50580596923828,1.9657562971115112,0.0,0.14847423136234283,98
1667028489.38091302,133510953,0,21.331754684448242,23.573589324951172,15.10234260559082,90.92534637451172,1.9747058153152466,0.0,0.14844286441802979,98
1667028489.48082209,133610862,0,21.278060913085938,23.43201446533203,14.510319709777832,91.32807922363281,1.9832751750946045,0.0,0.14844286441802979,98
1667028489.58087397,133710914,0,21.30422019958496,23.46792221069336,14.575993537902832,91.73300170898438,1.9919017553329468,0.0,0.14844286441802979,98
1667028489.68081307,133810853,0,21.252567291259766,23.523645401000977,15.29626178741455,92.15789031982422,2.000931739807129,0.0,0.14847274124622345,98
1667028489.78086710,133910907,0,21.188650131225586,23.52962875366211,15.766722679138184,92.59612274169922,2.0102171897888184,0.0,0.14847590029239655,98
1667028489.88079715,134010837,0,21.22842025756836,23.583784103393555,15.885794639587402,93.03712463378906,2.0195789337158203,0.0,0.14826855063438416,98
1667028489.98080301,134110843,0,21.220273971557617,23.548439025878906,15.707186698913574,93.47350311279297,2.028838872909546,0.0,0.14822295308113098,98
1667028490.08078003,134210820,0,21.286108016967773,23.63422966003418,15.881806373596191,93.91459655761719,2.0382280349731445,0.0,0.14784984290599823,98
1667028490.18083906,134310879,0,21.34830093383789,23.82705307006836,16.765338897705078,94.38055419921875,2.04817533493042,0.0,0.14784984290599823,98
1667028490.28080106,134410841,0,21.471878051757812,23.97568702697754,16.9348087310791,94.85088348388672,2.058274269104004,0.0,0.14784984290599823,98
1667028490.38082004,134510860,0,21.403785705566406,23.863435745239258,16.636137008666992,95.31312561035156,2.0681679248809814,0.0,0.14784984290599823,98
1667028490.48085403,134610894,0,21.18299674987793,23.66605567932129,16.78252601623535,95.77950286865234,2.078047275543213,0.0,0.1479550451040268,98
1667028490.58085203,134710892,0,21.236181259155273,23.78778839111328,17.290424346923828,96.25981903076172,2.088247299194336,0.0,0.14757339656352997,98
1667028490.68086505,134810905,0,21.143131256103516,23.651212692260742,16.973102569580078,96.73139190673828,2.0982179641723633,0.0,0.147768035531044,98
1667028490.78085208,134910892,0,21.10432243347168,23.6512451171875,17.215850830078125,97.20958709716797,2.1083099842071533,0.0,0.14794054627418518,98
1667028490.88090205,135010942,0,21.111221313476562,23.668861389160156,17.278457641601562,97.6898193359375,2.118448257446289,0.0,0.1480248123407364,98
1667028490.98095798,135110998,0,20.96872329711914,23.430376052856445,16.630001068115234,98.15206146240234,2.128140926361084,0.0,0.1480248123407364,98
1667028491.08090305,135210943,0,20.911035537719727,23.40723991394043,16.758586883544922,98.61735534667969,2.1378707885742188,0.0,0.14895080029964447,98
1667028491.18080616,135310846,0,20.9172420501709,23.456396102905273,16.975046157836914,99.08846282958984,2.1477251052856445,0.0,0.14958161115646362,98
1667028491.28083396,135410874,0,20.9899959564209,23.475839614868164,16.6186466217041,99.55026245117188,2.1574182510375977,0.0,0.14958161115646362,98
1667028491.38089514,135510935,0,21.020183563232422,23.48674774169922,16.48975372314453,100.00862884521484,2.16705322265625,0.0,0.14958161115646362,98
1667028491.48079896,135610839,0,21.01472282409668,23.550437927246094,16.946096420288086,100.47894287109375,2.176936626434326,0.0,0.14963416755199432,98
1667028491.58080411,135710844,0,20.982906341552734,23.493885040283203,16.750913619995117,100.94430541992188,2.1867012977600098,0.0,0.14990094304084778,98
1667028491.68079805,135810838,0,21.02651023864746,23.514026641845703,16.594402313232422,101.40526580810547,2.1963937282562256,0.0,0.14990094304084778,98
1667028491.78079104,135910831,0,21.110071182250977,23.591175079345703,16.535173416137695,101.86458587646484,2.206089973449707,0.0,0.15005001425743103,98
1667028491.88079715,136010837,0,21.084293365478516,23.5706787109375,16.56524658203125,102.32479858398438,2.2157931327819824,0.0,0.15009643137454987,98
1667028491.98085403,136110894,0,21.020854949951172,23.484668731689453,16.414871215820312,102.78105926513672,2.22538423538208,0.0,0.15009643137454987,98
1667028492.08084917,136210889,0,20.969097137451172,23.42542839050293,16.365020751953125,103.23566436767578,2.234916925430298,0.0,0.15009643137454987,98
1667028492.18085408,136310894,0,21.02938461303711,23.582870483398438,17.036935806274414,103.70896911621094,2.244870185852051,0.0,0.1498793661594391,98
1667028492.28089714,136410937,0,21.04212760925293,23.5173282623291,16.520748138427734,104.1681137084961,2.2545316219329834,0.0,0.14982375502586365,98
1667028492.38083410,136510874,0,21.063404083251953,23.4935245513916,16.23349952697754,104.6187973022461,2.264024496078491,0.0,0.1496978998184204,98
1667028492.48089814,136610938,0,20.98923110961914,23.427759170532227,16.289661407470703,105.07161712646484,2.273528814315796,0.0,0.1496978998184204,98
1667028492.58083105,136710871,0,20.861780166625977,23.403743743896484,16.935354232788086,105.54176330566406,2.283336877822876,0.0,0.1500980257987976,98
1667028492.68079996,136810840,0,20.93345832824707,23.584041595458984,17.700122833251953,106.03331756591797,2.2936267852783203,0.0,0.14974944293498993,98
1667028492.78080606,136910846,0,20.926176071166992,23.547208786010742,17.522127151489258,106.5201187133789,2.3038136959075928,0.0,0.14958417415618896,98
1667028492.88093615,137010976,0,20.974857330322266,23.560718536376953,17.31006622314453,107.0016098022461,2.313912868499756,0.0,0.14938484132289886,98
1667028492.98082995,137110870,0,20.96696662902832,23.466411590576172,16.73158073425293,107.46592712402344,2.32364821434021,0.0,0.14938484132289886,98
1667028493.08094716,137210987,0,21.063404083251953,23.54473304748535,16.59593391418457,107.92749786376953,2.3333704471588135,0.0,0.14951422810554504,98
1667028493.18081617,137310856,0,21.187692642211914,23.604814529418945,16.133148193359375,108.37501525878906,2.3428523540496826,0.0,0.14982329308986664,98
1667028493.28077698,137410817,0,21.379541397094727,23.75697898864746,15.787283897399902,108.81346893310547,2.3522262573242188,0.0,0.15059193968772888,98
1667028493.38082910,137510869,0,21.287738800048828,23.52461814880371,14.873676300048828,109.22689819335938,2.361027240753174,0.0,0.1503918468952179,98
1667028493.48080516,137610845,0,21.335460662841797,23.593015670776367,15.003182411193848,109.64358520507812,2.369917392730713,0.0,0.1504717469215393,98
1667028493.58084512,137710885,0,21.405797958374023,23.608198165893555,14.62540340423584,110.05003356933594,2.378617763519287,0.0,0.1505873203277588,98
1667028493.68082714,137810867,0,21.40033721923828,23.573570251464844,14.434517860412598,110.45095825195312,2.387197732925415,0.0,0.15055811405181885,98
1667028493.78088903,137910929,0,21.378681182861328,23.545368194580078,14.402602195739746,110.85131072998047,2.395756721496582,0.0,0.15043717622756958,98
1667028493.88088799,138010928,0,21.24114227294922,23.433738708496094,14.574833869934082,111.25615692138672,2.404356002807617,0.0,0.15043717622756958,98
1667028493.98081398,138110854,0,21.14773178100586,23.323421478271484,14.462445259094238,111.65766906738281,2.4128470420837402,0.0,0.15043717622756958,98
1667028494.08084917,138210889,0,21.125404357910156,23.330270767211914,14.656397819519043,112.0649642944336,2.4214513301849365,0.0,0.15043717622756958,98
1667028494.18087602,138310916,0,21.122529983520508,23.366962432861328,14.919403076171875,112.47953033447266,2.4302079677581787,0.0,0.15043717622756958,98
1667028494.28078818,138410828,0,21.172359466552734,23.450244903564453,15.13698673248291,112.89967346191406,2.439103364944458,0.0,0.15048477053642273,98
1667028494.38086104,138510901,0,21.089563369750977,23.338354110717773,14.943646430969238,113.31510925292969,2.4478647708892822,0.0,0.15048477053642273,98
1667028494.48083210,138610872,0,21.037145614624023,23.397762298583984,15.669437408447266,113.75028228759766,2.457019567489624,0.0,0.1506509929895401,98
1667028494.58077002,138710810,0,21.045961380004883,23.482759475708008,16.19483184814453,114.19989776611328,2.466482162475586,0.0,0.1504676789045334,98
1667028494.68083906,138810879,0,21.071069717407227,23.474838256835938,15.989216804504395,114.6443862915039,2.4758479595184326,0.0,0.1503368318080902,98
1667028494.78081417,138910854,0,21.10112762451172,23.515953063964844,16.09222984313965,115.09131622314453,2.485278606414795,0.0,0.15006160736083984,98
1667028494.88077712,139010817,0,21.04922103881836,23.417659759521484,15.768564224243164,115.52920532226562,2.4944958686828613,0.0,0.1502000391483307,98
1667028494.98079300,139110833,0,21.138818740844727,23.513572692871094,15.810606956481934,115.96849060058594,2.503782033920288,0.0,0.1502000391483307,98
1667028495.08081818,139210858,0,21.16814422607422,23.559078216552734,15.918325424194336,116.41081237792969,2.5131452083587646,0.0,0.1502000391483307,98
1667028495.18095398,139310994,0,21.189800262451172,23.599586486816406,16.04384422302246,116.8570556640625,2.5226011276245117,0.0,0.1502000391483307,98
1667028495.28083396,139410874,0,21.045867919921875,23.46459197998047,16.089876174926758,117.30339050292969,2.531994581222534,0.0,0.15032579004764557,98
1667028495.38088202,139510922,0,21.082664489746094,23.564741134643555,16.54192352294922,117.76329803466797,2.5416905879974365,0.0,0.15004760026931763,98
1667028495.48080707,139610847,0,21.061389923095703,23.54334831237793,16.55910873413086,118.22297668457031,2.5513720512390137,0.0,0.14988474547863007,98
1667028495.58089805,139710938,0,21.024593353271484,23.485002517700195,16.406278610229492,118.67916107177734,2.5609631538391113,0.0,0.14996756613254547,98
1667028495.68083811,139810878,0,21.031970977783203,23.570152282714844,16.95407485961914,119.14986419677734,2.5708630084991455,0.0,0.14970926940441132,98
1667028495.78078508,139910825,0,21.05853843688965,23.672454833984375,17.533584594726562,119.63668823242188,2.5811147689819336,0.0,0.14908051490783691,98
1667028495.88081503,140010855,0,21.027179718017578,23.576858520507812,17.1237850189209,120.1125259399414,2.5911202430725098,0.0,0.1488969475030899,98
1667028495.98080516,140110845,0,20.982044219970703,23.54362678527832,17.207565307617188,120.59050750732422,2.601149320602417,0.0,0.14886373281478882,98
1667028496.08088207,140210922,0,20.929529190063477,23.38594627380371,16.501108169555664,121.04926300048828,2.610750913619995,0.0,0.14886373281478882,98
1667028496.18079114,140310831,0,20.90097427368164,23.32468032836914,16.281373977661133,121.50114440917969,2.6201958656311035,0.0,0.14886373281478882,98
1667028496.28076601,140410806,0,20.866666793823242,23.264469146728516,16.107370376586914,121.94849395751953,2.629530668258667,0.0,0.14886373281478882,98
1667028496.38078618,140510826,0,20.91812515258789,23.28650665283203,15.909733772277832,122.39055633544922,2.638777732849121,0.0,0.14886373281478882,98
1667028496.48081017,140610850,0,20.958757400512695,23.31960105895996,15.85909652709961,122.83123016357422,2.6480135917663574,0.0,0.14886373281478882,98
1667028496.58082104,140710861,0,21.12204933166504,23.53434181213379,16.154935836791992,123.28006744384766,2.657493829727173,0.0,0.14932237565517426,98
1667028496.68080306,140810843,0,21.25562286376953,23.653369903564453,15.974929809570312,123.72377014160156,2.6669249534606934,0.0,0.15009431540966034,98
1667028496.78083110,140910871,0,21.190950393676758,23.568151473999023,15.805084228515625,124.16295623779297,2.676231861114502,0.0,0.1504073292016983,98
1667028496.88084102,141010881,0,21.267230987548828,23.796062469482422,16.813215255737305,124.63007354736328,2.6861660480499268,0.0,0.1504073292016983,98
1667028496.98082709,141110867,0,21.135465621948242,23.703392028808594,17.07314682006836,125.10429382324219,2.6961889266967773,0.0,0.1504073292016983,98
1667028497.08085513,141210895,0,21.076915740966797,23.64121437072754,17.07928466796875,125.57889556884766,2.7061920166015625,0.0,0.1501408815383911,98
1667028497.18088102,141310921,0,21.08755111694336,23.700664520263672,17.458908081054688,126.06402587890625,2.7164223194122314,0.0,0.14967219531536102,98
1667028497.28096318,141411003,0,21.026988983154297,23.572500228881836,16.99765396118164,126.53661346435547,2.7263593673706055,0.0,0.14975664019584656,98
1667028497.38090205,141510942,0,20.993450164794922,23.42406463623047,16.230432510375977,126.98721313476562,2.735819101333618,0.0,0.14975664019584656,98
1667028497.48082900,141610869,0,20.957704544067383,23.321311950683594,15.782988548278809,127.42534637451172,2.7450013160705566,0.0,0.14975664019584656,98
1667028497.58082199,141710862,0,20.85719108581543,23.25015640258789,15.979022026062012,127.86921691894531,2.7542591094970703,0.0,0.14975664019584656,98
1667028497.68081212,141810852,0,20.928380966186523,23.39556312561035,16.439422607421875,128.3258056640625,2.763814687728882,0.0,0.15007713437080383,98
1667028497.78074002,141910780,0,20.953392028808594,23.441959381103516,16.570465087890625,128.78585815429688,2.773454427719116,0.0,0.1501808911561966,98
1667028497.88078499,142010825,0,21.009836196899414,23.50798988342285,16.634296417236328,129.2481689453125,2.7831673622131348,0.0,0.1501808911561966,98
1667028497.98078609,142110826,0,21.064937591552734,23.483938217163086,16.103073120117188,129.6955108642578,2.792590618133545,0.0,0.15021978318691254,98
1667028498.08082509,142210865,0,21.06100845336914,23.469951629638672,16.03801155090332,130.14122009277344,2.8019776344299316,0.0,0.15020205080509186,98
1667028498.18079400,142310834,0,21.09857177734375,23.54021644592285,16.23104476928711,130.59197998046875,2.811487913131714,0.0,0.1504305601119995,98
1667028498.28088498,142410925,0,21.130578994750977,23.578731536865234,16.240558624267578,131.04354858398438,2.8210299015045166,0.0,0.15074311196804047,98
1667028498.38086915,142510909,0,21.18970489501953,23.663440704345703,16.410268783569336,131.4993438720703,2.830688238143921,0.0,0.15074311196804047,98
1667028498.48079515,142610835,0,21.144676208496094,23.57111930847168,16.08268165588379,131.94580078125,2.840128183364868,0.0,0.15087303519248962,98
1667028498.58084416,142710884,0,21.181175231933594,23.638347625732422,16.25037956237793,132.3974609375,2.8496947288513184,0.0,0.1512070745229721,98
1667028498.68080997,142810850,0,21.140926361083984,23.534934997558594,15.842524528503418,132.83741760253906,2.8589959144592285,0.0,0.1511128842830658,98
1667028498.78083110,142910871,0,21.181272506713867,23.507471084594727,15.411039352416992,133.265625,2.86806583404541,0.0,0.15094366669654846,98
1667028498.88082409,143010864,0,21.117738723754883,23.391267776489258,15.062105178833008,133.68389892578125,2.876898765563965,0.0,0.15094366669654846,98
1667028498.98081207,143110852,0,21.13393211364746,23.409154891967773,15.111822128295898,134.10377502441406,2.885772466659546,0.0,0.1505591869354248,98
1667028499.08081698,143210857,0,21.15750503540039,23.457897186279297,15.292579650878906,134.52862548828125,2.894761323928833,0.0,0.15042532980442047,98
1667028499.18084598,143310886,0,21.173606872558594,23.48947525024414,15.395079612731934,134.9564208984375,2.9038193225860596,0.0,0.15042917430400848,98
1667028499.28077602,143410816,0,21.13968276977539,23.4431209564209,15.328485488891602,135.38194274902344,2.9128148555755615,0.0,0.15027177333831787,98
1667028499.38095713,143510997,0,21.126073837280273,23.380905151367188,15.005023956298828,135.79953002929688,2.9216370582580566,0.0,0.15027177333831787,98
1667028499.48080397,143610844,0,21.11784553527832,23.369827270507812,14.986064910888672,136.215087890625,2.930412530899048,0.0,0.15027177333831787,98
1667028499.58078504,143710825,0,21.08889389038086,23.412094116210938,15.446023941040039,136.64422607421875,2.939462423324585,0.0,0.150407612323761,98
1667028499.68079114,143810831,0,21.151660919189453,23.446321487426758,15.25513744354248,137.0680389404297,2.9484269618988037,0.0,0.15041890740394592,98
1667028499.78079414,143910834,0,21.169580459594727,23.459630966186523,15.218926429748535,137.49082946777344,2.9573774337768555,0.0,0.15047390758991241,98
1667028499.88084698,144010887,0,21.20810317993164,23.484943389892578,15.117959976196289,137.91102600097656,2.9662890434265137,0.0,0.1506049633026123,98
1667028499.98084903,144110889,0,21.084293365478516,23.367372512817383,15.159390449523926,138.33216857910156,2.975168466567993,0.0,0.1506049633026123,98
1667028500.08091807,144210958,0,21.134796142578125,23.460840225219727,15.452774047851562,138.76174926757812,2.9842474460601807,0.0,0.1505260467529297,98
1667028500.18099618,144311036,0,21.156837463378906,23.383275985717773,14.811376571655273,139.17352294921875,2.9929592609405518,0.0,0.15031945705413818,98
1667028500.27984500,144409885,0,21.201000213623047,23.486000061035156,15.181450843811035,139.59042358398438,3.001797914505005,0.0,0.15051263570785522,98
1667028500.38006616,144510106,0,21.069440841674805,23.381799697875977,15.339531898498535,140.01748657226562,3.010796070098877,0.0,0.15074501931667328,98
1667028500.48078108,144610821,0,21.023345947265625,23.344886779785156,15.365006446838379,140.44737243652344,3.01983380317688,0.0,0.15109270811080933,98
1667028500.58087397,144710914,0,21.109018325805664,23.47154426574707,15.65532112121582,140.88267517089844,3.029022693634033,0.0,0.15090887248516083,98
1667028500.68075299,144810793,0,21.05583381652832,23.39212989807129,15.466585159301758,141.31182861328125,3.0380587577819824,0.0,0.15105438232421875,98
1667028500.78082705,144910867,0,21.130578994750977,23.490007400512695,15.619722366333008,141.74606323242188,3.047234535217285,0.0,0.15105438232421875,98
1667028500.88080096,145010841,0,21.146486282348633,23.498682022094727,15.571847915649414,142.1785430908203,3.056379795074463,0.0,0.15105438232421875,98
1667028500.98084807,145110888,0,21.098957061767578,23.417497634887695,15.349045753479004,142.60513305664062,3.065380573272705,0.0,0.15105438232421875,98
1667028501.08079910,145210839,0,21.061965942382812,23.42823600769043,15.659618377685547,143.03993225097656,3.074538469314575,0.0,0.15110649168491364,98
1667028501.18082619,145310866,0,21.072315216064453,23.481599807739258,15.961289405822754,143.48345947265625,3.0838847160339355,0.0,0.15094543993473053,98
1667028501.28081107,145410851,0,21.092395782470703,23.54694366455078,16.30398178100586,143.93630981445312,3.0934364795684814,0.0,0.1505490243434906,98
1667028501.38082314,145510863,0,21.042606353759766,23.529932022094727,16.55297088623047,144.39620971679688,3.103113889694214,0.0,0.15026457607746124,98
1667028501.48091817,145610958,0,20.99210548400879,23.432132720947266,16.224294662475586,144.84735107421875,3.112584352493286,0.0,0.15039339661598206,98
1667028501.58083606,145710876,0,20.939111709594727,23.307275772094727,15.746466636657715,145.284423828125,3.1217362880706787,0.0,0.15039339661598206,98
1667028501.68086219,145810902,0,20.96402931213379,23.3804988861084,16.044763565063477,145.73025512695312,3.131082773208618,0.0,0.15060797333717346,98
1667028501.78080797,145910848,0,21.039348602294922,23.51345443725586,16.427453994750977,146.18637084960938,3.140679121017456,0.0,0.15060797333717346,98
1667028501.88091207,146010952,0,20.979360580444336,23.33860969543457,15.664834976196289,146.62197875976562,3.149817705154419,0.0,0.15060797333717346,98
1667028501.98087311,146110913,0,21.030820846557617,23.349037170410156,15.419631004333496,147.05018615722656,3.158823251724243,0.0,0.1503419131040573,98
1667028502.08077216,146210812,0,21.058324813842773,23.358516693115234,15.317743301391602,147.47528076171875,3.1677749156951904,0.0,0.1501651406288147,98
1667028502.18097305,146311013,0,21.081750869750977,23.381126403808594,15.318528175354004,147.9016876220703,3.1767642498016357,0.0,0.15010416507720947,98
1667028502.27986312,146409903,0,21.066659927368164,23.37099838256836,15.360095024108887,148.32362365722656,3.1856529712677,0.0,0.15002116560935974,98
1667028502.37992311,146509963,0,20.991912841796875,23.261905670166016,15.131155014038086,148.74423217773438,3.1944823265075684,0.0,0.15002116560935974,98
1667028502.48075199,146610792,0,20.960100173950195,23.366764068603516,16.0413875579834,149.19357299804688,3.2039005756378174,0.0,0.15002837777137756,98
1667028502.58082509,146710865,0,20.971311569213867,23.401491165161133,16.212018966674805,149.64413452148438,3.2133495807647705,0.0,0.14989984035491943,98
1667028502.68075514,146810795,0,20.999006271362305,23.40972900390625,16.097856521606445,150.09115600585938,3.2227365970611572,0.0,0.14975427091121674,98
1667028502.78082418,146910864,0,21.137861251831055,23.52721405029297,15.955151557922363,150.53469848632812,3.232112169265747,0.0,0.14975427091121674,98
1667028502.88084817,147010888,0,21.16229820251465,23.45608901977539,15.297796249389648,150.9597625732422,3.241107702255249,0.0,0.1499425619840622,98
1667028502.98082709,147110867,0,21.14849853515625,23.402524948120117,15.03632640838623,151.3773956298828,3.2499399185180664,0.0,0.14990544319152832,98
1667028503.08087897,147210919,0,21.108793258666992,23.45526885986328,15.653038024902344,151.81246948242188,3.2591235637664795,0.0,0.14990544319152832,98
1667028503.18084908,147310889,0,21.067811965942383,23.40262222290039,15.575223922729492,152.24488830566406,3.26823353767395,0.0,0.14990544319152832,98
1667028503.28082299,147410863,0,21.125499725341797,23.484371185302734,15.735727310180664,152.6820526123047,3.2774689197540283,0.0,0.14990544319152832,98
1667028503.38083696,147510877,0,21.14044761657715,23.511924743652344,15.819814682006836,153.12158203125,3.2867608070373535,0.0,0.14990544319152832,98
1667028503.48083210,147610872,0,21.085824966430664,23.387052536010742,15.351195335388184,153.5480194091797,3.29575252532959,0.0,0.14990544319152832,98
1667028503.58091617,147710956,0,21.126266479492188,23.465734481811523,15.594250679016113,153.98158264160156,3.3049120903015137,0.0,0.15002119541168213,98
1667028503.68084407,147810884,0,21.166706085205078,23.470733642578125,15.34689712524414,154.40760803222656,3.313929557800293,0.0,0.15012982487678528,98
1667028503.78083897,147910879,0,21.049604415893555,23.443620681762695,15.945330619812012,154.85055541992188,3.323253631591797,0.0,0.15013901889324188,98
1667028503.88087797,148010918,0,20.95895004272461,23.327899932861328,15.730508804321289,155.2877197265625,3.33241605758667,0.0,0.15059587359428406,98
1667028503.98079515,148110835,0,20.98762321472168,23.342544555664062,15.637351989746094,155.7217559814453,3.3415255546569824,0.0,0.15059587359428406,98
1667028504.08080816,148210848,0,21.026124954223633,23.3955135345459,15.724678039550781,156.1585693359375,3.350710153579712,0.0,0.15067963302135468,98
1667028504.18079305,148310833,0,21.00676727294922,23.32709312438965,15.399067878723145,156.58636474609375,3.359696865081787,0.0,0.15067963302135468,98
1667028504.28076196,148410802,0,21.070207595825195,23.477930068969727,15.979089736938477,157.03012084960938,3.369046926498413,0.0,0.15067963302135468,98
1667028504.38080215,148510842,0,21.088605880737305,23.516952514648438,16.1159610748291,157.47799682617188,3.3784921169281006,0.0,0.15067963302135468,98
1667028504.48079395,148610834,0,21.049888610839844,23.3823299407959,15.479474067687988,157.90797424316406,3.387543201446533,0.0,0.15067963302135468,98
1667028504.58089113,148710931,0,21.07586097717285,23.449504852294922,15.752913475036621,158.3460235595703,3.396775484085083,0.0,0.15067963302135468,98
1667028504.68084717,148810887,0,21.0595703125,23.46257781982422,15.947786331176758,158.7888641357422,3.4061014652252197,0.0,0.15067963302135468,98
1667028504.78085804,148910898,0,21.045677185058594,23.429380416870117,15.818279266357422,159.2283477783203,3.4153506755828857,0.0,0.15069295465946198,98
1667028504.88090396,149010944,0,21.0447998046875,23.456472396850586,16.013803482055664,159.67324829101562,3.424713373184204,0.0,0.15059958398342133,98
1667028504.98080301,149110843,0,20.928285598754883,23.323442459106445,15.858482360839844,160.113525390625,3.433927536010742,0.0,0.1510331779718399,98
1667028505.08088899,149210929,0,21.00954818725586,23.4638614654541,16.26756477355957,160.56582641601562,3.443430185317993,0.0,0.1508716195821762,98
1667028505.18078518,149310825,0,20.9440975189209,23.42276382446289,16.42714500427246,161.02169799804688,3.4529778957366943,0.0,0.15088842809200287,98
1667028505.28081107,149410851,0,20.98319435119629,23.481733322143555,16.58243179321289,161.48248291015625,3.462646484375,0.0,0.15067388117313385,98
1667028505.38081503,149510855,0,21.012231826782227,23.420568466186523,15.988296508789062,161.92665100097656,3.4719796180725098,0.0,0.15063121914863586,98
1667028505.48085809,149610898,0,20.99996566772461,23.362537384033203,15.68447494506836,162.362548828125,3.481133460998535,0.0,0.15063121914863586,98
1667028505.58081317,149710853,0,20.931350708007812,23.356225967407227,16.07207679748535,162.80882263183594,3.4904747009277344,0.0,0.15087498724460602,98
1667028505.68090200,149810942,0,20.973804473876953,23.455732345581055,16.468883514404297,163.26666259765625,3.500077247619629,0.0,0.15070410072803497,98
1667028505.78081417,149910854,0,20.93140411376953,23.372848510742188,16.181909561157227,163.71588134765625,3.5094799995422363,0.0,0.15087497234344482,98
1667028505.88079810,150010838,0,20.994787216186523,23.443553924560547,16.230432510375977,164.16668701171875,3.51894474029541,0.0,0.15087497234344482,98
1667028505.98083115,150110871,0,20.905189514160156,23.289873123168945,15.805695533752441,164.6059112548828,3.5281267166137695,0.0,0.15087497234344482,98
1667028506.08083606,150210876,0,20.951187133789062,23.34800148010254,15.886101722717285,165.04725646972656,3.5373733043670654,0.0,0.15087497234344482,98
1667028506.18084311,150310883,0,21.01845932006836,23.417648315429688,15.891013145446777,165.48873901367188,3.5466525554656982,0.0,0.1509777009487152,98
1667028506.28084111,150410881,0,20.96939468383789,23.343563079833984,15.725292205810547,165.9255828857422,3.5558128356933594,0.0,0.1509777009487152,98
1667028506.38091111,150510951,0,20.95454216003418,23.33436393737793,15.76273250579834,166.36378479003906,3.564995050430298,0.0,0.1509777009487152,98
1667028506.48083115,150610871,0,21.00811004638672,23.441679000854492,16.118724822998047,166.8112030029297,3.574394464492798,0.0,0.1509777009487152,98
1667028506.58085203,150710892,0,21.086305618286133,23.59233856201172,16.59869956970215,167.2724151611328,3.5841195583343506,0.0,0.1509777009487152,98
1667028506.68088818,150810928,0,21.16814422607422,23.635351181030273,16.34152603149414,167.72654724121094,3.5937325954437256,0.0,0.1509777009487152,98
1667028506.78079009,150910830,0,21.154258728027344,23.52269172668457,15.663949012756348,168.1612548828125,3.602928638458252,0.0,0.15120278298854828,97
1667028506.88086200,151010902,0,21.187501907348633,23.604307174682617,15.935511589050293,168.60426330566406,3.6123149394989014,0.0,0.15166161954402924,97
1667028506.98083901,151110879,0,21.096466064453125,23.453144073486328,15.555582046508789,169.0363006591797,3.621429443359375,0.0,0.15150050818920135,97
1667028507.08084512,151210885,0,21.10259437561035,23.472763061523438,15.650718688964844,169.4710235595703,3.630603075027466,0.0,0.1514415442943573,97
1667028507.18074918,151310789,0,21.150222778320312,23.546110153198242,15.798946380615234,169.90957641601562,3.639878749847412,0.0,0.15164858102798462,97
1667028507.28084207,151410882,0,21.157316207885742,23.478742599487305,15.314982414245605,170.33541870117188,3.64888858795166,0.0,0.15157873928546906,97
1667028507.38079810,151510838,0,21.16747283935547,23.522886276245117,15.529191017150879,170.76663208007812,3.6580162048339844,0.0,0.15167644619941711,97
