timestamp,TimeUS,Instance,Volt,VoltR,Curr,CurrTot,EnrgTot,Temp,Res,RemPct
1667372585.87954998,121199299,0,24.71746826171875,24.744277954101562,0.19224394857883453,11.998244285583496,0.29741406440734863,0.0,0.13945446908473969,99
1667372585.97979498,121299544,0,24.78998374938965,24.839414596557617,0.3544566333293915,12.0081148147583,0.297658771276474,0.0,0.13945446908473969,99
1667372586.07985377,121399603,0,24.775033950805664,24.819843292236328,0.32131263613700867,12.017045974731445,0.29788005352020264,0.0,0.13945446908473969,99
1667372586.17970991,121499459,0,24.78499984741211,24.831096649169922,0.33021241426467896,12.026206016540527,0.2981070876121521,0.0,0.13959987461566925,99
1667372586.27994490,121599694,0,24.739768981933594,24.77318572998047,0.2393733114004135,12.03287124633789,0.2982719838619232,0.0,0.13959987461566925,99
1667372586.37982297,121699572,0,24.736223220825195,24.767412185668945,0.22341510653495789,12.039070129394531,0.2984253168106079,0.0,0.13959987461566925,99
1667372586.47995877,121799708,0,24.79966163635254,24.850601196289062,0.3648908734321594,12.04922103881836,0.2986770570278168,0.0,0.13959987461566925,99
1667372586.57987690,121899626,0,24.791324615478516,24.840377807617188,0.35138776898384094,12.058974266052246,0.29891884326934814,0.0,0.13959987461566925,99
1667372586.67990589,121999655,0,24.795637130737305,24.84554672241211,0.3575255274772644,12.068909645080566,0.29916518926620483,0.0,0.13959987461566925,99
1667372586.77991700,122099666,0,24.80255889892578,24.854825973510742,0.3744044303894043,12.079310417175293,0.2994231581687927,0.0,0.13959987461566925,99
1667372586.87984300,122199592,0,24.70785903930664,24.731250762939453,0.16756132245063782,12.083962440490723,0.29953810572624207,0.0,0.13959987461566925,99
1667372586.97983694,122299586,0,24.785383224487305,24.832338333129883,0.3363502025604248,12.093303680419922,0.29976963996887207,0.0,0.13959987461566925,99
1667372587.07996297,122399712,0,24.776472091674805,24.820384979248047,0.3145610988140106,12.102055549621582,0.29998648166656494,0.0,0.13959987461566925,99
1667372587.17968178,122499431,0,24.794775009155273,24.845285415649414,0.3618219792842865,12.112078666687012,0.30023500323295593,0.0,0.13959987461566925,99
1667372587.27991581,122599665,0,24.7598934173584,24.799179077148438,0.2814170718193054,12.119915008544922,0.30042901635169983,0.0,0.13959987461566925,99
1667372587.37978292,122699532,0,24.729610443115234,24.759984970092773,0.21758420765399933,12.125950813293457,0.3005782961845398,0.0,0.13959987461566925,99
1667372587.47984290,122799592,0,24.7835636138916,24.829875946044922,0.3317468464374542,12.135171890258789,0.30080682039260864,0.0,0.13959987461566925,99
1667372587.57985687,122899606,0,24.7804012298584,24.82714080810547,0.33481577038764954,12.144474983215332,0.30103737115859985,0.0,0.13959987461566925,99
1667372587.67991185,122999661,0,24.805126190185547,24.859106063842773,0.3866799771785736,12.15522289276123,0.3013039827346802,0.0,0.13959987461566925,99
1667372587.77990794,123099657,0,24.715993881225586,24.742984771728516,0.1933399885892868,12.16059398651123,0.30143672227859497,0.0,0.13959987461566925,99
1667372587.87981892,123199568,0,24.750024795532227,24.786996841430664,0.2648451030254364,12.167943954467773,0.30161863565444946,0.0,0.13959987461566925,99
1667372587.97988677,123299636,0,24.780303955078125,24.824901580810547,0.3194712996482849,12.176825523376465,0.3018387258052826,0.0,0.13959987461566925,99
1667372588.07991099,123399660,0,24.788354873657227,24.8372802734375,0.35046708583831787,12.186563491821289,0.3020801246166229,0.0,0.13959987461566925,99
1667372588.17987895,123499628,0,24.759990692138672,24.863075256347656,0.7567879557609558,12.207581520080566,0.30260053277015686,0.0,0.1362137496471405,99
1667372588.27990079,123599650,0,24.53441047668457,24.926382064819336,3.304579496383667,12.29940414428711,0.3048533499240875,0.0,0.11861445754766464,99
1667372588.37981796,123699567,0,24.55510711669922,24.78705406188965,1.931558609008789,12.353018760681152,0.3061698377132416,0.0,0.120082788169384,99
1667372588.47992492,123799674,0,24.677385330200195,24.838884353637695,1.3493903875350952,12.390541076660156,0.30709579586982727,0.0,0.11968231201171875,99
1667372588.57989788,123899647,0,24.665502548217773,24.827144622802734,1.350311040878296,12.428047180175781,0.3080208897590637,0.0,0.11970793455839157,99
1667372588.67992878,123999678,0,24.69554901123047,24.874866485595703,1.4979586601257324,12.469673156738281,0.3090488612651825,0.0,0.11970793455839157,99
1667372588.77989078,124099640,0,24.660903930664062,24.82135009765625,1.3352733850479126,12.506752967834473,0.30996328592300415,0.0,0.12015993893146515,99
1667372588.88007283,124199822,0,24.617204666137695,24.75873374938965,1.1778393983840942,12.539533615112305,0.3107702434062958,0.0,0.12015993893146515,99
1667372588.97967577,124299425,0,24.70412254333496,24.864974975585938,1.3386492729187012,12.576573371887207,0.3116852939128876,0.0,0.12015993893146515,99
1667372589.07983494,124399584,0,24.710926055908203,24.870561599731445,1.3285218477249146,12.613533973693848,0.3125986158847809,0.0,0.12015993893146515,99
1667372589.17987490,124499624,0,24.707380294799805,24.86469268798828,1.3091880083084106,12.649922370910645,0.3134976625442505,0.0,0.12015993893146515,99
1667372589.27988696,124599636,0,24.63157844543457,24.7679443359375,1.1348750591278076,12.681452751159668,0.31427431106567383,0.0,0.12015993893146515,99
1667372589.37989688,124699646,0,24.66684341430664,24.813756942749023,1.2226452827453613,12.715409278869629,0.31511190533638,0.0,0.12015993893146515,99
1667372589.48000979,124799759,0,24.685625076293945,24.837738037109375,1.2659165859222412,12.750628471374512,0.31598129868507385,0.0,0.12015993893146515,99
1667372589.57990599,124899655,0,24.69267463684082,24.84685707092285,1.2831363677978516,12.786223411560059,0.31686022877693176,0.0,0.12015993893146515,99
1667372589.67995882,124999708,0,24.711597442626953,24.871122360229492,1.3276011943817139,12.823138236999512,0.31777244806289673,0.0,0.12015993893146515,99
1667372589.77968287,125099432,0,24.696741104125977,24.851951599121094,1.291695237159729,12.858922958374023,0.31865620613098145,0.0,0.12015993893146515,99
1667372589.87989283,125199642,0,24.627553939819336,24.762741088867188,1.1250545978546143,12.890242576599121,0.3194275200366974,0.0,0.12015993893146515,99
1667372589.97981477,125299564,0,24.69405746459961,24.849193572998047,1.2910815477371216,12.926080703735352,0.3203125,0.0,0.12015993893146515,99
1667372590.07985997,125399609,0,24.679780960083008,24.829792022705078,1.2484239339828491,12.960777282714844,0.32116881012916565,0.0,0.12015993893146515,99
1667372590.17987394,125499623,0,24.710159301757812,24.86883544921875,1.320542812347412,12.997467041015625,0.32207542657852173,0.0,0.12015993893146515,99
1667372590.27991891,125599668,0,24.66387367248535,24.80942153930664,1.2112903594970703,13.031128883361816,0.32290565967559814,0.0,0.12015993893146515,99
1667372590.37966585,125699415,0,24.650074005126953,24.7922306060791,1.1830565929412842,13.06391429901123,0.3237138092517853,0.0,0.12015993893146515,99
1667372590.47988677,125799636,0,24.69661521911621,24.851451873779297,1.2885922193527222,13.099790573120117,0.32459983229637146,0.0,0.12015993893146515,99
1667372590.57990289,125899652,0,24.67939567565918,24.831947326660156,1.270213007926941,13.135082244873047,0.32547080516815186,0.0,0.12009958922863007,99
1667372590.68001294,125999762,0,24.705080032348633,24.86330795288086,1.3174738883972168,13.171722412109375,0.3263759911060333,0.0,0.12009958922863007,99
1667372590.77992988,126099679,0,24.624008178710938,24.75779914855957,1.1140066385269165,13.202643394470215,0.32713741064071655,0.0,0.12009958922863007,99
1667372590.87990189,126199651,0,24.655536651611328,24.799943923950195,1.2023905515670776,13.23603630065918,0.327960729598999,0.0,0.12009958922863007,99
1667372590.97990584,126299655,0,24.677959442138672,24.828447341918945,1.2530272006988525,13.270846366882324,0.32881978154182434,0.0,0.12009958922863007,99
1667372591.07992482,126399674,0,24.691373825073242,24.846027374267578,1.2877057790756226,13.306625366210938,0.3297032117843628,0.0,0.12009958922863007,99
1667372591.17994189,126499691,0,24.697986602783203,24.853744506835938,1.2969123125076294,13.342658996582031,0.33059316873550415,0.0,0.12009958922863007,99
1667372591.27989578,126599645,0,24.690799713134766,24.844125747680664,1.2766575813293457,13.378108978271484,0.3314684331417084,0.0,0.12009958922863007,99
1667372591.37994599,126699695,0,24.618141174316406,24.75177001953125,1.112642526626587,13.40903377532959,0.33222973346710205,0.0,0.12009958922863007,99
1667372591.47992396,126799673,0,24.681312561035156,24.833274841308594,1.2653027772903442,13.444175720214844,0.33309710025787354,0.0,0.12009958922863007,99
1667372591.58005500,126899804,0,24.66828155517578,24.81593132019043,1.2293968200683594,13.478372573852539,0.33394068479537964,0.0,0.12009958922863007,99
1667372591.68000484,126999754,0,24.70929718017578,24.868078231811523,1.3220771551132202,13.515081405639648,0.33484774827957153,0.0,0.12009958922863007,99
1667372591.77990389,127099653,0,24.659273147583008,24.803680419921875,1.2023905515670776,13.548450469970703,0.3356705904006958,0.0,0.12009958922863007,99
1667372591.87995887,127199708,0,24.64451789855957,24.78435516357422,1.1643364429473877,13.580810546875,0.3364681005477905,0.0,0.12009958922863007,99
1667372591.97990179,127299651,0,24.687829971313477,24.840639114379883,1.2723612785339355,13.616135597229004,0.33734020590782166,0.0,0.12009958922863007,99
1667372592.07997799,127399727,0,24.697223663330078,24.853534698486328,1.3015156984329224,13.652322769165039,0.33823391795158386,0.0,0.12009958922863007,99
1667372592.17988491,127499634,0,24.70268440246582,24.860137939453125,1.311029314994812,13.688709259033203,0.33913275599479675,0.0,0.12009958922863007,99
1667372592.27989984,127599649,0,24.61665153503418,24.749910354614258,1.1095737218856812,13.719537734985352,0.3398916721343994,0.0,0.12009958922863007,99
1667372592.37992096,127699670,0,24.65726089477539,24.801225662231445,1.198707938194275,13.75284481048584,0.34071293473243713,0.0,0.12009958922863007,99
1667372592.47996378,127799713,0,24.68294334411621,24.834869384765625,1.2649959325790405,13.78800106048584,0.34158071875572205,0.0,0.12009958922863007,99
1667372592.57993698,127899686,0,24.69291114807129,24.847158432006836,1.284329891204834,13.823670387268066,0.342461496591568,0.0,0.12009958922863007,99
1667372592.67993593,127999685,0,24.70402717590332,24.86269760131836,1.321156620979309,13.860371589660645,0.34336817264556885,0.0,0.12009958922863007,99
1667372592.77996492,128099714,0,24.68505096435547,24.837787628173828,1.2717474699020386,13.895710945129395,0.3442405164241791,0.0,0.12009958922863007,99
1667372592.87991190,128199661,0,24.347543716430664,24.912750244140625,6.208055019378662,14.06808090209961,0.3484373092651367,0.0,0.09104412794113159,99
1667372592.97992396,128299673,0,24.07337760925293,24.901491165161133,12.13008975982666,14.405095100402832,0.356550395488739,0.0,0.06826934218406677,99
1667372593.07995081,128399700,0,24.187414169311523,24.84625816345215,9.723159790039062,14.675277709960938,0.36308541893959045,0.0,0.06776020675897598,99
1667372593.17997789,128499727,0,24.219175338745117,24.874099731445312,9.764521598815918,14.946606636047363,0.3696567714214325,0.0,0.06707185506820679,99
1667372593.28001785,128599767,0,24.17466926574707,24.806135177612305,9.413202285766602,15.208212852478027,0.37598100304603577,0.0,0.06708310544490814,99
1667372593.37974882,128699498,0,24.0382080078125,24.7626895904541,10.73528003692627,15.505637168884277,0.3831305503845215,0.0,0.06748601794242859,99
1667372593.47996783,128799717,0,23.7261905670166,24.66067123413086,13.614510536193848,15.884673118591309,0.39212360978126526,0.0,0.0686386376619339,99
1667372593.57998085,128899730,0,23.383989334106445,24.524776458740234,16.198820114135742,16.334733963012695,0.40264785289764404,0.0,0.07042403519153595,99
1667372593.68018293,128999932,0,22.84552764892578,24.353790283203125,20.785890579223633,16.913331985473633,0.4158662259578705,0.0,0.0725618228316307,99
1667372593.77968884,129099438,0,22.334280014038086,24.210800170898438,25.1059627532959,17.607337951660156,0.43136632442474365,0.0,0.07474398612976074,99
1667372593.88004684,129199796,0,22.18402099609375,24.429887771606445,29.731698989868164,18.435829162597656,0.4497455656528473,0.0,0.07553775608539581,99
1667372593.97991180,129299661,0,22.154123306274414,24.36750602722168,28.946985244750977,19.23928451538086,0.46754541993141174,0.0,0.07646332681179047,99
1667372594.07994699,129399696,0,22.19655418395996,24.431228637695312,29.005088806152344,20.04532814025879,0.4854367971420288,0.0,0.07704419642686844,99
1667372594.17993879,129499688,0,22.175493240356445,24.40838623046875,28.757328033447266,20.84415054321289,0.5031510591506958,0.0,0.07764605432748795,99
1667372594.28004289,129599792,0,22.149810791015625,24.457239151000977,29.580713272094727,21.666749954223633,0.5213714838027954,0.0,0.07800447940826416,99
1667372594.37996793,129699717,0,22.01076316833496,24.354074478149414,29.770673751831055,22.493167877197266,0.5395615696907043,0.0,0.07871206849813461,99
1667372594.47996879,129799718,0,21.89979362487793,24.212352752685547,28.95128059387207,23.297161102294922,0.5571688413619995,0.0,0.0798775926232338,99
1667372594.57993484,129899684,0,22.0915470123291,24.4709529876709,29.752262115478516,24.123687744140625,0.5754280686378479,0.0,0.07997395098209381,99
1667372594.67995381,129999703,0,22.19743537902832,24.584707260131836,29.975984573364258,24.956579208374023,0.593916118144989,0.0,0.07963947206735611,99
1667372594.77992797,130099677,0,22.24726676940918,24.521089553833008,28.576261520385742,25.750221252441406,0.6115725040435791,0.0,0.07957035303115845,99
1667372594.87991500,130199664,0,22.174057006835938,24.43178367614746,28.279502868652344,26.535724639892578,0.6289902925491333,0.0,0.0798361748456955,99
1667372594.97999597,130299745,0,22.22860336303711,24.525135040283203,28.801862716674805,27.336488723754883,0.6467901468276978,0.0,0.07973549515008926,99
1667372595.07996392,130399713,0,22.265859603881836,24.557861328125,28.82208251953125,28.136821746826172,0.6646102666854858,0.0,0.07952243089675903,99
1667372595.17978096,130499530,0,22.240751266479492,24.531991958618164,28.84878158569336,28.93686294555664,0.6824038028717041,0.0,0.07942244410514832,99
1667372595.28006196,130599811,0,22.061458587646484,24.400718688964844,29.30819320678711,29.753332138061523,0.7004163265228271,0.0,0.07981587946414948,99
1667372595.37990999,130699659,0,22.069602966308594,24.527456283569336,30.834354400634766,30.608600616455078,0.7192917466163635,0.0,0.07971152663230896,99
1667372595.48007083,130799820,0,22.223215103149414,24.574893951416016,29.600967407226562,31.432247161865234,0.7375958561897278,0.0,0.07944602519273758,99
1667372595.57993579,130899685,0,22.253116607666016,24.469810485839844,27.940696716308594,32.20738220214844,0.7548450827598572,0.0,0.07933568209409714,99
1667372595.68018579,130999935,0,22.278030395507812,24.47216033935547,27.683216094970703,32.97835159301758,0.7720207571983337,0.0,0.0792585015296936,99
1667372595.78078389,131100533,0,22.28387451171875,24.481603622436523,27.7393798828125,33.75355911254883,0.7892953753471375,0.0,0.0792277529835701,99
1667372595.88067794,131200427,0,22.20079231262207,24.341310501098633,27.01726722717285,34.50324249267578,0.8059389591217041,0.0,0.0792277529835701,99
1667372595.98063588,131300385,0,22.24915313720703,24.387004852294922,27.062824249267578,35.254791259765625,0.8226603269577026,0.0,0.07899586856365204,99
1667372596.08067799,131400427,0,22.189390182495117,24.29792022705078,26.691659927368164,35.99659729003906,0.8391205668449402,0.0,0.07899586856365204,99
1667372596.18086195,131500611,0,22.288761138916016,24.328676223754883,25.914310455322266,36.71781539916992,0.8551955819129944,0.0,0.07871773093938828,99
1667372596.27965379,131599403,0,22.31616973876953,24.248380661010742,24.688596725463867,37.3953857421875,0.8703163862228394,0.0,0.07826326787471771,99
1667372596.38002777,131699777,0,22.24985694885254,24.11546516418457,23.83759307861328,38.0600700378418,0.885105550289154,0.0,0.07826326787471771,99
1667372596.48068285,131800432,0,22.387466430664062,24.282148361206055,24.24698257446289,38.73805618286133,0.900283932685852,0.0,0.07814091444015503,99
1667372596.58069587,131900445,0,22.491727828979492,24.321624755859375,23.410402297973633,39.38848876953125,0.9149132966995239,0.0,0.07816597074270248,99
1667372596.68073487,132000484,0,22.61275863647461,24.330415725708008,21.96158218383789,39.998775482177734,0.9287136197090149,0.0,0.07821191102266312,99
1667372596.78075981,132100509,0,22.61716651916504,24.257925033569336,21.028024673461914,40.58312225341797,0.9419298768043518,0.0,0.07802723348140717,99
1667372596.88068390,132200433,0,22.546220779418945,24.19587516784668,21.231935501098633,41.1724967956543,0.9552180767059326,0.0,0.07769683748483658,99
1667372596.98077679,132300526,0,22.476778030395508,24.185443878173828,22.072675704956055,41.78624725341797,0.9690131545066833,0.0,0.07741093635559082,99
1667372597.08068395,132400433,0,22.529483795166016,24.292770385742188,22.747831344604492,42.41759490966797,0.983237087726593,0.0,0.07751446962356567,99
1667372597.18070793,132500457,0,22.52277374267578,24.26696014404297,22.500783920288086,43.042816162109375,0.9973188042640686,0.0,0.07751666009426117,99
1667372597.28071094,132600460,0,22.522106170654297,24.254751205444336,22.362070083618164,43.66405487060547,1.011310338973999,0.0,0.07748144119977951,99
1667372597.38061786,132700367,0,22.577974319458008,24.2652530670166,21.775300979614258,44.268409729003906,1.0249555110931396,0.0,0.07748592644929886,99
1667372597.48063493,132800384,0,22.523832321166992,24.114900588989258,20.654541015625,44.84228515625,1.0378813743591309,0.0,0.0770324096083641,99
1667372597.58062887,132900378,0,22.516740798950195,24.21585464477539,22.06991195678711,45.45535659790039,1.0516856908798218,0.0,0.07698781043291092,99
1667372597.68068981,133000439,0,22.419185638427734,24.24966049194336,23.800458908081055,46.1169319152832,1.0665175914764404,0.0,0.07690922915935516,99
1667372597.78064895,133100398,0,22.392578125,24.161767959594727,22.932781219482422,46.75374221801758,1.0807774066925049,0.0,0.0771467462182045,99
1667372597.88085580,133200605,0,22.367246627807617,24.09943962097168,22.453216552734375,47.378753662109375,1.0947571992874146,0.0,0.0771467462182045,99
1667372597.98069382,133300443,0,22.440841674804688,24.191038131713867,22.675098419189453,48.007686614990234,1.1088709831237793,0.0,0.07718580961227417,99
1667372598.08067894,133400428,0,22.50773048400879,24.228837966918945,22.27399444580078,48.626365661621094,1.1227960586547852,0.0,0.0772697776556015,99
1667372598.18089080,133500640,0,22.61371612548828,24.201879501342773,20.557870864868164,49.198673248291016,1.1357381343841553,0.0,0.0772533267736435,99
1667372598.27974391,133599493,0,22.74078369140625,24.260562896728516,19.63045310974121,49.73774719238281,1.1479971408843994,0.0,0.0774194523692131,99
1667372598.37976789,133699517,0,22.747591018676758,24.214784622192383,18.953763961791992,50.2644157409668,1.1599775552749634,0.0,0.07740911096334457,99
1667372598.48073697,133800486,0,22.77365493774414,24.22513771057129,18.745079040527344,50.79005813598633,1.1719484329223633,0.0,0.07743270695209503,99
1667372598.58072090,133900470,0,22.799530029296875,24.26517105102539,18.893611907958984,51.314979553222656,1.183916449546814,0.0,0.07757338881492615,99
1667372598.68069482,134000444,0,22.908294677734375,24.359012603759766,18.606056213378906,51.83171463012695,1.195754051208496,0.0,0.0779702439904213,99
1667372598.78074288,134100492,0,22.77621078491211,24.194467544555664,18.234994888305664,52.338531494140625,1.207297444343567,0.0,0.07777664810419083,99
1667372598.88079286,134200542,0,22.71769142150879,24.15135955810547,18.50048828125,52.85273361206055,1.2189788818359375,0.0,0.07749355584383011,99
1667372598.98061585,134300365,0,22.738388061523438,24.216054916381836,19.07406234741211,53.38167190551758,1.231006145477295,0.0,0.07746999710798264,99
1667372599.08064079,134400390,0,22.71424102783203,24.172327041625977,18.858320236206055,53.90568542480469,1.2429087162017822,0.0,0.07731787860393524,99
1667372599.18065596,134500405,0,22.691242218017578,24.176044464111328,19.20387840270996,54.43924331665039,1.2550158500671387,0.0,0.07731787860393524,99
1667372599.28066778,134600417,0,22.600780487060547,24.16880989074707,20.246994018554688,55.00177764892578,1.2677295207977295,0.0,0.07744503766298294,99
1667372599.38064194,134700391,0,22.577112197875977,24.16178321838379,20.42560386657715,55.5688591003418,1.2805325984954834,0.0,0.07758262008428574,99
1667372599.48069882,134800448,0,22.687889099121094,24.22625160217285,19.828704833984375,56.120201110839844,1.2930413484573364,0.0,0.07758262008428574,99
1667372599.58068490,134900434,0,22.69574546813965,24.239774703979492,19.901742935180664,56.67299270629883,1.3055874109268188,0.0,0.07758262008428574,99
1667372599.68077588,135000525,0,22.740434646606445,24.30234718322754,20.132251739501953,57.2327766418457,1.318317174911499,0.0,0.07758262008428574,99
1667372599.78074288,135100492,0,22.58784294128418,24.167470932006836,20.309289932250977,57.7967414855957,1.331055998802185,0.0,0.07777856290340424,99
1667372599.88068891,135200438,0,22.641700744628906,24.240245819091797,20.57321548461914,58.36799621582031,1.3439902067184448,0.0,0.07770034670829773,99
1667372599.98086977,135300619,0,22.617645263671875,24.204187393188477,20.40412139892578,58.935848236083984,1.3568336963653564,0.0,0.07775593549013138,99
1667372600.08073187,135400481,0,22.564748764038086,24.138309478759766,20.16505241394043,59.49519729614258,1.369455337524414,0.0,0.07803403586149216,99
1667372600.18073487,135500484,0,22.690954208374023,24.254322052001953,19.9996395111084,60.05086135864258,1.382063865661621,0.0,0.07816978543996811,99
1667372600.28065777,135600407,0,22.680221557617188,24.173568725585938,19.13820457458496,60.58211135864258,1.3941127061843872,0.0,0.07802967727184296,99
1667372600.38069081,135700440,0,22.626943588256836,24.101757049560547,18.900671005249023,61.10734939575195,1.4059972763061523,0.0,0.07802967727184296,99
1667372600.48062587,135800375,0,22.729381561279297,24.209880828857422,18.959901809692383,61.633644104003906,1.4179596900939941,0.0,0.07808579504489899,99
1667372600.58069181,135900441,0,22.70923614501953,24.13695526123047,18.326038360595703,62.14314270019531,1.4295300245285034,0.0,0.07790658622980118,99
1667372600.68066096,136000410,0,22.742990493774414,24.170406341552734,18.331087112426758,62.652217864990234,1.4411078691482544,0.0,0.07786861807107925,99
1667372600.78062892,136100378,0,22.695171356201172,24.1523494720459,18.73372459411621,63.17247772216797,1.4529153108596802,0.0,0.07778367400169373,99
1667372600.88066888,136200418,0,22.614482879638672,24.0880126953125,18.94394302368164,63.698951721191406,1.464821219444275,0.0,0.07778367400169373,99
1667372600.98064780,136300397,0,22.63393783569336,24.138782501220703,19.328475952148438,64.23577880859375,1.4769717454910278,0.0,0.07785634696483612,99
1667372601.08071685,136400466,0,22.66565704345703,24.200971603393555,19.758119583129883,64.78504180908203,1.4894212484359741,0.0,0.0777055099606514,99
1667372601.18073988,136500489,0,22.73177719116211,24.212413787841797,19.016983032226562,65.31341552734375,1.501432180404663,0.0,0.07785861939191818,99
1667372601.28075290,136600502,0,22.74567413330078,24.07965850830078,17.19682502746582,65.7912368774414,1.5123004913330078,0.0,0.0775715783238411,99
1667372601.38071990,136700469,0,22.83469581604004,24.18755340576172,17.416250228881836,66.27490234375,1.523344874382019,0.0,0.07767784595489502,99
1667372601.48076582,136800515,0,22.892587661743164,24.349700927734375,18.61962890625,66.79239654541016,1.535191535949707,0.0,0.07825688272714615,99
1667372601.58071589,136900465,0,22.89113998413086,24.336055755615234,18.36668586730957,67.30236053466797,1.5468652248382568,0.0,0.07867050170898438,99
1667372601.68067884,137000428,0,22.97757911682129,24.382518768310547,17.752906799316406,67.79535675048828,1.5581929683685303,0.0,0.0791386216878891,99
1667372601.78070498,137100454,0,22.922094345092773,24.29644012451172,17.343517303466797,68.27729034423828,1.569239854812622,0.0,0.07924264669418335,99
1667372601.88066292,137200412,0,22.887786865234375,24.22126579284668,16.859554290771484,68.74542236328125,1.5799542665481567,0.0,0.07909338176250458,99
1667372601.98070693,137300456,0,23.039291381835938,24.26387596130371,15.480090141296387,69.17567443847656,1.5898669958114624,0.0,0.07910706102848053,99
1667372602.08081388,137400563,0,22.931198120117188,24.233564376831055,16.480546951293945,69.63399505615234,1.600376844406128,0.0,0.07902447134256363,99
1667372602.18069887,137500448,0,22.80422592163086,24.250774383544922,18.30193328857422,70.14179992675781,1.6119569540023804,0.0,0.07903803884983063,99
1667372602.28066587,137600415,0,22.576824188232422,24.10297393798828,19.18208885192871,70.67454528808594,1.623984694480896,0.0,0.07956119626760483,99
1667372602.38075781,137700507,0,22.501075744628906,24.13044548034668,20.38492202758789,71.2413558959961,1.636738657951355,0.0,0.07993017882108688,99
1667372602.48066688,137800416,0,22.561777114868164,24.192399978637695,20.372201919555664,71.80677795410156,1.6494956016540527,0.0,0.0800415500998497,99
1667372602.58065200,137900401,0,22.589855194091797,24.225019454956055,20.432661056518555,72.37430572509766,1.6623159646987915,0.0,0.08002696931362152,99
1667372602.68076086,138000510,0,22.49230194091797,24.137643814086914,20.48544692993164,72.94401550292969,1.6751301288604736,0.0,0.08031757175922394,99
1667372602.78069997,138100449,0,22.44036293029785,24.09633445739746,20.515214920043945,73.5135726928711,1.6879112720489502,0.0,0.08071920275688171,99
1667372602.88073492,138200484,0,22.456270217895508,24.13532066345215,20.744152069091797,74.08999633789062,1.7008556127548218,0.0,0.08094092458486557,99
1667372602.98075080,138300500,0,22.535810470581055,24.24069595336914,21.10750961303711,74.676513671875,1.7140733003616333,0.0,0.0807715505361557,99
1667372603.08075881,138400508,0,22.501596450805664,24.185274124145508,20.834070205688477,75.25533294677734,1.7270976305007935,0.0,0.08081367611885071,99
1667372603.18075991,138500509,0,22.549320220947266,24.177223205566406,20.127614974975586,75.8144760131836,1.7397059202194214,0.0,0.08087905496358871,99
1667372603.28081584,138600565,0,22.476587295532227,24.040771484375,19.339794158935547,76.35204315185547,1.75178861618042,0.0,0.08087905496358871,99
1667372603.38073277,138700482,0,22.383441925048828,23.98548126220703,19.80783462524414,76.90184783935547,1.7640951871871948,0.0,0.08087905496358871,99
1667372603.48062396,138800373,0,22.484827041625977,24.112403869628906,20.10152816772461,77.45966339111328,1.7766374349594116,0.0,0.08096779137849808,99
1667372603.58067298,138900422,0,22.5395450592041,24.11155128479004,19.432510375976562,77.99976348876953,1.7888110876083374,0.0,0.08089566975831985,99
1667372603.68063688,139000386,0,22.586694717407227,24.102924346923828,18.762266159057617,78.52079010009766,1.8005794286727905,0.0,0.0808127373456955,99
1667372603.78071284,139100462,0,22.57164764404297,24.092607498168945,18.843284606933594,79.04461669921875,1.8124030828475952,0.0,0.08071631193161011,99
1667372603.88073397,139200483,0,22.441513061523438,24.006813049316406,19.392614364624023,79.58346557617188,1.824495553970337,0.0,0.08071631193161011,99
1667372603.98074293,139300492,0,22.420143127441406,24.01681137084961,19.71177864074707,80.13113403320312,1.8367743492126465,0.0,0.08100072294473648,98
1667372604.08066893,139400418,0,22.35520362854004,23.913951873779297,19.243637084960938,80.66532897949219,1.8487164974212646,0.0,0.08100072294473648,98
1667372604.18098783,139500737,0,22.431259155273438,24.007841110229492,19.46381187438965,81.20775604248047,1.8608838319778442,0.0,0.08100072294473648,98
1667372604.28077388,139600523,0,22.35478973388672,23.897863388061523,19.050127029418945,81.73583984375,1.8726890087127686,0.0,0.08100072294473648,98
1667372604.38069582,139700445,0,22.493165969848633,24.03546714782715,19.03386116027832,82.2641830444336,1.8845731019973755,0.0,0.08102932572364807,98
1667372604.48074698,139800496,0,22.50629234313965,24.102031707763672,19.6933650970459,82.81153106689453,1.8968919515609741,0.0,0.08102932572364807,98
1667372604.58073378,139900483,0,22.490577697753906,24.099323272705078,19.85386848449707,83.36293029785156,1.9092931747436523,0.0,0.08102932572364807,98
1667372604.68078089,140000530,0,22.601259231567383,24.24787712097168,20.321260452270508,83.92780303955078,1.9220600128173828,0.0,0.08102932572364807,98
1667372604.78074193,140100491,0,22.502269744873047,24.083189010620117,19.510459899902344,84.46953582763672,1.9342501163482666,0.0,0.08102930337190628,98
1667372604.88070488,140200454,0,22.580751419067383,24.140644073486328,19.209402084350586,85.00303649902344,1.9462969303131104,0.0,0.08120469003915787,98
1667372604.98070383,140300453,0,22.623416900634766,24.206680297851562,19.41617774963379,85.54241943359375,1.958499550819397,0.0,0.08154349029064178,98
1667372605.08074188,140400491,0,22.691146850585938,24.232749938964844,18.825483322143555,86.06558990478516,1.970370888710022,0.0,0.08188915252685547,98
1667372605.18070579,140500455,0,22.738866806030273,24.26303482055664,18.530258178710938,86.58010864257812,1.9820704460144043,0.0,0.08225291222333908,98
1667372605.28066683,140600416,0,22.62952995300293,24.215087890625,19.276609420776367,87.11540222167969,1.994183897972107,0.0,0.08225291222333908,98
1667372605.38065982,140700409,0,22.42263412475586,24.054080963134766,19.732032775878906,87.6635513305664,2.0064749717712402,0.0,0.0826801061630249,98
1667372605.48063993,140800389,0,22.554975509643555,24.210966110229492,20.06869125366211,88.22098541259766,2.019047975540161,0.0,0.08251608163118362,98
1667372605.58066893,140900418,0,22.471891403198242,24.114816665649414,19.865224838256836,88.77300262451172,2.0314528942108154,0.0,0.08270362764596939,98
1667372605.68073487,141000484,0,22.417842864990234,24.07195281982422,19.924453735351562,89.32682800292969,2.0438685417175293,0.0,0.08301911503076553,98
1667372605.78072381,141100473,0,22.377307891845703,24.090600967407227,20.583650588989258,89.89861297607422,2.0566635131835938,0.0,0.08323566615581512,98
1667372605.88075590,141200505,0,22.281095504760742,24.016958236694336,20.7429256439209,90.47503662109375,2.069506883621216,0.0,0.08368458598852158,98
1667372605.98078394,141300533,0,22.224557876586914,23.96649169921875,20.673397064208984,91.04950714111328,2.0822741985321045,0.0,0.08425971865653992,98
1667372606.08076787,141400517,0,22.43796730041504,24.206937789916992,20.994266510009766,91.63263702392578,2.095358371734619,0.0,0.08425971865653992,98
1667372606.18075681,141500506,0,22.388519287109375,24.115238189697266,20.48084259033203,92.20153045654297,2.108095169067383,0.0,0.08430898934602737,98
1667372606.28090191,141600651,0,22.406055450439453,24.124984741210938,20.38601303100586,92.76866912841797,2.120802402496338,0.0,0.08431906998157501,98
1667372606.38071799,141700467,0,22.349708557128906,24.033472061157227,19.968952178955078,93.32223510742188,2.133174419403076,0.0,0.08431906998157501,98
1667372606.48070884,141800458,0,22.301889419555664,23.99370002746582,20.064393997192383,93.87973022460938,2.1456077098846436,0.0,0.08431906998157501,98
1667372606.58071280,141900462,0,22.34041404724121,24.08305549621582,20.659452438354492,94.45367431640625,2.1584298610687256,0.0,0.0843508392572403,98
1667372606.68076777,142000517,0,22.421676635742188,24.11150550842285,20.01866912841797,95.01010131835938,2.170905828475952,0.0,0.08441265672445297,98
1667372606.78066683,142100416,0,22.430376052856445,24.062557220458984,19.3588924407959,95.54725646972656,2.1829543113708496,0.0,0.08431171625852585,98
1667372606.88073897,142200488,0,22.45358657836914,24.07199478149414,19.206947326660156,96.081298828125,2.1949455738067627,0.0,0.08426156640052795,98
1667372606.98068380,142300433,0,22.475820541381836,24.1235294342041,19.527339935302734,96.62346649169922,2.2071313858032227,0.0,0.08437954634428024,98
1667372607.08065677,142400406,0,22.60250473022461,24.286788940429688,19.82225799560547,97.17398071289062,2.219574451446533,0.0,0.08496929705142975,98
1667372607.18072581,142500475,0,22.595605850219727,24.316343307495117,20.25128936767578,97.73694610595703,2.232295036315918,0.0,0.08496929705142975,98
1667372607.28066993,142600419,0,22.491535186767578,24.19274139404297,20.02142906188965,98.29283142089844,2.244797706604004,0.0,0.08496929705142975,98
1667372607.38074684,142700496,0,22.507156372070312,24.169837951660156,19.568153381347656,98.83684539794922,2.2570419311523438,0.0,0.08496879786252975,98
1667372607.48069596,142800445,0,22.5805606842041,24.217008590698242,19.22689437866211,99.3707046508789,2.269096612930298,0.0,0.08511240035295486,98
1667372607.58075786,142900507,0,22.63547134399414,24.311140060424805,19.595773696899414,99.91541290283203,2.281426429748535,0.0,0.085511714220047,98
1667372607.68083382,143000583,0,22.58945083618164,24.18978500366211,18.72738265991211,100.43584442138672,2.293182611465454,0.0,0.08545421063899994,98
1667372607.78080583,143100555,0,22.629913330078125,24.203760147094727,18.41793441772461,100.94756317138672,2.304762601852417,0.0,0.08545190840959549,98
1667372607.88073683,143200486,0,22.524311065673828,24.069442749023438,18.081892013549805,101.44952392578125,2.3160688877105713,0.0,0.08545190840959549,98
1667372607.98068500,143300434,0,22.516353607177734,24.061878204345703,18.08649444580078,101.95171356201172,2.327376365661621,0.0,0.08545190840959549,98
1667372608.08072686,143400476,0,22.606624603271484,24.17668914794922,18.363922119140625,102.46207427978516,2.338913917541504,0.0,0.08549726009368896,98
1667372608.18069077,143500440,0,22.565418243408203,24.07045555114746,17.66329574584961,102.95258331298828,2.349982500076294,0.0,0.08520706743001938,98
1667372608.28072286,143600472,0,22.61946678161621,24.272979736328125,19.40580940246582,103.49185180664062,2.362180471420288,0.0,0.08520706743001938,98
1667372608.38081789,143700567,0,22.50773048400879,24.155982971191406,19.33614730834961,104.0295181274414,2.374282121658325,0.0,0.08524207770824432,98
1667372608.48065281,143800402,0,22.55401611328125,24.154605865478516,18.776994705200195,104.55028533935547,2.3860273361206055,0.0,0.08524207770824432,98
1667372608.58063388,143900383,0,22.638004302978516,24.163700103759766,17.898099899291992,105.04740142822266,2.3972811698913574,0.0,0.08524348586797714,98
1667372608.68075299,144000502,0,22.50341796875,24.252885818481445,20.59838104248047,105.62030792236328,2.4101734161376953,0.0,0.08493229001760483,98
1667372608.78072596,144100475,0,22.5217227935791,24.237735748291016,20.257732391357422,106.18290710449219,2.422844171524048,0.0,0.08470901101827621,98
1667372608.88077688,144200526,0,22.463552474975586,24.1303653717041,19.636592864990234,106.72864532470703,2.435103416442871,0.0,0.08488298952579498,98
1667372608.98073697,144300486,0,22.45876121520996,24.142351150512695,19.80783462524414,107.27873229980469,2.4474575519561768,0.0,0.08499618619680405,98
1667372609.08073592,144400485,0,22.561105728149414,24.215167999267578,19.460437774658203,107.81930541992188,2.459653377532959,0.0,0.08499618619680405,98
1667372609.18080878,144500558,0,22.514249801635742,24.175565719604492,19.543296813964844,108.36261749267578,2.4718856811523438,0.0,0.08500698953866959,98
1667372609.28075194,144600501,0,22.486553192138672,24.14055061340332,19.42729377746582,108.90203094482422,2.4840152263641357,0.0,0.08513779938220978,98
1667372609.38076282,144700512,0,22.471412658691406,24.12843132019043,19.426679611206055,109.44168090820312,2.4961419105529785,0.0,0.08529607951641083,98
1667372609.48067498,144800424,0,22.488086700439453,24.169052124023438,19.707380294799805,109.98875427246094,2.5084445476531982,0.0,0.08529625833034515,98
1667372609.58079982,144900549,0,22.617549896240234,24.336715698242188,20.15523338317871,110.54936981201172,2.5211241245269775,0.0,0.08529625833034515,98
1667372609.68073082,145000480,0,22.589759826660156,24.25697135925293,19.504322052001953,111.09082794189453,2.533355474472046,0.0,0.08547908067703247,98
1667372609.78076887,145100518,0,22.607872009277344,24.299951553344727,19.795251846313477,111.64094543457031,2.545792579650879,0.0,0.08547908067703247,98
1667372609.88068891,145200438,0,22.50485610961914,24.217988967895508,20.03585433959961,112.19709014892578,2.5583086013793945,0.0,0.08550339937210083,98
1667372609.98063779,145300387,0,22.49383544921875,24.225116729736328,20.24883460998535,112.75932312011719,2.570955276489258,0.0,0.0855003222823143,98
1667372610.08069277,145400442,0,22.47380828857422,24.212657928466797,20.32770347595215,113.32433319091797,2.583653211593628,0.0,0.08554083853960037,98
1667372610.18068480,145500434,0,22.47170066833496,24.20568084716797,20.256507873535156,113.88701629638672,2.5962977409362793,0.0,0.08560113608837128,98
1667372610.28068900,145600438,0,22.484636306762695,24.203996658325195,20.071760177612305,114.44462585449219,2.608835458755493,0.0,0.0856606587767601,98
1667372610.38065481,145700404,0,22.468814849853516,24.167770385742188,19.833545684814453,114.99541473388672,2.621211051940918,0.0,0.0856606587767601,98
1667372610.48087096,145800620,0,22.469974517822266,24.26763343811035,21.034469604492188,115.58101654052734,2.634369373321533,0.0,0.08546249568462372,98
1667372610.58073187,145900481,0,22.618316650390625,24.392396926879883,20.758577346801758,116.15679931640625,2.647392749786377,0.0,0.08546249568462372,98
1667372610.68073583,146000485,0,22.623777389526367,24.344989776611328,20.069303512573242,116.7143783569336,2.6600072383880615,0.0,0.08576346188783646,98
1667372610.78077483,146100524,0,22.518081665039062,24.2385311126709,20.06040382385254,117.27193450927734,2.67256236076355,0.0,0.08576346188783646,98
1667372610.88074684,146200496,0,22.513383865356445,24.189722061157227,19.546058654785156,117.81476593017578,2.684783458709717,0.0,0.08576346188783646,98
1667372610.98077083,146300520,0,22.58468246459961,24.270891189575195,19.64702606201172,118.3606948852539,2.697113037109375,0.0,0.08582517504692078,98
1667372611.08072686,146400476,0,22.583147048950195,24.30057144165039,19.978466033935547,118.91545104980469,2.709641218185425,0.0,0.08596380800008774,98
1667372611.18080187,146500551,0,22.525842666625977,24.343442916870117,21.21123695373535,119.50513458251953,2.7229244709014893,0.0,0.0856904461979866,98
1667372611.28067780,146600427,0,22.52450180053711,24.140918731689453,18.863435745239258,120.02851867675781,2.734713315963745,0.0,0.0856904461979866,98
1667372611.38076377,146700513,0,22.55478286743164,24.206985473632812,19.311595916748047,120.5654525756836,2.746823787689209,0.0,0.08555493503808975,98
1667372611.48068500,146800434,0,22.498626708984375,24.215534210205078,20.046594619750977,121.12191009521484,2.759343147277832,0.0,0.08564580231904984,98
1667372611.58065581,146900405,0,22.551427841186523,24.364822387695312,21.17318344116211,121.70993041992188,2.772603750228882,0.0,0.08564580231904984,98
1667372611.68072581,147000475,0,22.522872924804688,24.320985794067383,21.04705238342285,122.29496002197266,2.785780429840088,0.0,0.08543304353952408,98
1667372611.78066778,147100417,0,22.509071350097656,24.298015594482422,20.96664810180664,122.87713623046875,2.798884868621826,0.0,0.08532332628965378,98
1667372611.88067079,147200420,0,22.456270217895508,24.15935516357422,19.960357666015625,123.43164825439453,2.8113369941711426,0.0,0.08532332628965378,98
1667372611.98068285,147300432,0,22.442758560180664,24.161788940429688,20.147254943847656,123.99140930175781,2.823899745941162,0.0,0.08532332628965378,98
1667372612.08076382,147400513,0,22.524311065673828,24.247583389282227,20.18899154663086,124.5527114868164,2.836542844772339,0.0,0.08535699546337128,98
1667372612.18069577,147500445,0,22.55921173095703,24.273462295532227,20.0585994720459,125.10955810546875,2.849104881286621,0.0,0.08546213805675507,98
1667372612.28078485,147600534,0,22.552675247192383,24.218021392822266,19.50616455078125,125.65192413330078,2.8613367080688477,0.0,0.08537538349628448,98
1667372612.38076282,147700512,0,22.49814796447754,24.122804641723633,19.029563903808594,126.1804428100586,2.87322735786438,0.0,0.08537538349628448,98
1667372612.48070383,147800453,0,22.506675720214844,24.163846969604492,19.41041374206543,126.71934509277344,2.8853561878204346,0.0,0.08537538349628448,98
1667372612.58088088,147900630,0,22.52105140686035,24.227872848510742,19.991968154907227,127.27570343017578,2.897886037826538,0.0,0.08537538349628448,98
1667372612.68079495,148000544,0,22.545103073120117,24.296098709106445,20.509384155273438,127.844970703125,2.910720109939575,0.0,0.08537538349628448,98
1667372612.78075099,148100500,0,22.43509292602539,24.1690673828125,20.2617244720459,128.4075927734375,2.923342704772949,0.0,0.08557882905006409,98
1667372612.88065791,148200407,0,22.474958419799805,24.186504364013672,19.9996395111084,128.96266174316406,2.9358179569244385,0.0,0.08557882905006409,98
1667372612.98073578,148300485,0,22.535810470581055,24.112525939941406,18.492202758789062,129.47677612304688,2.947403907775879,0.0,0.08526377379894257,98
1667372613.08062983,148400379,0,22.461923599243164,24.165983200073242,19.963735580444336,130.03077697753906,2.959847927093506,0.0,0.08535774052143097,98
1667372613.18074489,148500494,0,22.5051212310791,24.36009979248047,21.73182487487793,130.6351776123047,2.973450183868408,0.0,0.08535774052143097,98
1667372613.28067183,148600421,0,22.564077377319336,24.30459976196289,20.39092445373535,131.2012176513672,2.986222267150879,0.0,0.08535774052143097,98
1667372613.38063598,148700385,0,22.478408813476562,24.05466079711914,18.46642303466797,131.7140350341797,2.9977495670318604,0.0,0.08535774052143097,98
1667372613.48066592,148800415,0,22.480899810791016,24.25584602355957,20.83898162841797,132.29310607910156,3.010767698287964,0.0,0.0851743295788765,98
1667372613.58068299,148900432,0,22.392162322998047,24.21794891357422,21.443859100341797,132.88893127441406,3.024109363555908,0.0,0.08514266461133957,98
1667372613.68077087,149000520,0,22.52459716796875,24.236774444580078,20.090171813964844,133.44752502441406,3.036691427230835,0.0,0.08522463589906693,98
1667372613.78074288,149100492,0,22.495464324951172,24.166481018066406,19.641807556152344,133.99302673339844,3.0489625930786133,0.0,0.08507449924945831,98
1667372613.88086581,149200615,0,22.507156372070312,24.193872451782227,19.834228515625,134.54470825195312,3.0613791942596436,0.0,0.0850406363606453,98
1667372613.98070979,149300459,0,22.602985382080078,24.29385757446289,19.818267822265625,135.0944061279297,3.0738039016723633,0.0,0.08531882613897324,98
1667372614.08076692,149400516,0,22.616281509399414,24.255836486816406,19.1938533782959,135.62791442871094,3.085869789123535,0.0,0.08542078733444214,98
1667372614.18078184,149500531,0,22.590621948242188,24.293991088867188,19.89529800415039,136.18067932128906,3.0983572006225586,0.0,0.08561662584543228,98
1667372614.28068995,149600439,0,22.566280364990234,24.232236862182617,19.46626853942871,136.72096252441406,3.110549211502075,0.0,0.08558174967765808,98
1667372614.38066387,149700413,0,22.485210418701172,24.13640785217285,19.29379653930664,137.2566375732422,3.122594118118286,0.0,0.08558174967765808,98
1667372614.48063779,149800387,0,22.544050216674805,24.234722137451172,19.755050659179688,137.80545043945312,3.1349666118621826,0.0,0.08558174967765808,98
1667372614.58067989,149900429,0,22.502748489379883,24.177162170410156,19.56508445739746,138.3491973876953,3.147202253341675,0.0,0.08558174967765808,98
1667372614.68084598,150000595,0,22.535905838012695,24.22226905822754,19.701345443725586,138.8974151611328,3.1595566272735596,0.0,0.08559631556272507,98
1667372614.78067398,150100423,0,22.519420623779297,24.189077377319336,19.50616455078125,139.43836975097656,3.171738624572754,0.0,0.08559631556272507,98
1667372614.88066483,150200414,0,22.520761489868164,24.174787521362305,19.323564529418945,139.97512817382812,3.1838269233703613,0.0,0.08559631556272507,98
1667372614.98070478,150300454,0,22.42345428466797,24.051841735839844,19.02404022216797,140.5038299560547,3.1956822872161865,0.0,0.08559631556272507,98
1667372615.08066583,150400415,0,22.508399963378906,24.15753936767578,19.266483306884766,141.03883361816406,3.2077245712280273,0.0,0.08559631556272507,98
1667372615.18071699,150500466,0,22.50428009033203,24.156991958618164,19.30821990966797,141.57540893554688,3.219799757003784,0.0,0.08559631556272507,98
1667372615.28074479,150600494,0,22.52536392211914,24.15125274658203,19.010231018066406,142.10374450683594,3.2317006587982178,0.0,0.08552706241607666,98
1667372615.38070583,150700455,0,22.46940040588379,24.049619674682617,18.47624397277832,142.61680603027344,3.2432289123535156,0.0,0.08552706241607666,98
1667372615.48074198,150800491,0,22.59742546081543,24.203601837158203,18.74323844909668,143.13768005371094,3.2549993991851807,0.0,0.0856936126947403,98
1667372615.58075786,150900507,0,22.580751419067383,24.189655303955078,18.75581932067871,143.65879821777344,3.2667667865753174,0.0,0.08578160405158997,98
1667372615.68080592,151000555,0,22.59857749938965,24.207815170288086,18.73249626159668,144.179443359375,3.2785325050354004,0.0,0.08590616285800934,98
1667372615.78074598,151100495,0,22.534467697143555,24.108272552490234,18.320037841796875,144.6880645751953,3.28999400138855,0.0,0.08590616285800934,98
1667372615.88077688,151200526,0,22.53972625732422,24.148611068725586,18.728403091430664,145.20849609375,3.301724433898926,0.0,0.08590616285800934,98
1667372615.98066998,151300419,0,22.446590423583984,24.067031860351562,18.862924575805664,145.7318878173828,3.3134729862213135,0.0,0.08590616285800934,98
1667372616.08060479,151400354,0,22.52277374267578,24.171701431274414,19.214311599731445,146.26536560058594,3.325488328933716,0.0,0.08581764250993729,98
1667372616.18069983,151500449,0,22.548458099365234,24.209209442138672,19.35210418701172,146.80348205566406,3.3376221656799316,0.0,0.08581764250993729,98
1667372616.28064990,151600399,0,22.526992797851562,24.18596649169922,19.3524112701416,147.3408203125,3.349726915359497,0.0,0.08572439849376678,98
1667372616.38065481,151700404,0,22.437585830688477,24.079858779907227,19.094318389892578,147.8712921142578,3.3616292476654053,0.0,0.08600850403308868,98
1667372616.48063278,151800382,0,22.52890968322754,24.187654495239258,19.285816192626953,148.40692138671875,3.3736965656280518,0.0,0.08600850403308868,98
1667372616.58069181,151900441,0,22.522201538085938,24.141361236572266,18.837146759033203,148.93052673339844,3.3854894638061523,0.0,0.0859556496143341,98
1667372616.68072891,152000478,0,22.563310623168945,24.19233512878418,18.9267578125,149.45643615722656,3.397355794906616,0.0,0.08606994152069092,98
1667372616.78091979,152100669,0,22.50054359436035,24.130634307861328,18.939136505126953,149.98362731933594,3.4092178344726562,0.0,0.08606994152069092,98
1667372616.88073778,152200487,0,22.52977180480957,24.187297821044922,19.257890701293945,150.51759338378906,3.421247959136963,0.0,0.08606994152069092,98
1667372616.98069382,152300443,0,22.599437713623047,24.290773391723633,19.65070915222168,151.0633087158203,3.4335806369781494,0.0,0.08606994152069092,98
1667372617.08075380,152400503,0,22.585735321044922,24.25266456604004,19.367141723632812,151.60165405273438,3.445739507675171,0.0,0.08606994152069092,98
1667372617.18070984,152500459,0,22.561298370361328,24.277938842773438,19.9447078704834,152.1554718017578,3.4582343101501465,0.0,0.08606994152069092,98
1667372617.28077197,152600521,0,22.484540939331055,24.15712547302246,19.39230728149414,152.69444274902344,3.4703526496887207,0.0,0.0862499326467514,98
1667372617.38067293,152700422,0,22.469974517822266,24.144519805908203,19.369291305541992,153.23207092285156,3.482433319091797,0.0,0.08645357191562653,98
1667372617.48072696,152800476,0,22.527664184570312,24.250097274780273,19.92322540283203,153.78582763671875,3.494908332824707,0.0,0.08645357191562653,98
1667372617.58071780,152900467,0,22.468826293945312,24.179025650024414,19.760574340820312,154.33456420898438,3.507237672805786,0.0,0.08654605597257614,98
1667372617.68075180,153000501,0,22.481857299804688,24.195205688476562,19.790956497192383,154.8847198486328,3.519606113433838,0.0,0.08657225966453552,98
1667372617.78070688,153100456,0,22.480634689331055,24.186279296875,19.689647674560547,155.4314422607422,3.5318968296051025,0.0,0.08662648499011993,98
1667372617.88065481,153200404,0,22.416215896606445,24.13640022277832,19.806913375854492,155.9813995361328,3.544224739074707,0.0,0.08684762567281723,98
1667372617.98066187,153300411,0,22.460582733154297,24.198991775512695,20.02142906188965,156.53762817382812,3.556717872619629,0.0,0.08682745695114136,98
1667372618.08064079,153400390,0,22.483964920043945,24.2076473236084,19.862768173217773,157.0893096923828,3.569121837615967,0.0,0.08677951991558075,98
1667372618.18068695,153500436,0,22.456077575683594,24.168664932250977,19.713926315307617,157.63720703125,3.581425666809082,0.0,0.0868719294667244,98
1667372618.28068781,153600437,0,22.486360549926758,24.203773498535156,19.769474029541016,158.1864013671875,3.5937752723693848,0.0,0.0868719294667244,98
1667372618.38074398,153700493,0,22.471412658691406,24.154247283935547,19.37143898010254,158.72483825683594,3.60587477684021,0.0,0.0868719294667244,98
1667372618.48075700,153800506,0,22.455312728881836,24.10428810119629,18.981691360473633,159.25222778320312,3.6177172660827637,0.0,0.0868719294667244,98
1667372618.58080482,153900554,0,22.542037963867188,24.2054500579834,19.126541137695312,159.7838134765625,3.6297004222869873,0.0,0.08696876466274261,98
1667372618.68077183,154000521,0,22.552289962768555,24.23309898376465,19.291032791137695,160.3195343017578,3.641782283782959,0.0,0.08712899684906006,97
1667372618.78073692,154100486,0,22.477161407470703,24.126686096191406,18.931974411010742,160.84527587890625,3.653599500656128,0.0,0.08712899684906006,97
1667372618.88094997,154200699,0,22.49968147277832,24.14920425415039,18.953147888183594,161.37290954589844,3.665471315383911,0.0,0.08703161776065826,97
1667372618.98068786,154300437,0,22.524789810180664,24.158594131469727,18.782827377319336,161.89332580566406,3.6771936416625977,0.0,0.08698393404483795,97
1667372619.08062887,154400378,0,22.52996253967285,24.18671417236328,19.0360107421875,162.4218292236328,3.689100980758667,0.0,0.08703245967626572,97
1667372619.18065786,154500407,0,22.509838104248047,24.168212890625,19.058717727661133,162.95143127441406,3.701022148132324,0.0,0.08701401948928833,97
1667372619.28069592,154600445,0,22.505525588989258,24.184093475341797,19.2993221282959,163.48777770996094,3.7130930423736572,0.0,0.08697547018527985,97
1667372619.38064981,154700399,0,22.470645904541016,24.14150619506836,19.185771942138672,164.0205078125,3.7250640392303467,0.0,0.08708851784467697,97
1667372619.48069787,154800447,0,22.4980525970459,24.20435333251953,19.619098663330078,164.56578063964844,3.7373318672180176,0.0,0.0869714543223381,97
1667372619.58067584,154900425,0,22.525671005249023,24.235469818115234,19.659299850463867,165.11180114746094,3.74963116645813,0.0,0.0869714543223381,97
1667372619.68065882,155000408,0,22.537342071533203,24.263927459716797,19.852333068847656,165.6632080078125,3.7620582580566406,0.0,0.0869714543223381,97
1667372619.78074098,155100490,0,22.441608428955078,24.14191246032715,19.506776809692383,166.20555114746094,3.7742292881011963,0.0,0.08716475963592529,97
1667372619.88069391,155200443,0,22.45636558532715,24.16823387145996,19.621248245239258,166.75038146972656,3.786464214324951,0.0,0.08724559098482132,97
1667372619.98069191,155300441,0,22.478023529052734,24.2062931060791,19.822872161865234,167.30105590820312,3.798842191696167,0.0,0.08718561381101608,97
1667372620.08069992,155400449,0,22.463747024536133,24.189716339111328,19.795560836791992,167.85101318359375,3.8111963272094727,0.0,0.08718971908092499,97
1667372620.18077087,155500520,0,22.453203201293945,24.18813133239746,19.89621925354004,168.4041290283203,3.823615312576294,0.0,0.08719886839389801,97
1667372620.28072381,155600473,0,22.413148880004883,24.095867156982422,19.2974796295166,168.93995666503906,3.835624933242798,0.0,0.08719886839389801,97
1667372620.38080287,155700552,0,22.43499755859375,24.129676818847656,19.434656143188477,169.4802703857422,3.8477470874786377,0.0,0.08719886839389801,97
1667372620.48070192,155800451,0,22.435487747192383,24.127962112426758,19.40935707092285,170.0189208984375,3.8598320484161377,0.0,0.08719886839389801,97
1667372620.58061194,155900361,0,22.457324981689453,24.14764404296875,19.384634017944336,170.55694580078125,3.8719146251678467,0.0,0.08719886839389801,97
1667372620.68069792,156000447,0,22.409984588623047,24.088394165039062,19.248069763183594,171.0921173095703,3.8839077949523926,0.0,0.08719886839389801,97
1667372620.78068495,156100434,0,22.389381408691406,24.058130264282227,19.13728141784668,171.62368774414062,3.8958091735839844,0.0,0.08719886839389801,97
1667372620.88062692,156200376,0,22.32345199584961,23.955780029296875,18.719606399536133,172.14341735839844,3.9074110984802246,0.0,0.08719886839389801,97
1667372620.98079395,156300543,0,22.44754981994629,24.111431121826172,19.075597763061523,172.67413330078125,3.9193243980407715,0.0,0.08722566068172455,97
1667372621.08066082,156400410,0,22.439117431640625,24.130651473999023,19.392614364624023,173.2122344970703,3.931398868560791,0.0,0.08722566068172455,97
1667372621.18071795,156500467,0,22.512332916259766,24.205097198486328,19.4067325592041,173.75160217285156,3.9435412883758545,0.0,0.08722566068172455,97
1667372621.28074789,156600497,0,22.39474868774414,24.02832794189453,18.728200912475586,174.2720947265625,3.95519757270813,0.0,0.08722566068172455,97
1667372621.38075590,156700505,0,22.41206169128418,24.05562400817871,18.842636108398438,174.7955780029297,3.9669301509857178,0.0,0.08722566068172455,97
1667372621.48071384,156800463,0,22.49508285522461,24.170368194580078,19.206331253051758,175.32884216308594,3.978925943374634,0.0,0.08722566068172455,97
1667372621.58074999,156900499,0,22.45061683654785,24.125526428222656,19.202035903930664,175.86253356933594,3.990907669067383,0.0,0.08722566068172455,97
1667372621.68073678,157000486,0,22.443525314331055,24.12103271484375,19.23180389404297,176.396728515625,4.002896785736084,0.0,0.08722566068172455,97
1667372621.78077078,157100520,0,22.410463333129883,24.081707000732422,19.159992218017578,176.92916870117188,4.014829158782959,0.0,0.08722566068172455,97
1667372621.88070488,157200454,0,22.427043914794922,24.13207244873047,19.56477928161621,177.4720458984375,4.027004241943359,0.0,0.08714784681797028,97
1667372621.98074079,157300490,0,22.416982650756836,24.083017349243164,19.117334365844727,178.0035858154297,4.038919448852539,0.0,0.08714784681797028,97
1667372622.08068395,157400433,0,22.431547164916992,24.128658294677734,19.490510940551758,178.5447235107422,4.051058292388916,0.0,0.08707375824451447,97
1667372622.18077087,157500520,0,22.406248092651367,24.109113693237305,19.55618667602539,179.0884552001953,4.063241481781006,0.0,0.08707557618618011,97
1667372622.28070498,157600454,0,22.393108367919922,24.103914260864258,19.642932891845703,179.6337432861328,4.075451850891113,0.0,0.08709520846605301,97
1667372622.38062286,157700372,0,22.375776290893555,24.072450637817383,19.45245933532715,180.17373657226562,4.087534427642822,0.0,0.08722157031297684,97
1667372622.48065782,157800407,0,22.377500534057617,24.105255126953125,19.809062957763672,180.72422790527344,4.099853038787842,0.0,0.08722037822008133,97
1667372622.58063483,157900384,0,22.32402801513672,24.074058532714844,20.03984260559082,181.2808074951172,4.112277984619141,0.0,0.08732752501964569,97
1667372622.68068886,158000438,0,22.334280014038086,24.06768798828125,19.822872161865234,181.831787109375,4.124583721160889,0.0,0.08744484931230545,97
1667372622.78064990,158100399,0,22.3201961517334,24.071805953979492,20.0103816986084,182.387451171875,4.136986255645752,0.0,0.08753503113985062,97
1667372622.88067198,158200421,0,22.284738540649414,24.01663589477539,19.72405433654785,182.9355010986328,4.149199485778809,0.0,0.08780635893344879,97
1667372622.98069978,158300449,0,22.37098503112793,24.123497009277344,19.958826065063477,183.4901123046875,4.161606788635254,0.0,0.08780635893344879,97
1667372623.08087277,158400622,0,22.39848518371582,24.15145492553711,19.964040756225586,184.04566955566406,4.174050331115723,0.0,0.08780635893344879,97
1667372623.18077397,158500523,0,22.41770362854004,24.16071128845215,19.850595474243164,184.59657287597656,4.186400413513184,0.0,0.08780635893344879,97
1667372623.28074384,158600493,0,22.32853126525879,24.032888412475586,19.41041374206543,185.13563537597656,4.198436737060547,0.0,0.08780635893344879,97
1667372623.38074183,158700491,0,22.38890266418457,24.136537551879883,19.903278350830078,185.68853759765625,4.2108154296875,0.0,0.08780635893344879,97
1667372623.48065877,158800408,0,22.404142379760742,24.148435592651367,19.865224838256836,186.2399139404297,4.22316837310791,0.0,0.08780635893344879,97
1667372623.58076692,158900516,0,22.4289608001709,24.16535758972168,19.775304794311523,186.78988647460938,4.235503673553467,0.0,0.08780635893344879,97
1667372623.68072391,159000473,0,22.460294723510742,24.199607849121094,19.754743576049805,187.3382568359375,4.247819900512695,0.0,0.08804532140493393,97
1667372623.78072286,159100472,0,22.427810668945312,24.164602279663086,19.70809555053711,187.8857879638672,4.2600998878479,0.0,0.08812576532363892,97
1667372623.88076782,159200517,0,22.37539291381836,24.111209869384766,19.697046279907227,188.43336486816406,4.27235221862793,0.0,0.08812576532363892,97
1667372623.98071599,159300465,0,22.472274780273438,24.22450828552246,19.883329391479492,188.98544311523438,4.284758567810059,0.0,0.08812576532363892,97
1667372624.08065081,159400400,0,22.487552642822266,24.236209869384766,19.84275245666504,189.53631591796875,4.297146320343018,0.0,0.08812576532363892,97
1667372624.18065286,159500402,0,22.459148406982422,24.201004028320312,19.74216079711914,190.0847625732422,4.309463977813721,0.0,0.08823026716709137,97
1667372624.28074884,159600498,0,22.40797233581543,24.14278793334961,19.662368774414062,190.6315155029297,4.321715354919434,0.0,0.08823026716709137,97
1667372624.38067484,159700424,0,22.333227157592773,24.056020736694336,19.526111602783203,191.17355346679688,4.333820819854736,0.0,0.08823026716709137,97
1667372624.48068094,159800430,0,22.40730094909668,24.139760971069336,19.635669708251953,191.7190704345703,4.346044063568115,0.0,0.08823026716709137,97
1667372624.58071899,159900468,0,22.411903381347656,24.144338607788086,19.638124465942383,192.26483154296875,4.358275413513184,0.0,0.08821791410446167,97
1667372624.68075895,160000508,0,22.427810668945312,24.150428771972656,19.524883270263672,192.8074493408203,4.370445251464844,0.0,0.0882268100976944,97
1667372624.78075099,160100500,0,22.377883911132812,24.08837127685547,19.38739776611328,193.34597778320312,4.382496356964111,0.0,0.0882268100976944,97
1667372624.88078094,160200530,0,22.389862060546875,24.10124397277832,19.397525787353516,193.885009765625,4.394565105438232,0.0,0.0882268100976944,97
1667372624.98072791,160300477,0,22.431119918823242,24.164003372192383,19.6412296295166,194.43035888671875,4.406797885894775,0.0,0.0882268100976944,97
1667372625.08071184,160400461,0,22.432504653930664,24.174102783203125,19.740013122558594,194.9786376953125,4.419097423553467,0.0,0.0882268100976944,97
1667372625.18088293,160500632,0,22.400976181030273,24.144786834716797,19.766098022460938,195.5286865234375,4.4314188957214355,0.0,0.08822229504585266,97
