timestamp,TimeUS,Instance,Volt,VoltR,Curr,CurrTot,EnrgTot,Temp,Res,RemPct
1667374698.01975489,112414250,0,24.81514549255371,24.866561889648438,0.3829534649848938,13.514837265014648,0.3357946276664734,0.0,0.13426437973976135,99
1667374698.11943507,112513930,0,24.77388572692871,24.81410026550293,0.2995235323905945,13.523131370544434,0.33600011467933655,0.0,0.13426437973976135,99
1667374698.21955490,112614050,0,24.836076736450195,24.893062591552734,0.424427330493927,13.53493595123291,0.3362933099269867,0.0,0.13426437973976135,99
1667374698.31958795,112714083,0,24.82668685913086,24.881736755371094,0.41000354290008545,13.546329498291016,0.3365761637687683,0.0,0.13426630198955536,99
1667374698.41961503,112814110,0,24.83713150024414,24.894817352294922,0.4296444058418274,13.558268547058105,0.3368726968765259,0.0,0.13426630198955536,99
1667374698.51955009,112914045,0,24.83339500427246,24.89145278930664,0.43240639567375183,13.570273399353027,0.33717080950737,0.0,0.13426630198955536,99
1667374698.61972189,113014217,0,24.78289222717285,24.82471466064453,0.3114921748638153,13.578941345214844,0.3373856246471405,0.0,0.13426630198955536,99
1667374698.71948695,113113982,0,24.824098587036133,24.878406524658203,0.4044795334339142,13.5901517868042,0.3376638889312744,0.0,0.13426630198955536,99
1667374698.81977987,113214275,0,24.82601547241211,24.88147735595703,0.4130724370479584,13.60166072845459,0.33794960379600525,0.0,0.13426630198955536,99
1667374698.91942596,113313921,0,24.84727668762207,24.908489227294922,0.4559004604816437,13.614280700683594,0.3382631838321686,0.0,0.13426630198955536,99
1667374699.01972604,113414221,0,24.81940460205078,24.871074676513672,0.38483864068984985,13.625003814697266,0.3385293185710907,0.0,0.13426630198955536,99
1667374699.11943102,113513926,0,24.807043075561523,24.856201171875,0.3661184310913086,13.635144233703613,0.33878087997436523,0.0,0.13426630198955536,99
1667374699.21960092,113614096,0,24.799468994140625,24.84809112548828,0.3621288537979126,13.645221710205078,0.33903077244758606,0.0,0.13426630198955536,99
1667374699.31950808,113714003,0,24.83281898498535,24.890918731689453,0.4327132999897003,13.657231330871582,0.3393290042877197,0.0,0.13426630198955536,99
1667374699.41973090,113814226,0,24.833202362060547,24.891342163085938,0.4330202043056488,13.66928768157959,0.3396283984184265,0.0,0.13426630198955536,99
1667374699.51961589,113914111,0,24.841346740722656,24.90068244934082,0.4419199526309967,13.681550025939941,0.33993300795555115,0.0,0.13426630198955536,99
1667374699.61974502,114014240,0,24.79534912109375,24.842363357543945,0.3501602113246918,13.691289901733398,0.34017452597618103,0.0,0.13426630198955536,99
1667374699.71954393,114114039,0,24.7995662689209,24.847034454345703,0.3535359501838684,13.701091766357422,0.3404175937175751,0.0,0.13426630198955536,99
1667374699.81974101,114214236,0,24.82002067565918,24.87331199645996,0.39690959453582764,13.712136268615723,0.3406917154788971,0.0,0.13426630198955536,99
1667374699.91956210,114314057,0,24.843839645385742,24.904287338256836,0.4502059519290924,13.724624633789062,0.341001957654953,0.0,0.13426630198955536,99
1667374700.01972103,114414216,0,24.84374237060547,24.903366088867188,0.44406816363334656,13.736980438232422,0.34130892157554626,0.0,0.13426630198955536,99
1667374700.11958599,114514081,0,24.788450241088867,24.831920623779297,0.323767751455307,13.745962142944336,0.34153157472610474,0.0,0.13426630198955536,99
1667374700.21975589,114614251,0,24.797937393188477,24.845239639282227,0.3523084223270416,13.755765914916992,0.34177470207214355,0.0,0.13426630198955536,99
1667374700.31948090,114713976,0,24.78490447998047,24.893512725830078,0.818472683429718,13.778440475463867,0.3423366844654083,0.0,0.13269607722759247,99
1667374700.41975188,114814247,0,24.536901473999023,24.972631454467773,3.368105411529541,13.872260093688965,0.34463873505592346,0.0,0.12936946749687195,99
1667374700.51944590,114913941,0,24.614904403686523,24.900922775268555,2.2181928157806396,13.933692932128906,0.3461509048938751,0.0,0.12894177436828613,99
1667374700.61974692,115014242,0,24.650266647338867,24.83249282836914,1.3941960334777832,13.972539901733398,0.34710851311683655,0.0,0.13070280849933624,99
1667374700.71943808,115113933,0,24.701833724975586,24.905580520629883,1.5678611993789673,14.015960693359375,0.3481810688972473,0.0,0.12995265424251556,99
1667374700.81977701,115214272,0,24.700767517089844,24.912321090698242,1.6387865543365479,14.061640739440918,0.34930938482284546,0.0,0.12909135222434998,99
1667374700.91948700,115313982,0,24.720508575439453,24.925920486450195,1.5912187099456787,14.105716705322266,0.3503989577293396,0.0,0.12909135222434998,99
1667374701.01977110,115414266,0,24.72089195251465,24.919370651245117,1.5375131368637085,14.148550033569336,0.3514578342437744,0.0,0.12909135222434998,99
1667374701.11953092,115514026,0,24.684667587280273,24.867515563964844,1.4058579206466675,14.187511444091797,0.35241958498954773,0.0,0.13006086647510529,99
1667374701.21956897,115614064,0,24.67556381225586,24.853422164916992,1.3674968481063843,14.22551441192627,0.35335734486579895,0.0,0.13006086647510529,99
1667374701.31955409,115714049,0,24.718303680419922,24.906339645385742,1.4457534551620483,14.265671730041504,0.3543499708175659,0.0,0.13006086647510529,99
1667374701.41956210,115814057,0,24.72711944580078,24.918468475341797,1.4712251424789429,14.306546211242676,0.3553606867790222,0.0,0.13006086647510529,99
1667374701.51957607,115914071,0,24.722328186035156,24.913516998291016,1.4699976444244385,14.34738826751709,0.35637038946151733,0.0,0.13006086647510529,99
1667374701.61980295,116014298,0,24.65998649597168,24.833036422729492,1.330533742904663,14.384434700012207,0.35728394985198975,0.0,0.13006086647510529,99
1667374701.71953487,116114030,0,24.71082878112793,24.899303436279297,1.4491292238235474,14.424583435058594,0.3582760691642761,0.0,0.13006086647510529,99
1667374701.81969190,116214187,0,24.70623016357422,24.893787384033203,1.442070722579956,14.464707374572754,0.35926738381385803,0.0,0.13006086647510529,99
1667374701.91956091,116314056,0,24.732101440429688,24.926124572753906,1.4917868375778198,14.506094932556152,0.3602909743785858,0.0,0.13006086647510529,99
1667374702.01982689,116414322,0,24.692811965942383,24.875539779663086,1.4049372673034668,14.545228004455566,0.36125728487968445,0.0,0.13006086647510529,99
1667374702.11946487,116513960,0,24.671539306640625,24.848478317260742,1.3604382276535034,14.582883834838867,0.3621863126754761,0.0,0.13006086647510529,99
1667374702.21977401,116614269,0,24.684955596923828,24.865049362182617,1.384682536125183,14.621469497680664,0.3631387948989868,0.0,0.13006086647510529,99
1667374702.31953192,116714027,0,24.704984664916992,24.8924617767334,1.4414570331573486,14.66141414642334,0.3641256093978882,0.0,0.13006086647510529,99
1667374702.41982889,116814324,0,24.71954917907715,24.910858154296875,1.4709182977676392,14.702400207519531,0.3651387691497803,0.0,0.13006086647510529,99
1667374702.51957202,116914067,0,24.710350036621094,24.89994239807129,1.4577221870422363,14.742792129516602,0.3661368489265442,0.0,0.13006086647510529,99
1667374702.61982393,117014319,0,24.697603225708008,24.88208770751953,1.418440341949463,14.782295227050781,0.36711248755455017,0.0,0.13006086647510529,99
1667374702.71954298,117114038,0,24.68677520751953,24.86898422241211,1.4009476900100708,14.821104049682617,0.3680705428123474,0.0,0.13006086647510529,99
1667374702.81959105,117214086,0,24.68140983581543,24.862340927124023,1.391127109527588,14.85976791381836,0.3690248131752014,0.0,0.13006086647510529,99
1667374702.91956806,117314063,0,24.723670959472656,24.915739059448242,1.4767491817474365,14.900782585144043,0.37003883719444275,0.0,0.13006086647510529,99
1667374703.01958394,117414079,0,24.72089195251465,24.912960052490234,1.4767491817474365,14.941812515258789,0.37105312943458557,0.0,0.13006086647510529,99
1667374703.11957002,117514065,0,24.667322158813477,24.84258460998535,1.3475490808486938,14.979240417480469,0.371976375579834,0.0,0.13006086647510529,99
1667374703.21975493,117614250,0,24.66981315612793,24.8463134765625,1.357062578201294,15.017011642456055,0.37290820479393005,0.0,0.13006086647510529,99
1667374703.31959105,117714086,0,24.71226692199707,24.902099609375,1.4595634937286377,15.05749225616455,0.37390854954719543,0.0,0.13006086647510529,99
1667374703.41977000,117814265,0,24.719402313232422,24.911256790161133,1.4751124382019043,15.098544120788574,0.37492331862449646,0.0,0.13006086647510529,99
1667374703.51957202,117914067,0,24.69194984436035,24.875993728637695,1.4150645732879639,15.137777328491211,0.3758920729160309,0.0,0.13006086647510529,99
1667374703.61978102,118014276,0,24.6613826751709,24.836406707763672,1.345707654953003,15.175239562988281,0.37681594491004944,0.0,0.13006086647510529,99
1667374703.71971703,118114212,0,24.697893142700195,24.88333511352539,1.4258058071136475,15.214822769165039,0.3777935802936554,0.0,0.13006086647510529,99
1667374703.81978989,118214285,0,24.699905395507812,24.8880615234375,1.446674108505249,15.255041122436523,0.37878695130348206,0.0,0.13006086647510529,99
1667374703.91957307,118314068,0,24.71590805053711,24.90845489501953,1.4804317951202393,15.296077728271484,0.3798012137413025,0.0,0.13006086647510529,99
1667374704.01984191,118414337,0,24.71744155883789,24.910226821899414,1.4822732210159302,15.337366104125977,0.38082176446914673,0.0,0.13006086647510529,99
1667374704.11956096,118514056,0,24.674413681030273,24.854825973510742,1.3871376514434814,15.3757905960083,0.3817698657512665,0.0,0.13006086647510529,99
1667374704.21979904,118614294,0,24.671539306640625,24.851633071899414,1.384682536125183,15.414350509643555,0.3827212154865265,0.0,0.13006086647510529,99
1667374704.31957388,118714069,0,24.704387664794922,24.894113540649414,1.4587451219558716,15.45478343963623,0.3837200701236725,0.0,0.13006086647510529,99
1667374704.41980910,118814304,0,24.709680557250977,24.90146827697754,1.4746010303497314,15.495826721191406,0.38473424315452576,0.0,0.13006086647510529,99
1667374704.51955891,118914054,0,24.709487915039062,24.900157928466797,1.466008186340332,15.536468505859375,0.38573846220970154,0.0,0.13006086647510529,99
1667374704.61962390,119014119,0,24.658411026000977,24.836149215698242,1.3665761947631836,15.574456214904785,0.3866751790046692,0.0,0.13006086647510529,99
1667374704.71957397,119114069,0,24.69329071044922,24.879291534423828,1.4301021099090576,15.614165306091309,0.38765570521354675,0.0,0.13006086647510529,99
1667374704.81974888,119214244,0,24.70124626159668,24.891159057617188,1.4601771831512451,15.654799461364746,0.38865941762924194,0.0,0.13006086647510529,99
1667374704.91958499,119314080,0,24.715717315673828,24.908344268798828,1.4810456037521362,15.695876121520996,0.38967466354370117,0.0,0.13006086647510529,99
1667374705.01977396,119414269,0,24.67623519897461,24.85764503479004,1.3948098421096802,15.734697341918945,0.39063262939453125,0.0,0.13006086647510529,99
1667374705.11958790,119514083,0,24.69827651977539,24.88639259338379,1.4463671445846558,15.774803161621094,0.3916231691837311,0.0,0.13006086647510529,99
1667374705.21971107,119614206,0,24.699382781982422,24.887866973876953,1.44919753074646,15.81511116027832,0.39261874556541443,0.0,0.13006086647510529,99
1667374705.31954908,119714044,0,24.66530990600586,24.843486785888672,1.3699519634246826,15.853106498718262,0.3935559093952179,0.0,0.13006086647510529,99
1667374705.41974688,119814242,0,24.710445404052734,24.90283203125,1.4792042970657349,15.894280433654785,0.3945733308792114,0.0,0.13006086647510529,99
1667374705.51962399,119914119,0,24.71082878112793,24.903295516967773,1.4798181056976318,15.935338973999023,0.3955879211425781,0.0,0.13006086647510529,99
1667374705.61980796,120014303,0,24.670486450195312,24.850738525390625,1.385910153388977,15.973910331726074,0.39653950929641724,0.0,0.13006086647510529,99
1667374705.71951199,120114007,0,24.66818618774414,24.847640991210938,1.379772424697876,16.012126922607422,0.3974822461605072,0.0,0.13006086647510529,99
1667374705.81975198,120214247,0,24.708049774169922,24.899078369140625,1.468770146369934,16.053028106689453,0.39849281311035156,0.0,0.13006086647510529,99
1667374705.91956306,120314058,0,24.4104061126709,24.97676658630371,4.817848205566406,16.186614990234375,0.4017537236213684,0.0,0.11755450814962387,99
1667374706.01986408,120414359,0,24.03360939025879,24.971439361572266,8.82796573638916,16.432592391967773,0.4076654314994812,0.0,0.10623406618833542,99
1667374706.11957502,120514070,0,24.031457901000977,24.872425079345703,7.91295862197876,16.651779174804688,0.412932813167572,0.0,0.1062772199511528,99
1667374706.21981096,120614306,0,24.11151695251465,24.895662307739258,7.395714282989502,16.85771942138672,0.4178983271121979,0.0,0.10602705180644989,99
1667374706.31960297,120714098,0,24.086505889892578,24.91329002380371,7.830269813537598,17.07478904724121,0.42312678694725037,0.0,0.1055881604552269,99
1667374706.41964102,120814136,0,23.88526725769043,24.943273544311523,10.084367752075195,17.35504150390625,0.429820716381073,0.0,0.10491544008255005,99
1667374706.51961207,120914107,0,23.509428024291992,24.91874885559082,13.463829040527344,17.728958129882812,0.43861129879951477,0.0,0.10467453300952911,99
1667374706.61978793,121014283,0,23.229129791259766,24.841299057006836,15.34659194946289,18.156036376953125,0.44853195548057556,0.0,0.10505058616399765,99
1667374706.71955895,121114054,0,22.89487648010254,24.806419372558594,18.111352920532227,18.658018112182617,0.46002474427223206,0.0,0.10554387420415878,99
1667374706.81976390,121214259,0,22.1846923828125,24.574783325195312,22.327390670776367,19.279539108276367,0.4738129675388336,0.0,0.10704748332500458,99
1667374706.91959810,121314093,0,21.778860092163086,24.62744140625,26.390602111816406,20.011226654052734,0.4897482693195343,0.0,0.10793926566839218,99
1667374707.01981688,121414312,0,21.516000747680664,24.56832504272461,28.02631950378418,20.791744232177734,0.506541907787323,0.0,0.1089092344045639,99
1667374707.11956096,121514056,0,21.380308151245117,24.41765022277832,27.522478103637695,21.554323196411133,0.5228461027145386,0.0,0.11035856604576111,99
1667374707.21960092,121614096,0,21.224586486816406,24.34650230407715,27.89159393310547,22.32950782775879,0.5392990708351135,0.0,0.11193032562732697,99
1667374707.31962109,121714116,0,21.158178329467773,24.41073226928711,28.770217895507812,23.128904342651367,0.556212842464447,0.0,0.11305281519889832,99
1667374707.41981697,121814312,0,21.06541633605957,24.250442504882812,27.77467155456543,23.901996612548828,0.5724983811378479,0.0,0.11467373371124268,99
1667374707.51957607,121914071,0,20.9472599029541,24.194292068481445,27.906633377075195,24.67535972595215,0.5886982083320618,0.0,0.11635343730449677,99
1667374707.61984301,122014338,0,20.91783905029297,24.196155548095703,27.813644409179688,25.450101852416992,0.6049041152000427,0.0,0.11786723136901855,99
1667374707.71957397,122114069,0,21.0595703125,24.314186096191406,27.398731231689453,26.209190368652344,0.620890200138092,0.0,0.11878709495067596,99
1667374707.81983209,122214327,0,21.129621505737305,24.311172485351562,26.59406852722168,26.949872970581055,0.6365405321121216,0.0,0.11963389068841934,99
1667374707.91966701,122314162,0,21.244123458862305,24.393461227416992,26.224674224853516,27.67719268798828,0.6519917845726013,0.0,0.12009061872959137,99
1667374708.01978207,122414277,0,21.31830596923828,24.34708023071289,25.220741271972656,28.378631591796875,0.6669452786445618,0.0,0.12009061872959137,99
1667374708.11950397,122513999,0,21.336801528930664,24.245283126831055,24.21905517578125,29.04957389831543,0.6812610030174255,0.0,0.12009061872959137,99
1667374708.21984196,122614337,0,21.30354881286621,24.35028839111328,25.299612045288086,29.754772186279297,0.6962842345237732,0.0,0.12042632699012756,99
1667374708.31960893,122714104,0,21.36717987060547,24.379289627075195,25.012056350708008,30.44780731201172,0.711092472076416,0.0,0.12042632699012756,99
1667374708.41976905,122814264,0,21.46808624267578,24.312223434448242,23.686601638793945,31.107044219970703,0.7252450585365295,0.0,0.12007369846105576,99
1667374708.51963091,122914126,0,21.647380828857422,24.367475509643555,22.67110824584961,31.735979080200195,0.7388598322868347,0.0,0.11998064815998077,99
1667374708.61977100,123014266,0,21.721649169921875,24.330785751342773,21.780824661254883,32.341896057128906,0.7520213723182678,0.0,0.11979056149721146,99
1667374708.71987605,123114371,0,21.755571365356445,24.21321678161621,20.60697364807129,32.91495132446289,0.7644885778427124,0.0,0.11926279962062836,99
1667374708.81986809,123214363,0,21.722946166992188,24.094451904296875,20.01767921447754,33.471004486083984,0.7765676975250244,0.0,0.11847056448459625,99
1667374708.92061210,123315107,0,21.80655288696289,24.176101684570312,20.05948257446289,34.03240203857422,0.7888098359107971,0.0,0.11812610179185867,99
1667374709.02061605,123415111,0,21.831851959228516,24.178316116333008,19.907573699951172,34.58545684814453,0.8008840680122375,0.0,0.11786791682243347,99
1667374709.12068009,123515175,0,21.8057861328125,24.105039596557617,19.579816818237305,35.12972640991211,0.8127523064613342,0.0,0.11742974817752838,99
1667374709.22068191,123615177,0,21.894044876098633,24.230688095092773,19.886398315429688,35.68218231201172,0.8248477578163147,0.0,0.11749958246946335,99
1667374709.32061410,123715109,0,21.831085205078125,24.180551528930664,20.01406478881836,36.23780059814453,0.836977481842041,0.0,0.11739073693752289,99
1667374709.42058492,123815080,0,21.889158248901367,24.224241256713867,19.881793975830078,36.78995132446289,0.8490635752677917,0.0,0.11744831502437592,99
1667374709.52060294,123915098,0,21.98479652404785,24.362333297729492,20.15860939025879,37.35006332397461,0.8613775372505188,0.0,0.11794151365756989,99
1667374709.62060308,124015098,0,21.96744728088379,24.241966247558594,19.28643035888672,37.885841369628906,0.873147189617157,0.0,0.11793361604213715,99
1667374709.72057605,124115071,0,21.971664428710938,24.213191986083984,19.02281379699707,38.414154052734375,0.8847550749778748,0.0,0.11783365905284882,99
1667374709.82054400,124215039,0,21.943885803222656,24.230037689208984,19.405263900756836,38.953060150146484,0.8965807557106018,0.0,0.11781088262796402,99
1667374709.92051792,124315013,0,21.989107131958008,24.35757064819336,20.036466598510742,39.50952911376953,0.9088169932365417,0.0,0.11820761114358902,99
1667374710.02078795,124415283,0,22.03203582763672,24.3715877532959,19.732646942138672,40.059181213378906,0.9209269881248474,0.0,0.1185624971985817,99
1667374710.12063289,124515128,0,21.85111427307129,24.094789505004883,18.923994064331055,40.58401870727539,0.9323952198028564,0.0,0.1185624971985817,99
1667374710.22057390,124615069,0,21.803869247436523,24.129085540771484,19.61173439025879,41.128570556640625,0.9442685842514038,0.0,0.1185624971985817,99
1667374710.32061195,124715107,0,21.73027229309082,24.220956802368164,20.998870849609375,41.712135314941406,0.9569495916366577,0.0,0.11861035972833633,99
1667374710.42054391,124815039,0,21.668272018432617,24.19600486755371,21.286731719970703,42.30308532714844,0.9697544574737549,0.0,0.11874690651893616,99
1667374710.52072191,124915217,0,21.687341690063477,24.230484008789062,21.417774200439453,42.899131774902344,0.9826810956001282,0.0,0.11873982101678848,99
1667374710.62059903,125015094,0,21.68523406982422,24.206029891967773,21.21430778503418,43.48773956298828,0.995445191860199,0.0,0.11882524192333221,99
1667374710.72065687,125115152,0,21.6041202545166,24.1148738861084,21.055644989013672,44.072998046875,1.0080891847610474,0.0,0.11924370378255844,99
1667374710.82058406,125215079,0,21.668176651000977,24.16203498840332,20.879182815551758,44.65260314941406,1.0206482410430908,0.0,0.11944231390953064,99
1667374710.92073393,125315229,0,21.834823608398438,24.262483596801758,20.295787811279297,45.21725845336914,1.0329774618148804,0.0,0.11961397528648376,99
1667374711.02059197,125415087,0,21.886762619018555,24.235639572143555,19.629531860351562,45.76179885864258,1.0448956489562988,0.0,0.11966036260128021,99
1667374711.12055993,125515055,0,21.81374168395996,24.173006057739258,19.744003295898438,46.31011199951172,1.056856393814087,0.0,0.11949268728494644,99
1667374711.22054410,125615039,0,21.751258850097656,24.10007095336914,19.656539916992188,46.856082916259766,1.0687319040298462,0.0,0.11949268728494644,99
1667374711.32058191,125715077,0,21.84258460998535,24.20546531677246,19.768245697021484,47.405452728271484,1.0807316303253174,0.0,0.11952909827232361,99
1667374711.42055607,125815051,0,21.883790969848633,24.150293350219727,18.985986709594727,47.932716369628906,1.0922701358795166,0.0,0.11937762051820755,99
1667374711.52060294,125915098,0,22.004343032836914,24.26396942138672,18.888395309448242,48.45771408081055,1.1038223505020142,0.0,0.11963041871786118,99
1667374711.62054300,126015038,0,21.905553817749023,24.080705642700195,18.243518829345703,48.96421432495117,1.114917516708374,0.0,0.1192287802696228,99
1667374711.72060108,126115096,0,22.011722564697266,24.24484634399414,18.69474983215332,49.48385238647461,1.1263556480407715,0.0,0.11945188045501709,99
1667374711.82061791,126215113,0,22.034626007080078,24.2419376373291,18.453227996826172,49.99657440185547,1.1376533508300781,0.0,0.11961659789085388,99
1667374711.92063498,126315130,0,22.090782165527344,24.252239227294922,18.045372009277344,50.49789810180664,1.1487280130386353,0.0,0.11977902799844742,99
1667374712.02056098,126415056,0,22.091644287109375,24.216285705566406,17.736642837524414,50.990318298339844,1.1596063375473022,0.0,0.1197882890701294,99
1667374712.12082195,126515317,0,22.063373565673828,24.129396438598633,17.287357330322266,51.4718132019043,1.1702297925949097,0.0,0.11951064318418503,99
1667374712.22058296,126615078,0,22.135244369506836,24.16753387451172,17.01821517944336,51.943450927734375,1.1806695461273193,0.0,0.11941850930452347,99
1667374712.32070303,126715198,0,22.11406707763672,24.167390823364258,17.204805374145508,52.42197036743164,1.191251516342163,0.0,0.11934598535299301,99
1667374712.42059588,126815091,0,22.1641845703125,24.22211265563965,17.22567367553711,52.899993896484375,1.2018464803695679,0.0,0.11946862936019897,99
1667374712.52071595,126915211,0,22.12537384033203,24.149972915649414,16.966659545898438,53.37189483642578,1.212287425994873,0.0,0.11932805180549622,99
1667374712.62053394,127015029,0,22.136205673217773,24.102458953857422,16.514610290527344,53.829830169677734,1.2224243879318237,0.0,0.11906146258115768,99
1667374712.72060490,127115100,0,22.20136833190918,24.195743560791016,16.737104415893555,54.29511642456055,1.2327543497085571,0.0,0.11915887147188187,99
1667374712.82051206,127215007,0,22.159969329833984,24.16183853149414,16.8049259185791,54.76152420043945,1.2430899143218994,0.0,0.11912400275468826,99
1667374712.92056203,127315057,0,22.18105125427246,24.21318244934082,17.038776397705078,55.235050201416016,1.2535932064056396,0.0,0.1192651093006134,99
1667374713.02055001,127415045,0,22.132465362548828,24.134485244750977,16.80707550048828,55.70194625854492,1.2639267444610596,0.0,0.11911764740943909,99
1667374713.12058091,127515076,0,22.12959098815918,24.085832595825195,16.460905075073242,56.159366607666016,1.2740492820739746,0.0,0.11884164810180664,99
1667374713.22054195,127615037,0,22.15584945678711,24.10600471496582,16.430522918701172,56.61563491821289,1.2841582298278809,0.0,0.11869096010923386,99
1667374713.32059789,127715093,0,22.12053108215332,24.063072204589844,16.366384506225586,57.07054901123047,1.2942211627960205,0.0,0.11869096010923386,99
1667374713.42065096,127815146,0,22.159393310546875,24.145000457763672,16.721759796142578,57.53525924682617,1.3045189380645752,0.0,0.1187438815832138,99
1667374713.52066398,127915159,0,22.147991180419922,24.078495025634766,16.28199005126953,57.987693786621094,1.3145394325256348,0.0,0.11856681853532791,99
1667374713.62067103,128015166,0,22.111478805541992,23.99085807800293,15.850810050964355,58.42805862426758,1.3242765665054321,0.0,0.11856681853532791,99
1667374713.72065687,128115152,0,22.17645263671875,24.078039169311523,16.04752540588379,58.87379837036133,1.334161400794983,0.0,0.11849716305732727,99
1667374713.82058001,128215075,0,22.1708927154541,24.0833683013916,16.144502639770508,59.32194900512695,1.3440972566604614,0.0,0.11845984309911728,99
1667374713.92061710,128315112,0,22.20740509033203,24.157079696655273,16.428987503051758,59.77851486206055,1.354236364364624,0.0,0.11867283284664154,99
1667374714.02060294,128415098,0,22.242475509643555,24.138999938964844,15.966507911682129,60.22196960449219,1.3640999794006348,0.0,0.1187814399600029,99
1667374714.12064600,128515141,0,22.201749801635742,24.04974937438965,15.585350036621094,60.655147552490234,1.3737173080444336,0.0,0.11857287585735321,99
1667374714.22068596,128615181,0,22.20400619506836,24.057153701782227,15.64724063873291,61.089988708496094,1.3833725452423096,0.0,0.11843288689851761,99
1667374714.32058096,128715076,0,22.152877807617188,24.03086280822754,15.856947898864746,61.53004455566406,1.3931211233139038,0.0,0.11843288689851761,99
1667374714.42048192,128814977,0,22.21257972717285,24.075273513793945,15.730203628540039,61.966590881347656,1.402817964553833,0.0,0.11841505020856857,99
1667374714.52063704,128915132,0,22.230594635009766,24.079933166503906,15.617266654968262,62.40111541748047,1.412477731704712,0.0,0.11841631680727005,99
1667374714.62049794,129014993,0,22.174057006835938,23.988582611083984,15.32326889038086,62.82619857788086,1.4219036102294922,0.0,0.11841631680727005,99
1667374714.72051692,129115012,0,22.25436019897461,24.08677101135254,15.46474552154541,63.25589370727539,1.4314662218093872,0.0,0.11848949640989304,99
1667374714.82059789,129215093,0,22.308887481689453,24.13399887084961,15.375439643859863,63.68336868286133,1.4410027265548706,0.0,0.11870304495096207,99
1667374714.92068696,129315182,0,22.395898818969727,24.18114471435547,14.998579025268555,64.10040283203125,1.4503425359725952,0.0,0.11902769654989243,99
1667374715.02068305,129415178,0,22.53504180908203,24.148469924926758,13.538094520568848,64.47647857666016,1.4588173627853394,0.0,0.1191769614815712,99
1667374715.12066197,129515157,0,22.389488220214844,24.01401138305664,13.668830871582031,64.85611724853516,1.4673173427581787,0.0,0.11884868890047073,99
1667374715.22061205,129615107,0,22.34999656677246,24.138320922851562,15.04706859588623,65.27391815185547,1.476655125617981,0.0,0.11884868890047073,99
1667374715.32060790,129715103,0,22.185457229614258,24.109272003173828,16.19176483154297,65.72370147705078,1.4866337776184082,0.0,0.1188143789768219,99
1667374715.42072392,129815219,0,22.166292190551758,24.16239356994629,16.83224105834961,66.19184875488281,1.4970108270645142,0.0,0.11858802288770676,99
1667374715.52071691,129915212,0,22.10390853881836,24.08201789855957,16.666826248168945,66.65482330322266,1.507244348526001,0.0,0.11868547648191452,99
1667374715.62057209,130015067,0,22.05628204345703,24.0676326751709,16.92707061767578,67.12437438964844,1.5176008939743042,0.0,0.1188245415687561,99
1667374715.72060895,130115104,0,21.98996925354004,24.09286117553711,17.69306182861328,67.6160659790039,1.5284132957458496,0.0,0.11885405331850052,99
1667374715.82055688,130215052,0,22.074106216430664,24.176422119140625,17.730504989624023,68.10836029052734,1.5392801761627197,0.0,0.11857058852910995,99
1667374715.92060804,130315103,0,22.034914016723633,24.096641540527344,17.38157081604004,68.59146881103516,1.549925446510315,0.0,0.11861566454172134,99
1667374716.02061510,130415110,0,21.958538055419922,24.00644874572754,17.210941314697266,69.06962585449219,1.560425043106079,0.0,0.11898893117904663,99
1667374716.12062693,130515122,0,21.859342575073242,23.923065185546875,17.25124740600586,69.54891967773438,1.5709021091461182,0.0,0.1196274384856224,99
1667374716.22051907,130615014,0,21.87190818786621,24.03615379333496,18.06930923461914,70.05034637451172,1.5818692445755005,0.0,0.11977468430995941,99
1667374716.32086802,130715363,0,21.974349975585938,24.216716766357422,18.80645751953125,70.57461547851562,1.593389630317688,0.0,0.11923389136791229,99
1667374716.42065096,130815146,0,22.15891456604004,24.41269874572754,18.902206420898438,71.09850311279297,1.6049984693527222,0.0,0.11923389136791229,99
1667374716.52065706,130915152,0,22.216794967651367,24.391979217529297,18.243009567260742,71.60535430908203,1.6162590980529785,0.0,0.11923389136791229,99
1667374716.62065506,131015150,0,22.202228546142578,24.389562606811523,18.34489631652832,72.11500549316406,1.6275745630264282,0.0,0.11923389136791229,99
1667374716.72065401,131115149,0,22.085124969482422,24.378467559814453,19.330928802490234,72.65201568603516,1.6394344568252563,0.0,0.11863592267036438,99
1667374716.82068110,131215176,0,21.998497009277344,24.43256950378418,20.645334243774414,73.22570037841797,1.6520545482635498,0.0,0.11789938062429428,99
1667374716.92067194,131315167,0,21.83875274658203,24.320158004760742,21.088788986206055,73.81149291992188,1.6648476123809814,0.0,0.1176646500825882,99
1667374717.02070189,131415197,0,21.789281845092773,24.321983337402344,21.56439971923828,74.41072845458984,1.677904486656189,0.0,0.11744824796915054,99
1667374717.12062287,131515118,0,21.60655975341797,24.250308990478516,22.495262145996094,75.03515625,1.6913962364196777,0.0,0.11752468347549438,99
1667374717.22065592,131615151,0,21.465883255004883,24.197139739990234,23.18667984008789,75.67949676513672,1.7052274942398071,0.0,0.1177942082285881,99
1667374717.32061505,131715110,0,21.27901840209961,24.051441192626953,23.378793716430664,76.32868957519531,1.7190417051315308,0.0,0.11858707666397095,99
1667374717.42052889,131815024,0,21.031492233276367,23.922578811645508,24.134660720825195,76.99857330322266,1.7331303358078003,0.0,0.11978983134031296,99
1667374717.52060890,131915104,0,20.938922882080078,23.990636825561523,25.300838470458984,77.70199584960938,1.747859239578247,0.0,0.12061714380979538,99
1667374717.62050700,132015002,0,20.971982955932617,24.010589599609375,25.053180694580078,78.39726257324219,1.7624403238296509,0.0,0.12128628045320511,99
1667374717.72060394,132115099,0,20.917072296142578,23.847036361694336,23.91646385192871,79.06222534179688,1.776349425315857,0.0,0.1225082278251648,99
1667374717.82052088,132215016,0,20.972822189331055,23.962739944458008,24.27354621887207,79.73606872558594,1.7904818058013916,0.0,0.12317600846290588,99
1667374717.92067194,132315167,0,20.96498680114746,24.00175666809082,24.56277084350586,80.4194564819336,1.8048089742660522,0.0,0.12363307178020477,99
1667374718.02061391,132415109,0,20.940168380737305,23.939537048339844,24.133432388305664,81.08949279785156,1.8188396692276,0.0,0.12428273260593414,99
1667374718.12067294,132515168,0,20.954639434814453,23.83622932434082,23.185760498046875,81.73396301269531,1.83234441280365,0.0,0.12428273260593414,99
1667374718.22065306,132615148,0,21.103748321533203,23.913976669311523,22.611572265625,82.36198425292969,1.8455981016159058,0.0,0.12428273260593414,99
1667374718.32061696,132715112,0,21.147539138793945,23.90198516845703,22.23594093322754,82.97948455810547,1.858656644821167,0.0,0.12387362122535706,99
1667374718.42076802,132815263,0,21.19995880126953,24.00168800354004,22.61648178100586,83.60871887207031,1.8719964027404785,0.0,0.12387996166944504,99
1667374718.52070808,132915203,0,21.25295066833496,24.05855369567871,22.613414764404297,84.23653411865234,1.885339379310608,0.0,0.12406810373067856,98
1667374718.62069297,133015188,0,21.260711669921875,23.97486686706543,21.89836311340332,84.84473419189453,1.8982701301574707,0.0,0.1239432841539383,98
1667374718.72063208,133115127,0,21.321321487426758,23.977853775024414,21.448463439941406,85.44026184082031,1.9109675884246826,0.0,0.12385649979114532,98
1667374718.82056689,133215062,0,21.378583908081055,24.005077362060547,21.20233726501465,86.02887725830078,1.9235514402389526,0.0,0.12387758493423462,98
1667374718.92062688,133315122,0,21.504310607910156,24.149372100830078,21.269241333007812,86.6200942993164,1.9362651109695435,0.0,0.12436087429523468,98
1667374719.02065992,133415155,0,21.535261154174805,24.15254783630371,20.98107147216797,87.20313262939453,1.9488210678100586,0.0,0.12474514544010162,98
1667374719.12061501,133515110,0,21.381555557250977,23.928037643432617,20.48421859741211,87.77192687988281,1.9609827995300293,0.0,0.12431438267230988,98
1667374719.22056198,133615057,0,21.49281120300293,23.98348617553711,20.060096740722656,88.32890319824219,1.9729539155960083,0.0,0.12416069954633713,98
1667374719.32065606,133715151,0,21.627737045288086,24.12808609008789,20.08127212524414,88.88728332519531,1.9850304126739502,0.0,0.1245114728808403,98
1667374719.42054796,133815043,0,21.47450828552246,24.053865432739258,20.710702896118164,89.46200561523438,1.9973722696304321,0.0,0.12454221397638321,98
1667374719.52067900,133915174,0,21.41950225830078,24.00684928894043,20.796323776245117,90.04048156738281,2.009762763977051,0.0,0.12441366165876389,98
1667374719.62059593,134015091,0,21.360610961914062,23.92120933532715,20.581331253051758,90.61175537109375,2.021965503692627,0.0,0.12441366165876389,98
1667374719.72066903,134115164,0,21.391040802001953,23.867509841918945,19.905120849609375,91.16513061523438,2.0338027477264404,0.0,0.12441366165876389,98
1667374719.82060790,134215103,0,21.4906063079834,24.00177764892578,20.17947769165039,91.72537231445312,2.0458426475524902,0.0,0.12444180250167847,98
1667374719.92072892,134315224,0,21.603973388671875,23.95929718017578,18.94486427307129,92.2522964477539,2.0572264194488525,0.0,0.124325230717659,98
1667374720.02066898,134415164,0,21.74330711364746,23.97195053100586,17.93305015563965,92.75017547607422,2.068051815032959,0.0,0.12427574396133423,98
1667374720.12061596,134515111,0,21.694433212280273,23.918811798095703,17.92936897277832,93.24798583984375,2.0788516998291016,0.0,0.1240633949637413,98
1667374720.22070909,134615204,0,21.638277053833008,23.861370086669922,17.970184326171875,93.74765014648438,2.089663505554199,0.0,0.12371011823415756,98
1667374720.32057810,134715073,0,21.80760955810547,23.935768127441406,17.207258224487305,94.22505950927734,2.1000747680664062,0.0,0.12367796152830124,98
1667374720.42059398,134815089,0,21.970613479614258,24.056228637695312,16.81290626525879,94.69219970703125,2.110337972640991,0.0,0.12404841184616089,98
1667374720.52070904,134915204,0,21.921207427978516,24.039247512817383,17.042221069335938,95.16617584228516,2.120728015899658,0.0,0.12428190559148788,98
1667374720.62062097,135015116,0,21.870281219482422,23.942140579223633,16.68892478942871,95.62935638427734,2.1308579444885254,0.0,0.12414576858282089,98
1667374720.72053504,135115030,0,21.905256271362305,23.957679748535156,16.539775848388672,96.08834838867188,2.1409122943878174,0.0,0.12409018725156784,98
1667374720.82066202,135215157,0,21.963520050048828,23.97479248046875,16.206493377685547,96.53925323486328,2.150815725326538,0.0,0.124102883040905,98
1667374720.92058492,135315080,0,22.05666732788086,24.032581329345703,15.895922660827637,96.98047637939453,2.1605477333068848,0.0,0.12430319935083389,98
1667374721.02060199,135415097,0,22.052257537841797,23.94186019897461,15.218926429748535,97.40335083007812,2.169872999191284,0.0,0.12416133284568787,98
1667374721.12061501,135515110,0,22.002044677734375,23.860563278198242,15.014537811279297,97.82051086425781,2.179051399230957,0.0,0.123781219124794,98
1667374721.22066092,135615156,0,22.058006286621094,23.959495544433594,15.358253479003906,98.24735260009766,2.188466787338257,0.0,0.12380897253751755,98
1667374721.32057905,135715074,0,22.031463623046875,23.963476181030273,15.600387573242188,98.68038177490234,2.198007106781006,0.0,0.12384393811225891,98
1667374721.42060494,135815100,0,22.043760299682617,23.935218811035156,15.281020164489746,99.10499572753906,2.207367181777954,0.0,0.12377826124429703,98
1667374721.52066088,135915156,0,22.138980865478516,23.997282028198242,14.994589805603027,99.52177429199219,2.2165942192077637,0.0,0.12393146008253098,98
1667374721.62059903,136015094,0,22.12297821044922,23.86240577697754,14.072388648986816,99.91246032714844,2.2252373695373535,0.0,0.12360575795173645,98
1667374721.72071600,136115211,0,22.174821853637695,23.860260009765625,13.664840698242188,100.29251098632812,2.2336649894714355,0.0,0.12334118783473969,98
1667374721.82066202,136215157,0,22.221012115478516,23.939327239990234,13.925389289855957,100.6790542602539,2.2422544956207275,0.0,0.1233944520354271,98
1667374721.92053294,136315028,0,22.222545623779297,23.93122673034668,13.845598220825195,101.06327819824219,2.250792980194092,0.0,0.12340973317623138,98
1667374722.02061105,136415106,0,22.31099510192871,23.964508056640625,13.385265350341797,101.43540954589844,2.2590956687927246,0.0,0.12353238463401794,98
1667374722.12058210,136515077,0,22.15814781188965,23.82260513305664,13.514771461486816,101.81074523925781,2.2674124240875244,0.0,0.12315841019153595,98
1667374722.22062087,136615116,0,22.110042572021484,23.8591251373291,14.201896667480469,102.20542907714844,2.2761387825012207,0.0,0.12315841019153595,98
1667374722.32054305,136715038,0,22.12116813659668,23.822952270507812,13.817842483520508,102.5889892578125,2.284623622894287,0.0,0.12315841019153595,98
1667374722.42052293,136815018,0,22.179229736328125,23.922990798950195,14.146041870117188,102.98188781738281,2.293337821960449,0.0,0.1232684850692749,98
1667374722.52054191,136915037,0,22.12297821044922,23.90161895751953,14.43114185333252,103.38285827636719,2.302208662033081,0.0,0.12325016409158707,98
1667374722.62076306,137015258,0,22.006547927856445,23.835803985595703,14.814753532409668,103.79531860351562,2.3112854957580566,0.0,0.12347526103258133,98
1667374722.72058797,137115083,0,21.993322372436523,23.98788070678711,16.200969696044922,104.24459075927734,2.321166515350342,0.0,0.12311355024576187,98
1667374722.82059407,137215089,0,21.826679229736328,23.995935440063477,17.670045852661133,104.7354965209961,2.331881284713745,0.0,0.12276459485292435,98
1667374722.92063403,137315129,0,21.596111297607422,23.895200729370117,18.717458724975586,105.255615234375,2.343113899230957,0.0,0.1228312999010086,98
1667374723.02065992,137415155,0,21.477285385131836,23.881826400756836,19.55864143371582,105.79916381835938,2.354787826538086,0.0,0.1229400783777237,98
1667374723.12067103,137515166,0,21.41212272644043,23.970369338989258,20.84880256652832,106.37841033935547,2.3671905994415283,0.0,0.12270473688840866,98
1667374723.22059894,137615094,0,21.31439971923828,23.809053421020508,20.265233993530273,106.94096374511719,2.379181146621704,0.0,0.12310020625591278,98
1667374723.32059693,137715092,0,21.40024185180664,23.823087692260742,19.634443283081055,107.48640441894531,2.3908536434173584,0.0,0.12339771538972855,98
1667374723.42057204,137815067,0,21.585285186767578,24.12088966369629,20.690753936767578,108.06105041503906,2.4032576084136963,0.0,0.12254771590232849,98
1667374723.52065897,137915154,0,21.4678955078125,23.99449920654297,20.664976119995117,108.6356201171875,2.4155924320220947,0.0,0.12226502597332001,98
1667374723.62056804,138015063,0,21.475847244262695,23.896892547607422,19.783283233642578,109.18453979492188,2.4273810386657715,0.0,0.12237832695245743,98
1667374723.72058988,138115085,0,21.565448760986328,23.911727905273438,19.165210723876953,109.7170639038086,2.4388651847839355,0.0,0.12242389470338821,98
1667374723.82060003,138215095,0,21.651887893676758,23.965728759765625,18.87857437133789,110.24171447753906,2.4502248764038086,0.0,0.1225644201040268,98
1667374723.92051697,138315012,0,21.640865325927734,23.916688919067383,18.57598304748535,110.75724792480469,2.461381435394287,0.0,0.1225142553448677,98
1667374724.02063990,138415135,0,21.577524185180664,23.905834197998047,18.99120330810547,111.28550720214844,2.4727799892425537,0.0,0.12259934842586517,98
1667374724.12056208,138515057,0,21.540342330932617,23.82723617553711,18.65338706970215,111.8033447265625,2.4839344024658203,0.0,0.12259934842586517,98
1667374724.22060800,138615103,0,21.579822540283203,23.891727447509766,18.85740089416504,112.32744598388672,2.495244264602661,0.0,0.12259934842586517,98
1667374724.32056189,138715057,0,21.547624588012695,23.916223526000977,19.32540512084961,112.86405944824219,2.5068070888519287,0.0,0.12256398051977158,98
1667374724.42067194,138815167,0,21.524913787841797,23.957698822021484,19.87934112548828,113.41690826416016,2.518707036972046,0.0,0.12237751483917236,98
1667374724.52066493,138915160,0,21.566694259643555,23.966150283813477,19.63873863220215,113.96244049072266,2.5304722785949707,0.0,0.12217975407838821,98
1667374724.62062001,139015115,0,21.61853790283203,24.035804748535156,19.78451156616211,114.51180267333984,2.542348623275757,0.0,0.12217975407838821,98
1667374724.72078109,139115276,0,21.685522079467773,24.067955017089844,19.49941062927246,115.05437469482422,2.554114580154419,0.0,0.12217975407838821,98
1667374724.82064390,139215139,0,21.80147361755371,24.184993743896484,19.508312225341797,115.59551239013672,2.5659122467041016,0.0,0.12217975407838821,98
1667374724.92066789,139315163,0,21.872005462646484,24.24064064025879,19.261571884155273,116.13078308105469,2.577619791030884,0.0,0.1229720339179039,98
1667374725.02065587,139415151,0,21.939733505249023,24.290708541870117,18.997102737426758,116.65846252441406,2.5891969203948975,0.0,0.12375441193580627,98
1667374725.12061405,139515109,0,21.837984085083008,24.094985961914062,18.24178123474121,117.16500854492188,2.6002588272094727,0.0,0.12372704595327377,98
1667374725.22053409,139615029,0,21.8721981048584,24.190725326538086,18.69505500793457,117.68394470214844,2.6116089820861816,0.0,0.12401816993951797,98
1667374725.32059908,139715094,0,21.83367347717285,24.16753578186035,18.79571533203125,118.20642852783203,2.623016834259033,0.0,0.12416991591453552,98
1667374725.42058992,139815085,0,21.893085479736328,24.25404167175293,19.013914108276367,118.7344970703125,2.634577989578247,0.0,0.12416991591453552,98
1667374725.52052999,139915025,0,21.85858726501465,24.179189682006836,18.6754150390625,119.2530746459961,2.6459133625030518,0.0,0.12425976246595383,98
1667374725.62058997,140015085,0,21.882640838623047,24.20473861694336,18.66436767578125,119.77188110351562,2.657266139984131,0.0,0.1244133785367012,98
1667374725.72059393,140115089,0,21.882450103759766,24.201915740966797,18.626619338989258,120.28935241699219,2.6685898303985596,0.0,0.12452428042888641,98
1667374725.82060695,140215102,0,21.834535598754883,24.162626266479492,18.70211410522461,120.80896759033203,2.6799352169036865,0.0,0.12448273599147797,98
1667374725.92053890,140315034,0,21.667156219482422,23.95042610168457,18.342065811157227,121.31816101074219,2.6909680366516113,0.0,0.12448273599147797,98
1667374726.02067208,140415167,0,21.61777114868164,23.891958236694336,18.269094467163086,121.82635498046875,2.701953887939453,0.0,0.12448273599147797,98
1667374726.12060905,140515104,0,21.518396377563477,23.786279678344727,18.218456268310547,122.33214569091797,2.7128376960754395,0.0,0.12448273599147797,98
1667374726.22069597,140615191,0,21.5111141204834,23.859169006347656,18.75919532775879,122.85372924804688,2.72405743598938,0.0,0.12516817450523376,98
1667374726.32067990,140715175,0,21.52596664428711,23.9243221282959,19.104751586914062,123.38435363769531,2.7354795932769775,0.0,0.12553708255290985,98
1667374726.42060590,140815101,0,21.6301326751709,24.02631950378418,19.095239639282227,123.9144515991211,2.74694561958313,0.0,0.1254860907793045,98
1667374726.52070999,140915205,0,21.6903133392334,24.044126510620117,18.742931365966797,124.43563842773438,2.7582504749298096,0.0,0.12558403611183167,98
1667374726.62060595,141015101,0,21.675939559936523,23.974210739135742,18.322799682617188,124.94414520263672,2.769272804260254,0.0,0.12543229758739471,98
1667374726.72058201,141115077,0,21.707658767700195,23.99851417541504,18.26940155029297,125.45154571533203,2.780287265777588,0.0,0.12539301812648773,98
1667374726.82067609,141215171,0,21.700695037841797,24.0018367767334,18.354341506958008,125.96190643310547,2.7913625240325928,0.0,0.12537313997745514,98
1667374726.92059588,141315091,0,21.697406768798828,23.969295501708984,18.138668060302734,126.46539306640625,2.8022868633270264,0.0,0.1252511739730835,98
1667374727.02061009,141415105,0,21.71896743774414,24.01007652282715,18.286588668823242,126.97347259521484,2.813321828842163,0.0,0.12528903782367706,98
1667374727.12064290,141515138,0,21.674501419067383,23.92892837524414,17.99381446838379,127.47350311279297,2.824159622192383,0.0,0.12528903782367706,98
1667374727.22055387,141615049,0,21.697690963745117,23.9749698638916,18.182859420776367,127.97817993164062,2.8351099491119385,0.0,0.1252431869506836,98
1667374727.32057905,141715074,0,21.684467315673828,23.948986053466797,18.08097267150879,128.48043823242188,2.846001148223877,0.0,0.1252431869506836,98
1667374727.42061591,141815111,0,21.73161506652832,24.023006439208984,18.274925231933594,128.98846435546875,2.857041358947754,0.0,0.1253844052553177,98
1667374727.52061200,141915107,0,21.72931480407715,24.030017852783203,18.349191665649414,129.49818420410156,2.868117094039917,0.0,0.1253844052553177,98
1667374727.62068391,142015179,0,21.671531677246094,23.949493408203125,18.167821884155273,130.0032501220703,2.8790626525878906,0.0,0.1253844052553177,98
1667374727.72065902,142115154,0,21.67790985107422,23.943899154663086,18.072343826293945,130.5051727294922,2.8899433612823486,0.0,0.1253844052553177,98
1667374727.82064795,142215143,0,21.693571090698242,23.98047637939453,18.23932456970215,131.01168823242188,2.9009313583374023,0.0,0.12538324296474457,98
1667374727.92060995,142315105,0,21.71110725402832,24.012327194213867,18.35348892211914,131.521484375,2.911999464035034,0.0,0.12538324296474457,98
1667374728.02072406,142415219,0,21.685138702392578,23.98813819885254,18.368833541870117,132.0323486328125,2.9230775833129883,0.0,0.12537537515163422,98
1667374728.12060499,142515100,0,21.642589569091797,23.921117782592773,18.17365074157715,132.53662109375,2.9339914321899414,0.0,0.12537537515163422,98
1667374728.22051311,142615008,0,21.683988571166992,23.99064064025879,18.406274795532227,133.04747009277344,2.945068836212158,0.0,0.1253187656402588,98
1667374728.32058406,142715079,0,21.67287254333496,23.98681640625,18.469799041748047,133.56092834472656,2.9561967849731445,0.0,0.12528258562088013,98
1667374728.42050409,142814999,0,21.66233253479004,23.987009048461914,18.560333251953125,134.0761260986328,2.9673571586608887,0.0,0.12524966895580292,98
1667374728.52060604,142915101,0,21.639331817626953,23.948352813720703,18.418550491333008,134.58831787109375,2.978440523147583,0.0,0.12536388635635376,98
1667374728.62052107,143015016,0,21.574411392211914,23.89149284362793,18.436859130859375,135.1000518798828,2.989480972290039,0.0,0.12567655742168427,98
1667374728.72053099,143115026,0,21.637895584106445,23.973876953125,18.591327667236328,135.6165771484375,3.000657320022583,0.0,0.12564893066883087,98
1667374728.82053304,143215028,0,21.62352180480957,24.01294708251953,19.04245376586914,136.1455841064453,3.012096405029297,0.0,0.1254788637161255,98
1667374728.92081904,143315314,0,21.69558334350586,24.0512752532959,18.77362060546875,136.66860961914062,3.0234436988830566,0.0,0.1254788637161255,98
1667374729.02065301,143415148,0,21.68312644958496,24.013866424560547,18.574756622314453,137.1837615966797,3.034613847732544,0.0,0.1254788637161255,98
1667374729.12058902,143515084,0,21.67795181274414,23.981443405151367,18.36177635192871,137.6935272216797,3.0456645488739014,0.0,0.12545034289360046,98
1667374729.22065210,143615147,0,21.669422149658203,23.956708908081055,18.24761199951172,138.2007598876953,3.0566561222076416,0.0,0.12534715235233307,98
1667374729.32059598,143715091,0,21.70948028564453,24.04981231689453,18.67081069946289,138.71914672851562,3.0679099559783936,0.0,0.12534715235233307,98
1667374729.42067790,143815173,0,21.718103408813477,24.036121368408203,18.471946716308594,139.23268127441406,3.0790629386901855,0.0,0.12548857927322388,98
1667374729.52070904,143915204,0,21.770116806030273,24.087814331054688,18.428335189819336,139.74481201171875,3.090212106704712,0.0,0.12576818466186523,98
1667374729.62065697,144015152,0,21.712833404541016,23.960296630859375,17.8980655670166,140.24169921875,3.1010007858276367,0.0,0.12557019293308258,98
1667374729.72053599,144115031,0,21.743497848510742,24.03850555419922,18.26203727722168,140.74847412109375,3.1120197772979736,0.0,0.12567098438739777,98
1667374729.82062507,144215120,0,21.72049903869629,24.028709411621094,18.360240936279297,141.2589874267578,3.123108148574829,0.0,0.125717893242836,98
1667374729.92067695,144315172,0,21.74263572692871,24.072566986083984,18.533018112182617,141.77410888671875,3.134308099746704,0.0,0.125717893242836,98
1667374730.02059102,144415086,0,21.71906280517578,24.016111373901367,18.276460647583008,142.28138732910156,3.1453256607055664,0.0,0.12568345665931702,98
1667374730.12055588,144515051,0,21.70286750793457,23.985607147216797,18.1626033782959,142.7857666015625,3.1562721729278564,0.0,0.12568345665931702,98
1667374730.22053409,144615029,0,21.688396453857422,23.983592987060547,18.261730194091797,143.29295349121094,3.1672723293304443,0.0,0.12568345665931702,98
1667374730.32054400,144715039,0,21.706314086914062,24.025405883789062,18.45905876159668,143.80580139160156,3.1784043312072754,0.0,0.1256343573331833,98
1667374730.42058992,144815085,0,21.74009132385254,24.043487548828125,18.319902420043945,144.31495666503906,3.1894733905792236,0.0,0.12573188543319702,98
1667374730.52067304,144915168,0,21.75480842590332,24.058635711669922,18.30500030517578,144.8238983154297,3.200545310974121,0.0,0.12585780024528503,98
1667374730.62061405,145015109,0,21.683988571166992,23.961706161499023,18.097543716430664,145.32635498046875,3.2114405632019043,0.0,0.12585780024528503,98
1667374730.72067904,145115174,0,21.706029891967773,23.995101928710938,18.187768936157227,145.83163452148438,3.2224082946777344,0.0,0.12585780024528503,98
1667374730.82067609,145215171,0,21.709768295288086,24.00571632385254,18.242395401000977,146.3385009765625,3.233412265777588,0.0,0.12585780024528503,98
1667374730.92061305,145315108,0,21.752120971679688,24.053831100463867,18.268478393554688,146.84571838378906,3.244445323944092,0.0,0.1259935051202774,98
1667374731.02079892,145415294,0,21.73247718811035,24.022750854492188,18.17702865600586,147.3517608642578,3.2554430961608887,0.0,0.12599825859069824,98
1667374731.12061000,145515105,0,21.694721221923828,23.972543716430664,18.078208923339844,147.85302734375,3.266317844390869,0.0,0.12599825859069824,98
1667374731.22062206,145615117,0,21.717815399169922,23.967714309692383,17.877811431884766,148.3497314453125,3.2771050930023193,0.0,0.125848650932312,98
1667374731.32058001,145715075,0,21.746479034423828,24.02993392944336,18.132017135620117,148.8531036376953,3.2880516052246094,0.0,0.12593494355678558,98
1667374731.42056990,145815065,0,21.767072677612305,24.02947998046875,17.95545196533203,149.3519744873047,3.298910617828369,0.0,0.12600113451480865,98
1667374731.52049994,145914995,0,21.74551010131836,24.013601303100586,18.000566482543945,149.85166931152344,3.309776782989502,0.0,0.12600106000900269,98
1667374731.62062287,146015118,0,21.75221824645996,24.01189422607422,17.934585571289062,150.3505096435547,3.3206276893615723,0.0,0.12599541246891022,98
1667374731.72051787,146115013,0,21.7331485748291,23.983814239501953,17.863080978393555,150.84620666503906,3.3314008712768555,0.0,0.12599541246891022,98
1667374731.82053208,146215027,0,21.77263069152832,24.0611515045166,18.163524627685547,151.3508758544922,3.342388868331909,0.0,0.12599541246891022,98
1667374731.92057610,146315071,0,21.828401565551758,24.106443405151367,18.08035659790039,151.85336303710938,3.3533575534820557,0.0,0.12599541246891022,98
1667374732.02061605,146415111,0,21.80961799621582,24.087738037109375,18.08097267150879,152.35585021972656,3.364316701889038,0.0,0.12599541246891022,98
1667374732.12059903,146515094,0,21.76228141784668,24.015344619750977,17.88210678100586,152.85252380371094,3.3751254081726074,0.0,0.12599541246891022,98
1667374732.22058892,146615084,0,21.744882583618164,23.992399215698242,17.83808708190918,153.3480224609375,3.3859000205993652,0.0,0.12599541246891022,98
1667374732.32064390,146715139,0,21.752412796020508,24.024019241333008,18.026344299316406,153.84896850585938,3.396796941757202,0.0,0.12601594626903534,98
1667374732.42067599,146815171,0,21.742155075073242,24.00923728942871,17.99043846130371,154.3489990234375,3.4076688289642334,0.0,0.12601594626903534,98
1667374732.52071691,146915212,0,21.737363815307617,24.032196044921875,18.214160919189453,154.85519409179688,3.4186723232269287,0.0,0.12599167227745056,98
1667374732.62063289,147015128,0,21.678239822387695,23.956520080566406,18.045679092407227,155.35595703125,3.429527997970581,0.0,0.126250758767128,98
1667374732.72058392,147115079,0,21.704113006591797,23.997966766357422,18.158000946044922,155.8601837158203,3.440471649169922,0.0,0.12632744014263153,98
1667374732.82066202,147215157,0,21.70430564880371,24.020442962646484,18.336610794067383,156.37005615234375,3.4515380859375,0.0,0.1263122260570526,98
1667374732.92055392,147315049,0,21.720115661621094,24.036935806274414,18.352872848510742,156.8793487548828,3.462599992752075,0.0,0.12623746693134308,98
1667374733.02058792,147415083,0,21.671817779541016,23.947534561157227,18.027267456054688,157.38031005859375,3.473456859588623,0.0,0.12623746693134308,98
1667374733.12063503,147515130,0,21.65448570251465,23.936279296875,18.07541275024414,157.88267517089844,3.484335422515869,0.0,0.12623746693134308,98
1667374733.22058606,147615081,0,21.639522552490234,23.9439697265625,18.227357864379883,158.38870239257812,3.4952855110168457,0.0,0.12642797827720642,98
1667374733.32051992,147715015,0,21.630708694458008,23.94581413269043,18.288122177124023,158.89649963378906,3.5062694549560547,0.0,0.12659060955047607,98
1667374733.42066097,147815156,0,21.606752395629883,23.928844451904297,18.31328582763672,159.4059600830078,3.517277240753174,0.0,0.12679827213287354,98
1667374733.52065897,147915154,0,21.613651275634766,23.941099166870117,18.33538246154785,159.91531372070312,3.5282859802246094,0.0,0.12693750858306885,98
1667374733.62053895,148015034,0,21.550020217895508,23.840421676635742,18.04353141784668,160.4159698486328,3.5390751361846924,0.0,0.12693750858306885,98
1667374733.72067094,148115166,0,21.56180763244629,23.88810920715332,18.292112350463867,160.92478942871094,3.550046443939209,0.0,0.12717512249946594,98
1667374733.82059002,148215085,0,21.56487274169922,23.90671157836914,18.393692016601562,161.4353485107422,3.561056613922119,0.0,0.12731750309467316,98
1667374733.92061901,148315114,0,21.60678482055664,23.946483612060547,18.379915237426758,161.9460906982422,3.572092056274414,0.0,0.12729650735855103,98
1667374734.02065897,148415154,0,21.581451416015625,23.93378257751465,18.475017547607422,162.45933532714844,3.5831687450408936,0.0,0.12732498347759247,98
1667374734.12060809,148515103,0,21.560754776000977,23.889991760253906,18.293643951416016,162.96746826171875,3.5941245555877686,0.0,0.12732498347759247,98
1667374734.22060609,148615101,0,21.597455978393555,23.98373794555664,18.76993751525879,163.48886108398438,3.6053853034973145,0.0,0.12713323533535004,98
1667374734.32072496,148715220,0,21.590078353881836,23.916276931762695,18.29732894897461,163.99778747558594,3.616373062133789,0.0,0.12713323533535004,98
1667374734.42060089,148815096,0,21.591995239257812,23.97154426574707,18.737407684326172,164.51766967773438,3.627598285675049,0.0,0.12699458003044128,98
1667374734.52054906,148915044,0,21.53650665283203,23.9208984375,18.765947341918945,165.03871154785156,3.638819932937622,0.0,0.1270594596862793,98
1667374734.62058401,149015079,0,21.52960968017578,23.88680648803711,18.525039672851562,165.5535125732422,3.6499035358428955,0.0,0.12724383175373077,98
1667374734.72058392,149115079,0,21.596210479736328,23.920568466186523,18.2718563079834,166.06109619140625,3.660865545272827,0.0,0.12720973789691925,98
1667374734.82059288,149215088,0,21.636062622070312,23.980072021484375,18.402080535888672,166.57212829589844,3.671922206878662,0.0,0.1273774355649948,98
1667374734.92049503,149314990,0,21.614896774291992,23.981918334960938,18.582735061645508,167.0880889892578,3.683074712753296,0.0,0.1273774355649948,98
1667374735.02058697,149415082,0,21.63310432434082,24.00020408630371,18.583349227905273,167.6048126220703,3.6942529678344727,0.0,0.1273774355649948,98
1667374735.12058997,149515085,0,21.564777374267578,23.884538650512695,18.211706161499023,168.11074829101562,3.7051634788513184,0.0,0.1273774355649948,97
1667374735.22077394,149615269,0,21.50814437866211,23.818523406982422,18.138051986694336,168.6155548095703,3.7160208225250244,0.0,0.1273774355649948,97
1667374735.32065988,149715155,0,21.525009155273438,23.923795700073242,18.832542419433594,169.13812255859375,3.727269172668457,0.0,0.1273745596408844,97
1667374735.42061901,149815114,0,21.513893127441406,23.92121696472168,18.898523330688477,169.6629180908203,3.7385594844818115,0.0,0.1273815929889679,97
1667374735.52067089,149915166,0,21.546188354492188,23.91028594970703,18.552350997924805,170.17857360839844,3.7496697902679443,0.0,0.12742845714092255,97
1667374735.62061405,150015109,0,21.56199836730957,23.927074432373047,18.56002426147461,170.69387817382812,3.7607808113098145,0.0,0.12742845714092255,97
1667374735.72069287,150115188,0,21.4299259185791,23.712173461914062,17.9100341796875,171.1918182373047,3.771451473236084,0.0,0.12742845714092255,97
1667374735.82061791,150215113,0,21.484283447265625,23.810487747192383,18.254976272583008,171.6985626220703,3.7823383808135986,0.0,0.12742845714092255,97
1667374735.92059088,150315086,0,21.535932540893555,23.909454345703125,18.626312255859375,172.21580505371094,3.7934775352478027,0.0,0.12742845714092255,97
1667374736.02063298,150415128,0,21.48590850830078,23.81711769104004,18.294260025024414,172.72425842285156,3.8044021129608154,0.0,0.12742845714092255,97
1667374736.12063003,150515125,0,21.463773727416992,23.79146385192871,18.266639709472656,173.23171997070312,3.8152942657470703,0.0,0.12742845714092255,97
1667374736.22061992,150615115,0,21.466840744018555,23.848413467407227,18.684926986694336,173.75070190429688,3.826435089111328,0.0,0.1274595856666565,97
1667374736.32052803,150715023,0,21.502105712890625,23.871417999267578,18.597158432006836,174.2668914794922,3.837534189224243,0.0,0.12740179896354675,97
1667374736.42056108,150815056,0,21.50766372680664,23.881196975708008,18.63030242919922,174.78460693359375,3.8486690521240234,0.0,0.12740179896354675,97
1667374736.52052999,150915025,0,21.52223014831543,23.9310302734375,18.907115936279297,175.30967712402344,3.8599698543548584,0.0,0.12740179896354675,97
1667374736.62057400,151015069,0,21.366146087646484,23.69809341430664,18.303876876831055,175.81838989257812,3.8708388805389404,0.0,0.12740179896354675,97
1667374736.72061396,151115109,0,21.454191207885742,23.851076126098633,18.817506790161133,176.3413543701172,3.882058620452881,0.0,0.12737523019313812,97
1667374736.82060790,151215103,0,21.435697555541992,23.852258682250977,18.976165771484375,176.86846923828125,3.893357753753662,0.0,0.1273471564054489,97
1667374736.92061806,151315113,0,21.445568084716797,23.893692016601562,19.25113868713379,177.4033203125,3.9048280715942383,0.0,0.12716777622699738,97
1667374737.02069902,151415194,0,21.406850814819336,23.860628128051758,19.30116081237793,177.93994140625,3.9163153171539307,0.0,0.12713107466697693,97
1667374737.12067294,151515168,0,21.318883895874023,23.792377471923828,19.422382354736328,178.4790802001953,3.927809238433838,0.0,0.1273527443408966,97
1667374737.22058702,151615082,0,21.266845703125,23.79014778137207,19.78144073486328,179.02841186523438,3.9394917488098145,0.0,0.12755903601646423,97
1667374737.32079601,151715291,0,21.29473304748535,23.843929290771484,19.987056732177734,179.58480834960938,3.9513399600982666,0.0,0.12754234671592712,97
