timestamp,TimeUS,Instance,Volt,VoltR,Curr,CurrTot,EnrgTot,Temp,Res,RemPct
1668151555.47949409,248624282,0,24.771743774414062,24.838598251342773,0.45174041390419006,33.14712142944336,0.8225793242454529,0.0,0.14799411594867706,99
1668151555.57978129,248724569,0,24.750120162963867,24.81093406677246,0.41092416644096375,33.158565521240234,0.8228625655174255,0.0,0.14799411594867706,99
1668151555.67979932,248824587,0,24.733060836791992,24.788333892822266,0.3734837472438812,33.1689453125,0.8231192827224731,0.0,0.14799411594867706,99
1668151555.77971625,248924504,0,24.707571029663086,24.75530433654785,0.32254019379615784,33.17789840698242,0.8233404755592346,0.0,0.14799411594867706,99
1668151555.87961626,249024404,0,24.740726470947266,24.800086975097656,0.40110376477241516,33.189029693603516,0.8236158490180969,0.0,0.14799411594867706,99
1668151555.97966623,249124454,0,24.777620315551758,24.84824562072754,0.47721216082572937,33.202293395996094,0.8239445090293884,0.0,0.14799411594867706,99
1668151556.07960010,249224388,0,24.77704620361328,24.847761154174805,0.47782596945762634,33.21555709838867,0.8242731690406799,0.0,0.14799411594867706,99
1668151556.17963028,249324418,0,24.775224685668945,24.845577239990234,0.475370854139328,33.22876739501953,0.8246004581451416,0.0,0.14799411594867706,99
1668151556.27948618,249424274,0,24.76486587524414,24.832134246826172,0.4545365273952484,33.24137496948242,0.8249127268791199,0.0,0.14799411594867706,99
1668151556.37969518,249524483,0,24.728748321533203,24.783248901367188,0.36826664209365845,33.251625061035156,0.8251662254333496,0.0,0.14799411594867706,99
1668151556.47959423,249624382,0,24.716291427612305,24.766204833984375,0.3372708857059479,33.260986328125,0.8253975510597229,0.0,0.14799411594867706,99
1668151556.57959819,249724386,0,24.765356063842773,24.83302879333496,0.45726439356803894,33.27368927001953,0.8257121443748474,0.0,0.14799411594867706,99
1668151556.67951131,249824299,0,24.758453369140625,24.823400497436523,0.43885108828544617,33.28586959838867,0.8260137438774109,0.0,0.14799411594867706,99
1668151556.77967811,249924466,0,24.713224411010742,24.763320922851562,0.33849841356277466,33.2952880859375,0.8262465000152588,0.0,0.14799411594867706,99
1668151556.87946820,250024256,0,24.777238845825195,24.848590850830078,0.48212242126464844,33.30865478515625,0.8265776634216309,0.0,0.14799411594867706,99
1668151556.97969532,250124483,0,24.737085342407227,24.794584274291992,0.38852131366729736,33.3194694519043,0.8268451690673828,0.0,0.14799411594867706,99
1668151557.07961917,250224407,0,24.776151657104492,24.84786033630371,0.48454341292381287,33.332923889160156,0.8271785378456116,0.0,0.14799411594867706,99
1668151557.17960811,250324396,0,24.73133659362793,24.78742790222168,0.3790077567100525,33.34345245361328,0.8274388909339905,0.0,0.14799411594867706,99
1668151557.27952218,250424310,0,24.740345001220703,24.80020523071289,0.4044795334339142,33.354679107666016,0.8277166485786438,0.0,0.14799411594867706,99
1668151557.37959623,250524384,0,24.750024795532227,24.8118839263916,0.41798263788223267,33.36629867553711,0.8280042409896851,0.0,0.14799411594867706,99
1668151557.47963524,250624423,0,24.74896812438965,24.811100006103516,0.4198239743709564,33.377967834472656,0.828292965888977,0.0,0.14799411594867706,99
1668151557.57967424,250724462,0,24.773693084716797,24.8447265625,0.4799741804599762,33.39130783081055,0.8286234140396118,0.0,0.14799411594867706,99
1668151557.67964816,250824436,0,24.769668579101562,24.838930130004883,0.46800553798675537,33.40430450439453,0.8289453387260437,0.0,0.14799411594867706,99
1668151557.77977729,250924565,0,24.667802810668945,24.811241149902344,0.9657793045043945,33.43116760253906,0.8296080231666565,0.0,0.14852085709571838,99
1668151557.87950826,251024296,0,24.484962463378906,24.87788963317871,2.689880847930908,33.50569152832031,0.8314327597618103,0.0,0.14607572555541992,99
1668151557.97956610,251124354,0,24.658710479736328,24.900571823120117,1.6892527341842651,33.55264663696289,0.8325905799865723,0.0,0.14317691326141357,99
1668151558.07958221,251224370,0,24.687734603881836,24.885961532592773,1.4030959606170654,33.59162902832031,0.8335530161857605,0.0,0.14127768576145172,99
1668151558.17964315,251324431,0,24.65266227722168,24.883548736572266,1.6525964736938477,33.63756561279297,0.8346855044364929,0.0,0.13971108198165894,99
1668151558.27950430,251424292,0,24.610496520996094,24.815275192260742,1.4518911838531494,33.67784118652344,0.8356767296791077,0.0,0.14104324579238892,99
1668151558.37963223,251524420,0,24.647199630737305,24.854534149169922,1.4739872217178345,33.718841552734375,0.8366872668266296,0.0,0.14066173136234283,99
1668151558.47948432,251624272,0,24.664926528930664,24.873859405517578,1.4970039129257202,33.76036834716797,0.83771151304245,0.0,0.13956739008426666,99
1668151558.57961631,251724404,0,24.677959442138672,24.886764526367188,1.4960832595825195,33.80198669433594,0.8387385010719299,0.0,0.13956739008426666,99
1668151558.67959929,251824387,0,24.63589096069336,24.8309268951416,1.3877514600753784,33.84053039550781,0.8396881222724915,0.0,0.14054028689861298,99
1668151558.77966619,251924454,0,24.618141174316406,24.80661964416504,1.3411043882369995,33.877811431884766,0.8406059145927429,0.0,0.14054028689861298,99
1668151558.87964725,252024435,0,24.642501831054688,24.840829849243164,1.4095405340194702,33.916961669921875,0.8415706753730774,0.0,0.1407044231891632,99
1668151558.97964120,252124429,0,24.672208786010742,24.879863739013672,1.4758285284042358,33.95795822143555,0.842582106590271,0.0,0.1407044231891632,99
1668151559.07952809,252224316,0,24.678438186645508,24.88821029663086,1.4908660650253296,33.99932861328125,0.8436030745506287,0.0,0.1407044231891632,99
1668151559.17968416,252324472,0,24.682655334472656,24.892902374267578,1.4942418336868286,34.0409049987793,0.8446292281150818,0.0,0.1407044231891632,99
1668151559.27959323,252424381,0,24.61691665649414,24.805875778198242,1.3429456949234009,34.07817840576172,0.8455467820167542,0.0,0.1407044231891632,99
1668151559.37960625,252524394,0,24.610689163208008,24.799734115600586,1.3435595035552979,34.11550521850586,0.8464654684066772,0.0,0.1407044231891632,99
1668151559.47957420,252624362,0,24.67125129699707,24.878950119018555,1.4761353731155396,34.156497955322266,0.8474768400192261,0.0,0.1407044231891632,99
1668151559.57957125,252724359,0,24.664352416992188,24.86954689025879,1.4583359956741333,34.1970100402832,0.848475992679596,0.0,0.1407044231891632,99
1668151559.67949629,252824284,0,24.659133911132812,24.862226486206055,1.4434006214141846,34.23707962036133,0.8494640588760376,0.0,0.1407044231891632,99
1668151559.77962518,252924413,0,24.65208625793457,24.853551864624023,1.4313297271728516,34.276893615722656,0.8504455089569092,0.0,0.14075443148612976,99
1668151559.87966514,253024453,0,24.60359764099121,24.790679931640625,1.3291356563568115,34.31382751464844,0.85135418176651,0.0,0.14075443148612976,99
1668151559.97955227,253124340,0,24.662914276123047,24.86731719970703,1.4521981477737427,34.354129791259766,0.8523481488227844,0.0,0.14075443148612976,99
1668151560.07950020,253224288,0,24.67326545715332,24.88237762451172,1.4856491088867188,34.395381927490234,0.853365957736969,0.0,0.14075443148612976,99
1668151560.17951131,253324299,0,24.618738174438477,24.80897331237793,1.3515385389328003,34.43292999267578,0.8542903661727905,0.0,0.14075443148612976,99
1668151560.27957225,253424360,0,24.6132755279541,24.80160903930664,1.3380354642868042,34.470123291015625,0.8552058339118958,0.0,0.14075443148612976,99
1668151560.37962818,253524416,0,24.656112670898438,24.85930633544922,1.4436051845550537,34.510250091552734,0.8561951518058777,0.0,0.14075443148612976,99
1668151560.47953129,253624319,0,24.657453536987305,24.86185646057129,1.4521981477737427,34.55055236816406,0.8571889400482178,0.0,0.14075443148612976,99
1668151560.57959414,253724382,0,24.675745010375977,24.885005950927734,1.4867061376571655,34.59187698364258,0.8582087159156799,0.0,0.14075443148612976,99
1668151560.67967415,253824462,0,24.665119171142578,24.871768951416016,1.468156337738037,34.632694244384766,0.859215497970581,0.0,0.14075443148612976,99
1668151560.77967525,253924463,0,24.667322158813477,24.8747501373291,1.4736803770065308,34.67363357543945,0.8602253198623657,0.0,0.14075443148612976,99
1668151560.87948823,254024276,0,24.618642807006836,24.809526443481445,1.3561419248580933,34.71123504638672,0.8611510396003723,0.0,0.14075443148612976,99
1668151560.97965312,254124441,0,24.612125396728516,24.801021575927734,1.3420250415802002,34.74857711791992,0.8620701432228088,0.0,0.14075443148612976,99
1668151561.07965016,254224438,0,24.6680908203125,24.875993728637695,1.4770560264587402,34.789608001708984,0.8630822896957397,0.0,0.14075443148612976,99
1668151561.17953920,254324327,0,24.6511287689209,24.852638244628906,1.4316365718841553,34.8293342590332,0.8640615940093994,0.0,0.14075443148612976,99
1668151561.27961111,254424399,0,24.604171752929688,24.79159927368164,1.3315907716751099,34.86635208129883,0.8649724125862122,0.0,0.14075443148612976,99
1668151561.37959909,254524387,0,24.651512145996094,24.85418701171875,1.439922571182251,34.906349182128906,0.8659583926200867,0.0,0.14075443148612976,99
1668151561.47962117,254624409,0,24.647741317749023,24.84951400756836,1.4335119724273682,34.94618225097656,0.8669401407241821,0.0,0.14075443148612976,99
1668151561.57965732,254724445,0,24.664161682128906,24.870941162109375,1.4690769910812378,34.98698806762695,0.8679465651512146,0.0,0.14075443148612976,99
1668151561.67950320,254824291,0,24.658794403076172,24.862895965576172,1.450049877166748,35.02722930908203,0.8689388632774353,0.0,0.14075443148612976,99
1668151561.77949524,254924283,0,24.625158309936523,24.820274353027344,1.3862169981002808,35.06573486328125,0.8698870539665222,0.0,0.14075443148612976,99
1668151561.87956023,255024348,0,24.60791015625,24.796072006225586,1.3368079662322998,35.10289764404297,0.8708015084266663,0.0,0.14075443148612976,99
1668151561.97973919,255124527,0,24.650362014770508,24.853511810302734,1.44329833984375,35.143062591552734,0.8717916011810303,0.0,0.14075443148612976,99
1668151562.07956624,255224354,0,24.66895294189453,24.87810707092285,1.4859559535980225,35.18427276611328,0.8728081583976746,0.0,0.14075443148612976,99
1668151562.17976928,255324557,0,24.659273147583008,24.865144729614258,1.462632417678833,35.2249870300293,0.8738121390342712,0.0,0.14075443148612976,99
1668151562.27958918,255424377,0,24.60430145263672,24.793115615844727,1.3414453268051147,35.262184143066406,0.8747273683547974,0.0,0.14075443148612976,99
1668151562.37959623,255524384,0,24.623050689697266,24.818340301513672,1.3874446153640747,35.30072784423828,0.8756764531135559,0.0,0.14075443148612976,99
1668151562.47961831,255624406,0,24.655057907104492,24.859590530395508,1.4531186819076538,35.34110641479492,0.8766719698905945,0.0,0.14075443148612976,99
1668151562.57964730,255724435,0,24.664735794067383,24.87281036376953,1.4782836437225342,35.38218688964844,0.8776851892471313,0.0,0.14075443148612976,99
1668151562.67953920,255824327,0,24.645854949951172,24.846954345703125,1.4282608032226562,35.42182159423828,0.8786619901657104,0.0,0.14080040156841278,99
1668151562.77965617,255924444,0,24.606855392456055,24.795726776123047,1.3414113521575928,35.4591178894043,0.8795797228813171,0.0,0.14080040156841278,99
1668151562.87972927,256024517,0,24.64748764038086,24.8499698638916,1.4380812644958496,35.49911117553711,0.8805654644966125,0.0,0.14080040156841278,99
1668151562.97961831,256124406,0,24.645376205444336,24.847557067871094,1.435932993888855,35.53895568847656,0.8815475106239319,0.0,0.14080040156841278,99
1668151563.07952619,256224314,0,24.661956787109375,24.868932723999023,1.4699976444244385,35.57975387573242,0.8825536966323853,0.0,0.14080040156841278,99
1668151563.17957425,256324362,0,24.61558723449707,24.807392120361328,1.3622455596923828,35.61761474609375,0.8834856748580933,0.0,0.14080040156841278,99
1668151563.27959919,256424387,0,24.604843139648438,24.793800354003906,1.3420250415802002,35.6549072265625,0.8844032287597656,0.0,0.14080040156841278,99
1668151563.37965512,256524443,0,24.63445281982422,24.833478927612305,1.4135301113128662,35.69419860839844,0.8853711485862732,0.0,0.14080040156841278,99
1668151563.47955322,256624341,0,24.65266227722168,24.85687255859375,1.4503567218780518,35.73444747924805,0.8863633871078491,0.0,0.14080040156841278,99
1668151563.57972312,256724511,0,24.649211883544922,24.852558135986328,1.4442189931869507,35.774635314941406,0.8873540163040161,0.0,0.14080040156841278,99
1668151563.67963409,256824422,0,24.650362014770508,24.85344886779785,1.4423776865005493,35.81467056274414,0.8883408308029175,0.0,0.14080040156841278,99
1668151563.77965617,256924444,0,24.59468650817871,24.779279708862305,1.311029314994812,35.851097106933594,0.8892367482185364,0.0,0.14080040156841278,99
1668151563.87967825,257024466,0,24.591812133789062,24.77796173095703,1.3220771551132202,35.88783264160156,0.8901401162147522,0.0,0.14080040156841278,99
1668151563.97974825,257124536,0,24.665203094482422,24.87458038330078,1.4870470762252808,35.92917251586914,0.8911597728729248,0.0,0.14080040156841278,99
1668151564.07975531,257224543,0,24.654579162597656,24.86116600036621,1.4672356843948364,35.96993637084961,0.8921647667884827,0.0,0.14080040156841278,99
1668151564.17965221,257324440,0,24.637903213500977,24.838138580322266,1.4221229553222656,36.0093994140625,0.8931370377540588,0.0,0.14080040156841278,99
1668151564.27957129,257424359,0,24.598134994506836,24.785320281982422,1.3294426202774048,36.046302795410156,0.894044816493988,0.0,0.14080040156841278,99
1668151564.37963033,257524418,0,24.63608169555664,24.837440490722656,1.4301021099090576,36.086055755615234,0.8950241208076477,0.0,0.14080040156841278,99
1668151564.47958326,257624371,0,24.64748764038086,24.851526260375977,1.4491292238235474,36.12629318237305,0.8960158824920654,0.0,0.14080040156841278,99
1668151564.57961631,257724404,0,24.659273147583008,24.86733055114746,1.4776698350906372,36.1673583984375,0.8970285058021545,0.0,0.14080040156841278,99
1668151564.67959118,257824379,0,24.621898651123047,24.818115234375,1.3935823440551758,36.20606231689453,0.8979814648628235,0.0,0.14080040156841278,99
1668151564.77969432,257924482,0,24.617717742919922,24.811683654785156,1.3775899410247803,36.24436950683594,0.8989245295524597,0.0,0.14080040156841278,99
1668151564.87965226,258024440,0,24.623624801635742,24.81954002380371,1.3914340734481812,36.28300857543945,0.8998759388923645,0.0,0.14080040156841278,99
1668151564.97958517,258124373,0,24.647104263305664,24.851184844970703,1.449436068534851,36.323246002197266,0.9008677005767822,0.0,0.14080040156841278,99
1668151565.07950616,258224294,0,24.662626266479492,24.87189292907715,1.4862627983093262,36.364501953125,0.9018851518630981,0.0,0.14080040156841278,99
1668151565.17962718,258324415,0,24.657739639282227,24.86557960510254,1.4761353731155396,36.40555953979492,0.9028975367546082,0.0,0.14080040156841278,99
1668151565.27958727,258424375,0,24.585582733154297,24.769657135009766,1.3073465824127197,36.441864013671875,0.9037900567054749,0.0,0.14080040156841278,99
1668151565.37957120,258524359,0,24.688308715820312,24.757949829101562,0.5042183995246887,36.455867767333984,0.9041358232498169,0.0,0.13811621069908142,99
1668151565.47958326,258624371,0,24.76075553894043,24.831748962402344,0.5118906497955322,36.470088958740234,0.9044879674911499,0.0,0.13868775963783264,99
1668151565.57962513,258724413,0,24.741228103637695,24.80650520324707,0.47226786613464355,36.48321533203125,0.9048126935958862,0.0,0.13822048902511597,99
1668151565.67952323,258824311,0,24.756635665893555,24.825340270996094,0.4959324300289154,36.496978759765625,0.9051533937454224,0.0,0.13853509724140167,99
1668151565.77968311,258924471,0,24.693866729736328,24.7421875,0.35599106550216675,36.50688552856445,0.9053980112075806,0.0,0.13573779165744781,99
1668151565.87945032,259024238,0,24.752225875854492,24.817920684814453,0.48212242126464844,36.52024841308594,0.9057287573814392,0.0,0.13626320660114288,99
1668151565.97959924,259124387,0,24.74321937561035,24.806705474853516,0.46585729718208313,36.53321075439453,0.9060494303703308,0.0,0.1362779289484024,99
1668151566.07961512,259224403,0,24.773597717285156,24.847549438476562,0.5367486476898193,36.54812240600586,0.9064188599586487,0.0,0.13777855038642883,99
1668151566.17970228,259324490,0,24.707763671875,24.76015281677246,0.38023531436920166,36.558692932128906,0.9066800475120544,0.0,0.13777855038642883,99
1668151566.27956510,259424353,0,24.71954917907715,24.77538299560547,0.4084691107273102,36.57002639770508,0.9069601893424988,0.0,0.13668827712535858,99
1668151566.37960410,259524392,0,24.74915885925293,24.813879013061523,0.4716881811618805,36.583133697509766,0.9072846174240112,0.0,0.1372096985578537,99
1668151566.47973919,259624527,0,24.767526626586914,24.837467193603516,0.5050026774406433,36.59718322753906,0.9076325297355652,0.0,0.1384948194026947,99
1668151566.57966828,259724456,0,24.748870849609375,24.8143367767334,0.471995085477829,36.610286712646484,0.9079567790031433,0.0,0.13869912922382355,99
1668151566.67966127,259824449,0,24.78423309326172,24.861459732055664,0.5493310689926147,36.625545501708984,0.9083349704742432,0.0,0.14058217406272888,99
1668151566.77960825,259924396,0,24.69635772705078,24.746274948120117,0.35507041215896606,36.63540267944336,0.9085784554481506,0.0,0.14058217406272888,99
1668151566.87953830,260024326,0,24.747051239013672,24.813032150268555,0.46861928701400757,36.64841079711914,0.9089003801345825,0.0,0.1407991647720337,99
1668151566.97959733,260124385,0,24.742259979248047,24.806045532226562,0.45327484607696533,36.6610107421875,0.9092121124267578,0.0,0.1407211422920227,99
1668151567.07957411,260224362,0,24.77771759033203,24.852991104125977,0.5349072813987732,36.675865173339844,0.9095802307128906,0.0,0.1407211422920227,99
1668151567.17961121,260324399,0,24.73507308959961,24.796741485595703,0.4382373094558716,36.688045501708984,0.9098814725875854,0.0,0.1407211422920227,99
1668151567.27952814,260424316,0,24.722232818603516,24.778202056884766,0.39772799611091614,36.6990852355957,0.910154402256012,0.0,0.1407211422920227,99
1668151567.37960625,260524394,0,24.736860275268555,24.799911499023438,0.44805774092674255,36.71154022216797,0.9104625582695007,0.0,0.1407211422920227,99
1668151567.47952318,260624311,0,24.769189834594727,24.841611862182617,0.5146526098251343,36.725826263427734,0.9108163714408875,0.0,0.1407211422920227,99
1668151567.57965231,260724440,0,24.7576904296875,24.82596778869629,0.48519134521484375,36.739322662353516,0.9111505150794983,0.0,0.1407211422920227,99
1668151567.67954731,260824335,0,24.739673614501953,24.80194664001465,0.4425337314605713,36.75160217285156,0.9114543199539185,0.0,0.1407211422920227,99
1668151567.77960229,260924390,0,24.698081970214844,24.748435974121094,0.3578324317932129,36.76154708862305,0.9116999506950378,0.0,0.1407211422920227,99
1668151567.87956023,261024348,0,24.760181427001953,24.828458786010742,0.48519134521484375,36.775020599365234,0.9120335578918457,0.0,0.1407211422920227,99
1668151567.97958612,261124374,0,24.758073806762695,24.82583236694336,0.48150861263275146,36.78839874267578,0.9123648405075073,0.0,0.1407211422920227,99
1668151568.07967019,261224458,0,24.78145408630371,24.857763290405273,0.5422726273536682,36.80347442626953,0.9127384424209595,0.0,0.1407211422920227,99
1668151568.17970419,261324492,0,24.76092529296875,24.829830169677734,0.4896582365036011,36.817081451416016,0.9130753874778748,0.0,0.1407211422920227,99
1668151568.27986932,261424657,0,24.717058181762695,24.772249221801758,0.3922039568424225,36.82799530029297,0.9133451581001282,0.0,0.1407211422920227,99
1668151568.37967229,261524460,0,24.734594345092773,24.79522705078125,0.43087196350097656,36.839942932128906,0.9136406183242798,0.0,0.1407211422920227,99
1668151568.47962427,261624412,0,24.76813507080078,24.83783721923828,0.49531862139701843,36.853694915771484,0.9139812588691711,0.0,0.1407211422920227,99
1668151568.57970428,261724492,0,24.761810302734375,24.830217361450195,0.48611193895339966,36.867210388183594,0.914315938949585,0.0,0.1407211422920227,99
1668151568.67961621,261824404,0,24.764684677124023,24.833003997802734,0.48549818992614746,36.88068389892578,0.9146496653556824,0.0,0.1407211422920227,99
1668151568.77963829,261924426,0,24.698848724365234,24.747173309326172,0.34340864419937134,36.89022445678711,0.9148853421211243,0.0,0.1407211422920227,99
1668151568.87951612,262024304,0,24.722806930541992,24.778430938720703,0.3952728807926178,36.90119171142578,0.9151564836502075,0.0,0.1407211422920227,99
1668151568.97969818,262124486,0,24.766889572143555,24.83745574951172,0.5014563798904419,36.91514587402344,0.91550213098526,0.0,0.1407211422920227,99
1668151569.07958817,262224376,0,24.78860855102539,24.86466407775879,0.5404654145240784,36.930145263671875,0.9158738851547241,0.0,0.1407211422920227,99
1668151569.17960525,262324393,0,24.71245765686035,24.76337432861328,0.3618219792842865,36.9401969909668,0.916122317314148,0.0,0.1407211422920227,99
1668151569.27947521,262424263,0,24.732582092285156,24.789976119995117,0.4078553020954132,36.95151138305664,0.9164021611213684,0.0,0.1407211422920227,99
1668151569.37968826,262524476,0,24.733539581298828,24.7929630279541,0.42227908968925476,36.9632682800293,0.9166929125785828,0.0,0.1407211422920227,99
1668151569.47954011,262624328,0,24.76947593688965,24.839998245239258,0.5011495351791382,36.977169036865234,0.9170372486114502,0.0,0.1407211422920227,99
1668151569.57955813,262724346,0,24.74896812438965,24.812623977661133,0.45235419273376465,36.98973846435547,0.917348325252533,0.0,0.1407211422920227,99
1668151569.67962933,262824417,0,24.781551361083984,24.855527877807617,0.5257006287574768,37.00435256958008,0.9177104830741882,0.0,0.1407211422920227,99
1668151569.77961516,262924403,0,24.690608978271484,24.735565185546875,0.3194712996482849,37.01322555541992,0.9179295897483826,0.0,0.1407211422920227,99
1668151569.87957931,263024367,0,24.751235961914062,24.816591262817383,0.46442511677742004,37.026123046875,0.9182488322257996,0.0,0.1407211422920227,99
1668151569.97955823,263124346,0,24.739864349365234,24.800928115844727,0.4339408278465271,37.03817367553711,0.9185470342636108,0.0,0.1407211422920227,99
1668151570.07962823,263224416,0,24.777141571044922,24.84990882873535,0.5171077251434326,37.052547454833984,0.9189032316207886,0.0,0.1407211422920227,99
1668151570.17959213,263324380,0,24.738330841064453,24.79827308654785,0.42596176266670227,37.06437683105469,0.919195830821991,0.0,0.1407211422920227,99
1668151570.27961016,263424398,0,24.713512420654297,24.766284942626953,0.3750181794166565,37.074798583984375,0.9194533228874207,0.0,0.1407211422920227,99
1668151570.37976718,263524555,0,24.74235725402832,24.803897857666016,0.4373166561126709,37.08696746826172,0.9197543859481812,0.0,0.1407211422920227,99
1668151570.47948527,263624273,0,24.776662826538086,24.849172592163086,0.5152663588523865,37.10124206542969,0.9201080203056335,0.0,0.1407211422920227,99
1668151570.57958221,263724370,0,24.7576904296875,24.82411003112793,0.471995085477829,37.1143684387207,0.920432984828949,0.0,0.1407211422920227,99
1668151570.67949820,263824286,0,24.73888397216797,24.799104690551758,0.4279394745826721,37.12624740600586,0.9207268357276917,0.0,0.1407211422920227,99
1668151570.77950025,263924288,0,24.718400955200195,24.772037506103516,0.38115596771240234,37.136837005615234,0.9209885597229004,0.0,0.1407211422920227,99
1668151570.87946916,264024257,0,24.759990692138672,24.8264102935791,0.471995085477829,37.14994430541992,0.9213131070137024,0.0,0.1407211422920227,99
1668151570.97952223,264124310,0,24.747150421142578,24.811195373535156,0.4551162123680115,37.162593841552734,0.9216261506080627,0.0,0.1407211422920227,99
1668151571.07955313,264224341,0,24.780689239501953,24.854148864746094,0.5220180153846741,37.177101135253906,0.9219856262207031,0.0,0.1407211422920227,99
1668151571.17961216,264324400,0,24.762481689453125,24.82989501953125,0.4790535271167755,37.1904182434082,0.9223153591156006,0.0,0.1407211422920227,99
1668151571.27948332,264424271,0,24.714853286743164,24.767366409301758,0.3731768727302551,37.20077133178711,0.9225712418556213,0.0,0.1407211422920227,99
1668151571.37957430,264524362,0,24.738330841064453,24.798662185668945,0.4287237226963043,37.21269226074219,0.9228661060333252,0.0,0.1407211422920227,99
1668151571.47963119,264624419,0,24.77091407775879,24.842084884643555,0.5057528614997864,37.226749420166016,0.923214316368103,0.0,0.1407211422920227,99
1668151571.57957411,264724362,0,24.752620697021484,24.817350387573242,0.45999228954315186,37.23952102661133,0.9235304594039917,0.0,0.1407211422920227,99
1668151571.67953825,264824326,0,24.764589309692383,24.833858489990234,0.4922496974468231,37.25318908691406,0.9238690137863159,0.0,0.1407211422920227,99
1668151571.77967811,264924466,0,24.702014923095703,24.750425338745117,0.3440224230289459,37.262760162353516,0.9241054058074951,0.0,0.1407211422920227,99
1668151571.87960124,265024389,0,24.755962371826172,24.821950912475586,0.46892619132995605,37.27577209472656,0.9244275093078613,0.0,0.1407211422920227,99
1668151571.97952533,265124313,0,24.754911422729492,24.82120132446289,0.4710744023323059,37.288856506347656,0.9247514009475708,0.0,0.1407211422920227,99
1668151572.07955217,265224340,0,24.787395477294922,24.863056182861328,0.53766930103302,37.30379867553711,0.9251217246055603,0.0,0.1407211422920227,99
1668151572.17957711,265324365,0,24.708913803100586,24.759225845336914,0.3575255274772644,37.3137321472168,0.9253671765327454,0.0,0.1407211422920227,99
1668151572.27950621,265424294,0,24.72041130065918,24.774091720581055,0.38146287202835083,37.32432174682617,0.9256289601325989,0.0,0.1407211422920227,99
1668151572.37953925,265524327,0,24.758743286132812,24.8258113861084,0.4765984117984772,37.33756637573242,0.9259568452835083,0.0,0.1407211422920227,99
1668151572.47958827,265624376,0,24.77487564086914,24.844932556152344,0.4978419840335846,37.351402282714844,0.9262996315956116,0.0,0.1407211422920227,99
1668151572.57956719,265724355,0,24.754528045654297,24.819522857666016,0.4618677496910095,37.36423110961914,0.9266172051429749,0.0,0.1407211422920227,99
1668151572.67949224,265824280,0,24.762767791748047,24.831087112426758,0.48549818992614746,37.377708435058594,0.9269509315490723,0.0,0.1407211422920227,99
1668151572.77954316,265924331,0,24.69013023376465,24.73426628112793,0.31364041566848755,37.38642501831055,0.9271661639213562,0.0,0.1407211422920227,99
1668151572.87956214,266024350,0,24.697893142700195,24.744749069213867,0.3329744040966034,37.39567565917969,0.927394688129425,0.0,0.1407211422920227,99
1668151572.97966528,266124453,0,24.760086059570312,24.82754135131836,0.4793603718280792,37.40900802612305,0.9277247786521912,0.0,0.1407211422920227,99
1668151573.07951927,266224307,0,24.75347137451172,24.81838035583496,0.46125397086143494,37.42180252075195,0.9280415177345276,0.0,0.1407211422920227,99
1668151573.17963314,266324421,0,24.730953216552734,24.78769874572754,0.4032519459724426,37.43301773071289,0.9283188581466675,0.0,0.1407211422920227,99
1668151573.27964330,266424431,0,24.68617820739746,24.73061180114746,0.3157545328140259,37.44179153442383,0.9285354018211365,0.0,0.1407211422920227,99
1668151573.37961912,266524407,0,24.745996475219727,24.808183670043945,0.4419199526309967,37.454063415527344,0.9288391470909119,0.0,0.1407211422920227,99
1668151573.47949314,266624281,0,24.736892700195312,24.7960147857666,0.42013081908226013,37.465721130371094,0.9291275143623352,0.0,0.1407211422920227,99
1668151573.57965732,266724445,0,24.758743286132812,24.824039459228516,0.4640159606933594,37.478633880615234,0.9294471740722656,0.0,0.1407211422920227,99
1668151573.67971015,266824498,0,24.736413955688477,24.79570770263672,0.4213584065437317,37.4903450012207,0.929736852645874,0.0,0.1407211422920227,99
1668151573.77963519,266924423,0,24.710445404052734,24.760282516479492,0.3541497588157654,37.50017547607422,0.9299798011779785,0.0,0.1407211422920227,99
1668151573.87959909,267024387,0,24.70345115661621,24.75203514099121,0.3452499806880951,37.509761810302734,0.9302166104316711,0.0,0.1407211422920227,99
1668151573.97949624,267124284,0,24.747533798217773,24.81157875061035,0.4551162123680115,37.52239227294922,0.9305291771888733,0.0,0.1407211422920227,99
1668151574.07958627,267224374,0,24.755578994750977,24.820789337158203,0.4634021818637848,37.5352783203125,0.9308481216430664,0.0,0.1407211422920227,99
1668151574.17961431,267324402,0,24.75634765625,24.822277069091797,0.4685170352458954,37.54829788208008,0.9311704039573669,0.0,0.1407211422920227,99
1668151574.27947712,267424265,0,24.69041633605957,24.7357177734375,0.32192644476890564,37.557228088378906,0.9313908815383911,0.0,0.1407211422920227,99
1668151574.37965226,267524440,0,24.71303367614746,24.765201568603516,0.3707217574119568,37.567543029785156,0.9316458106040955,0.0,0.1407211422920227,99
1668151574.47957230,267624360,0,24.741397857666016,24.801599502563477,0.42780303955078125,37.57941818237305,0.9319396018981934,0.0,0.1407211422920227,99
1668151574.57968116,267724469,0,24.75261116027832,24.81678581237793,0.45603686571121216,37.59210205078125,0.9322535395622253,0.0,0.1407211422920227,99
1668151574.67953920,267824327,0,24.727598190307617,24.785381317138672,0.41061732172966003,37.603492736816406,0.9325352311134338,0.0,0.1407211422920227,99
1668151574.77961731,267924405,0,24.693099975585938,24.739221572875977,0.327757328748703,37.612606048583984,0.9327602386474609,0.0,0.1407211422920227,99
1668151574.87956929,268024357,0,24.732486724853516,24.791824340820312,0.4216652810573578,37.62431335449219,0.9330497980117798,0.0,0.1407211422920227,99
1668151574.97962117,268124409,0,24.75677490234375,24.822416305541992,0.4664710760116577,37.63727951049805,0.9333707690238953,0.0,0.1407211422920227,99
1668151575.07956529,268224353,0,24.56315803527832,24.91914939880371,2.628809928894043,37.71026611328125,0.9351635575294495,0.0,0.13541904091835022,99
1668151575.17966723,268324455,0,24.532299041748047,24.82771110534668,2.1930277347564697,37.7712516784668,0.9366596341133118,0.0,0.1347055286169052,99
1668151575.27949214,268424280,0,24.595260620117188,24.774721145629883,1.31778085231781,37.80779266357422,0.9375583529472351,0.0,0.13618451356887817,99
1668151575.37961531,268524403,0,24.653141021728516,24.860427856445312,1.5457992553710938,37.850791931152344,0.9386184215545654,0.0,0.13409709930419922,99
1668151575.47967410,268624462,0,24.63934326171875,24.848581314086914,1.576181173324585,37.89460372924805,0.9396978616714478,0.0,0.1327500194311142,99
1668151575.57958126,268724369,0,24.645187377929688,24.845458984375,1.520634412765503,37.93680953979492,0.9407380223274231,0.0,0.13170225918293,99
1668151575.67957830,268824366,0,24.658411026000977,24.8575496673584,1.512041449546814,37.97881317138672,0.9417737722396851,0.0,0.13170225918293,99
1668151575.77956915,268924357,0,24.591236114501953,24.769733428955078,1.3322045803070068,38.01581954956055,0.942683756351471,0.0,0.13398608565330505,99
1668151575.87949228,269024280,0,24.626977920532227,24.816200256347656,1.4103248119354248,38.05496597290039,0.9436478614807129,0.0,0.1341698318719864,99
1668151575.97963428,269124422,0,24.64058494567871,24.830921173095703,1.4230436086654663,38.09455490112305,0.9446233510971069,0.0,0.13375315070152283,99
1668151576.07960224,269224390,0,24.66013526916504,24.85654640197754,1.4684631824493408,38.135337829589844,0.9456290006637573,0.0,0.13375315070152283,99
1668151576.17962718,269324415,0,24.630428314208984,24.817100524902344,1.3914340734481812,38.17399978637695,0.9465813040733337,0.0,0.13415837287902832,99
1668151576.27952909,269424317,0,24.598901748657227,24.775569915771484,1.3168601989746094,38.21054458618164,0.947480320930481,0.0,0.13415837287902832,99
1668151576.37964320,269524431,0,24.640300750732422,24.83026695251465,1.4159852266311646,38.24991226196289,0.9484503269195557,0.0,0.13415837287902832,99
1668151576.47951531,269624303,0,24.657835006713867,24.85521125793457,1.4712251424789429,38.290740966796875,0.949457049369812,0.0,0.13415837287902832,99
1668151576.57971120,269724499,0,24.66253089904785,24.86069107055664,1.4770560264587402,38.331844329833984,0.9504708051681519,0.0,0.13415837287902832,99
1668151576.67978811,269824576,0,24.593727111816406,24.768953323364258,1.3061189651489258,38.368167877197266,0.9513640999794006,0.0,0.13415837287902832,99
1668151576.77964425,269924432,0,24.59205436706543,24.768360137939453,1.3141663074493408,38.40462112426758,0.9522606134414673,0.0,0.13415837287902832,99
1668151576.87965322,270024441,0,24.63512420654297,24.824060440063477,1.4083130359649658,38.443748474121094,0.9532244801521301,0.0,0.13415837287902832,99
1668151576.97962022,270124408,0,24.635602951049805,24.824827194213867,1.4104613065719604,38.48291778564453,0.9541894197463989,0.0,0.13415837287902832,99
1668151577.07949829,270224286,0,24.655824661254883,24.85097885131836,1.454653263092041,38.523277282714844,0.9551845788955688,0.0,0.13415837287902832,99
1668151577.17957926,270324367,0,24.649883270263672,24.843761444091797,1.4451396465301514,38.563453674316406,0.9561749696731567,0.0,0.13415837287902832,99
1668151577.27961230,270424400,0,24.57868003845215,24.750118255615234,1.2778851985931396,38.59896469116211,0.9570478200912476,0.0,0.13415837287902832,99
1668151577.37972116,270524509,0,24.631195068359375,24.82062530517578,1.4119956493377686,38.63823318481445,0.9580150246620178,0.0,0.13415837287902832,99
1668151577.47964621,270624434,0,24.641639709472656,24.832141876220703,1.4199748039245605,38.677650451660156,0.9589863419532776,0.0,0.13415837287902832,99
1668151577.57960129,270724389,0,24.6422061920166,24.8333797454834,1.4249873161315918,38.717220306396484,0.9599614143371582,0.0,0.13415837287902832,99
1668151577.67958713,270824375,0,24.62784194946289,24.814884185791016,1.3941960334777832,38.75594711303711,0.9609151482582092,0.0,0.13415837287902832,99
1668151577.77963018,270924418,0,24.635602951049805,24.825157165527344,1.4129163026809692,38.79521560668945,0.9618825316429138,0.0,0.13415837287902832,99
1668151577.87957311,271024361,0,24.52741241455078,24.86118507385254,2.5195577144622803,38.865169525146484,0.9635983109474182,0.0,0.13247264921665192,99
1668151577.97965527,271124443,0,23.72446632385254,25.010961532592773,10.983244895935059,39.1705322265625,0.9708428382873535,0.0,0.11713249981403351,99
1668151578.07959223,271224380,0,23.627965927124023,25.0067195892334,12.572929382324219,39.519588470458984,0.9790903329849243,0.0,0.10966044664382935,99
1668151578.17967629,271324464,0,23.039579391479492,25.003284454345703,18.95253562927246,40.046539306640625,0.9912310242652893,0.0,0.10361175984144211,99
1668151578.27957630,271424364,0,23.04983139038086,24.911367416381836,18.03156280517578,40.54695129394531,1.002765417098999,0.0,0.10323762893676758,99
1668151578.37972212,271524510,0,23.166339874267578,24.85664939880371,16.373886108398438,41.00248336791992,1.013318419456482,0.0,0.10323207080364227,99
1668151578.47959518,271624383,0,23.144800186157227,24.952173233032227,17.603452682495117,41.49088668823242,1.0246224403381348,0.0,0.1026715412735939,99
1668151578.57965326,271724441,0,23.011693954467773,24.942663192749023,18.888702392578125,42.01591873168945,1.0367043018341064,0.0,0.10222883522510529,99
1668151578.67968917,271824477,0,22.923051834106445,24.928565979003906,19.675565719604492,42.56270980834961,1.0492384433746338,0.0,0.1019292026758194,99
1668151578.77983618,271924624,0,22.854536056518555,24.832290649414062,19.35087776184082,43.10106658935547,1.0615423917770386,0.0,0.10220485925674438,99
1668151578.87959433,272024382,0,22.835655212402344,24.868722915649414,19.883943557739258,43.652099609375,1.0741256475448608,0.0,0.1022467389702797,99
1668151578.97956133,272124349,0,22.840639114379883,24.886537551879883,20.02142906188965,44.20811080932617,1.0868253707885742,0.0,0.10218539834022522,99
1668151579.07968020,272224468,0,22.880599975585938,24.884517669677734,19.619098663330078,44.7537841796875,1.0993106365203857,0.0,0.10214116424322128,99
1668151579.17964029,272324428,0,22.871112823486328,24.82928466796875,19.12162971496582,45.28477096557617,1.1114548444747925,0.0,0.1024060845375061,99
1668151579.27966332,272424451,0,22.818695068359375,24.788198471069336,19.144750595092773,45.816734313964844,1.1235935688018799,0.0,0.10287436842918396,99
1668151579.37965226,272524440,0,22.839872360229492,24.839534759521484,19.410720825195312,46.355899810791016,1.1359080076217651,0.0,0.10301849991083145,99
1668151579.47958922,272624377,0,22.865650177001953,24.85932731628418,19.34842300415039,46.89305877685547,1.1481904983520508,0.0,0.10304080694913864,99
1668151579.57973528,272724523,0,22.8836669921875,24.863676071166992,19.216459274291992,47.42767333984375,1.1604243516921997,0.0,0.10303719341754913,99
1668151579.67961621,272824404,0,22.80824851989746,24.792627334594727,19.186384201049805,47.96003723144531,1.1725666522979736,0.0,0.10342637449502945,99
1668151579.77975821,272924546,0,22.765220642089844,24.785913467407227,19.463199615478516,48.50149154663086,1.184893012046814,0.0,0.10382118076086044,99
1668151579.87967229,273024460,0,22.75880241394043,24.86941909790039,20.348573684692383,49.0662956237793,1.1977472305297852,0.0,0.10372307896614075,99
1668151579.97965217,273124440,0,22.727752685546875,24.835552215576172,20.302846908569336,49.63019561767578,1.2105634212493896,0.0,0.10381792485713959,99
1668151580.07966924,273224457,0,22.72787094116211,24.833829879760742,20.266260147094727,50.19328689575195,1.2233612537384033,0.0,0.10391450673341751,99
1668151580.17975831,273324546,0,22.719127655029297,24.84418487548828,20.443708419799805,50.7614631652832,1.2362697124481201,0.0,0.103946752846241,99
1668151580.27960324,273424391,0,22.595703125,24.76560401916504,20.785276412963867,51.338172912597656,1.2493008375167847,0.0,0.1043960303068161,99
1668151580.37962532,273524413,0,22.634225845336914,24.839523315429688,21.12070655822754,51.925086975097656,1.262585163116455,0.0,0.10441404581069946,99
1668151580.47958422,273624372,0,22.590238571166992,24.820783615112305,21.339210510253906,52.51766586303711,1.2759716510772705,0.0,0.1045280247926712,99
1668151580.57966018,273724448,0,22.57950782775879,24.856475830078125,21.799850463867188,53.12372589111328,1.289656162261963,0.0,0.10444875061511993,99
1668151580.67971611,273824504,0,22.542133331298828,24.810312271118164,21.682004928588867,53.726383209228516,1.3032413721084595,0.0,0.10461108386516571,99
1668151580.77969623,273924484,0,22.55554962158203,24.764291763305664,21.036924362182617,54.31058883666992,1.3164185285568237,0.0,0.10499361157417297,99
1668151580.87978315,274024571,0,22.592538833618164,24.76732063293457,20.713464736938477,54.8865966796875,1.3294320106506348,0.0,0.10499361157417297,99
1668151580.97966433,274124452,0,22.65450668334961,24.83746910095215,20.791379928588867,55.4634895324707,1.342501163482666,0.0,0.10499361157417297,99
1668151581.07968616,274224474,0,22.629722595214844,24.79764175415039,20.64809799194336,56.0372200012207,1.3554844856262207,0.0,0.10499361157417297,99
1668151581.17973423,274324522,0,22.687984466552734,24.826372146606445,20.362075805664062,56.60315704345703,1.3683243989944458,0.0,0.10501819849014282,99
1668151581.27963018,274424418,0,22.62799644470215,24.74962615966797,20.202495574951172,57.16379928588867,1.38101065158844,0.0,0.10501819849014282,99
1668151581.37968826,274524476,0,22.597139358520508,24.718801498413086,20.202802658081055,57.7253532409668,1.393700122833252,0.0,0.10501819849014282,99
1668151581.47964931,274624437,0,22.651378631591797,24.794382095336914,20.406269073486328,58.292022705078125,1.4065359830856323,0.0,0.10501690208911896,99
1668151581.57965922,274724447,0,22.655691146850586,24.776391983032227,20.20863151550293,58.85346984863281,1.4192559719085693,0.0,0.10494039207696915,99
1668151581.67963910,274824427,0,22.64438247680664,24.781782150268555,20.374658584594727,59.41936492919922,1.432070255279541,0.0,0.10490476340055466,99
1668151581.77975321,274924541,0,22.62725067138672,24.788164138793945,20.598722457885742,59.99225616455078,1.4450331926345825,0.0,0.10490521043539047,99
1668151581.87958217,275024370,0,22.57941246032715,24.71141242980957,20.323101043701172,60.55586242675781,1.4577590227127075,0.0,0.10490521043539047,99
1668151581.97981024,275124598,0,22.58909034729004,24.718900680541992,20.30223274230957,61.121150970458984,1.4705283641815186,0.0,0.10490521043539047,99
1668151582.07959032,275224378,0,22.62962532043457,24.77768898010254,20.476238250732422,61.688724517822266,1.4833723306655884,0.0,0.10490521043539047,99
1668151582.17965817,275324446,0,22.598194122314453,24.74017333984375,20.418235778808594,62.2563362121582,1.4961992502212524,0.0,0.10490521043539047,99
1668151582.27961922,275424407,0,22.574907302856445,24.68671989440918,20.13068199157715,62.81534957885742,1.5088188648223877,0.0,0.10490521043539047,99
1668151582.37972617,275524514,0,22.616304397583008,24.721477508544922,20.09078598022461,63.374061584472656,1.521454930305481,0.0,0.10478304326534271,99
1668151582.47963428,275624422,0,22.641796112060547,24.754093170166016,20.15032196044922,63.933326721191406,1.5341176986694336,0.0,0.104826919734478,99
1668151582.57970715,275724495,0,22.648012161254883,24.748693466186523,20.037456512451172,64.49037170410156,1.5467337369918823,0.0,0.10483768582344055,99
1668151582.67971110,275824499,0,22.647735595703125,24.701635360717773,19.626771926879883,65.0356216430664,1.5590825080871582,0.0,0.10464787483215332,99
1668151582.77972531,275924513,0,22.632978439331055,24.666601181030273,19.487443923950195,65.57705688476562,1.5713368654251099,0.0,0.1043555811047554,99
1668151582.87968421,276024472,0,22.645244598388672,24.679656982421875,19.526418685913086,66.11927795410156,1.5836156606674194,0.0,0.10418765246868134,99
1668151582.97981715,276124605,0,22.672651290893555,24.708498001098633,19.54145622253418,66.6628646850586,1.595940113067627,0.0,0.1041809469461441,99
1668151583.07961822,276224406,0,22.701210021972656,24.721071243286133,19.379112243652344,67.20014190673828,1.6081370115280151,0.0,0.10422879457473755,99
1668151583.17975020,276324538,0,22.73263931274414,24.697999954223633,18.86722183227539,67.72496795654297,1.6200675964355469,0.0,0.10416799038648605,99
1668151583.27961516,276424403,0,22.726028442382812,24.612789154052734,18.183778762817383,68.22943115234375,1.631532073020935,0.0,0.10376063734292984,99
1668151583.37969422,276524482,0,22.757938385009766,24.645673751831055,18.22336769104004,68.73607635498047,1.6430622339248657,0.0,0.10358867049217224,99
1668151583.47960329,276624391,0,22.79005241394043,24.65886688232422,18.053930282592773,69.23715209960938,1.6544817686080933,0.0,0.10351292788982391,99
1668151583.57972312,276724511,0,22.821569442749023,24.680957794189453,17.956682205200195,69.73658752441406,1.6658796072006226,0.0,0.10354854166507721,99
1668151583.67962432,276824412,0,22.81696891784668,24.661725997924805,17.82472038269043,70.23126983642578,1.6771668195724487,0.0,0.10349428653717041,99
1668151583.77977324,276924561,0,22.809974670410156,24.64055633544922,17.710248947143555,70.72399139404297,1.6884058713912964,0.0,0.10336285084486008,99
1668151583.87965012,277024438,0,22.774038314819336,24.57140350341797,17.45553207397461,71.20830535888672,1.6994355916976929,0.0,0.10296817868947983,99
1668151583.97969127,277124479,0,22.796079635620117,24.608787536621094,17.629230499267578,71.69824981689453,1.7106044292449951,0.0,0.10282402485609055,99
1668151584.07964420,277224432,0,22.826072692871094,24.662723541259766,17.841598510742188,72.19365692138672,1.7219126224517822,0.0,0.10294203460216522,99
1668151584.17972612,277324514,0,22.83393096923828,24.652015686035156,17.653474807739258,72.6844711303711,1.7331198453903198,0.0,0.10298740863800049,99
1668151584.27966809,277424456,0,22.785049438476562,24.58061981201172,17.480388641357422,73.16979217529297,1.7441779375076294,0.0,0.10271913558244705,99
1668151584.37972713,277524515,0,22.760334014892578,24.55388641357422,17.46074867248535,73.65513610839844,1.7552244663238525,0.0,0.10271913558244705,99
1668151584.47968125,277624469,0,22.81687355041504,24.645614624023438,17.782060623168945,74.1489028930664,1.7664905786514282,0.0,0.10284189134836197,99
1668151584.57971430,277724502,0,22.81390380859375,24.63554573059082,17.704111099243164,74.64088439941406,1.7777146100997925,0.0,0.10289373248815536,99
1668151584.67976213,277824550,0,22.818599700927734,24.643301010131836,17.721298217773438,75.13341522216797,1.7889535427093506,0.0,0.1029665544629097,99
1668151584.77967215,277924460,0,22.7655086517334,24.554882049560547,17.378196716308594,75.6157455444336,1.7999340295791626,0.0,0.1029665544629097,99
1668151584.87964416,278024432,0,22.82358169555664,24.592580795288086,17.19805145263672,76.09336853027344,1.8108351230621338,0.0,0.10286039113998413,99
1668151584.97969818,278124486,0,22.842363357543945,24.60849952697754,17.17258071899414,76.57068634033203,1.8217381238937378,0.0,0.10284627974033356,99
1668151585.07975125,278224539,0,22.8585147857666,24.61507797241211,17.07666015625,77.04517364501953,1.8325841426849365,0.0,0.1028633788228035,99
1668151585.17965817,278324446,0,22.845144271850586,24.56911277770996,16.789581298828125,77.51129913330078,1.8432328701019287,0.0,0.10268080234527588,99
1668151585.27960014,278424388,0,22.829330444335938,24.52483367919922,16.565555572509766,77.97122955322266,1.8537328243255615,0.0,0.10235107690095901,99
1668151585.37969422,278524482,0,22.8631591796875,24.565814971923828,16.648414611816406,78.43415832519531,1.8643168210983276,0.0,0.10227140039205551,99
1668151585.47963810,278624426,0,22.90359878540039,24.609188079833984,16.657007217407227,78.8966293334961,1.8749090433120728,0.0,0.1023947149515152,99
1668151585.57980132,278724589,0,22.93081283569336,24.6046142578125,16.3344669342041,79.35114288330078,1.885331392288208,0.0,0.10247058421373367,99
1668151585.67962122,278824409,0,22.869674682617188,24.50640106201172,16.02911376953125,79.7956314086914,1.8954967260360718,0.0,0.10210961103439331,99
1668151585.77972031,278924508,0,22.882898330688477,24.5125732421875,15.999650001525879,80.24053955078125,1.9056775569915771,0.0,0.10185690969228745,98
1668151585.87969232,279024480,0,22.936275482177734,24.580917358398438,16.131305694580078,80.68854522705078,1.9159530401229858,0.0,0.10195344686508179,98
1668151585.97968912,279124477,0,22.937095642089844,24.564550399780273,15.9619722366333,81.1319580078125,1.9261237382888794,0.0,0.101958267390728,98
1668151586.07966733,279224455,0,22.961288452148438,24.587209701538086,15.9312162399292,81.57443237304688,1.9362834692001343,0.0,0.10205885767936707,98
1668151586.17972326,279324511,0,22.956302642822266,24.569377899169922,15.805084228515625,82.01374053955078,1.9463684558868408,0.0,0.10206055641174316,98
1668151586.27962732,279424415,0,22.925447463989258,24.501934051513672,15.490216255187988,82.44364929199219,1.9562242031097412,0.0,0.10177300870418549,98
1668151586.37969017,279524478,0,22.9754695892334,24.53750228881836,15.358866691589355,82.8705825805664,1.9660332202911377,0.0,0.10170239955186844,98
1668151586.47967529,279624463,0,22.980548858642578,24.52465057373047,15.198978424072266,83.2927474975586,1.975734829902649,0.0,0.10159247368574142,98
1668151586.57970715,279724495,0,23.0267391204834,24.570636749267578,15.180257797241211,83.71458435058594,1.9854483604431152,0.0,0.10170436650514603,98
1668151586.67961621,279824404,0,23.02779197692871,24.550071716308594,14.967889785766602,84.13002014160156,1.9950149059295654,0.0,0.10170306265354156,98
1668151586.77976227,279924550,0,23.02930450439453,24.522769927978516,14.701681137084961,84.53903198242188,2.004434108734131,0.0,0.10158471763134003,98
1668151586.87958717,280024375,0,23.00575065612793,24.461835861206055,14.383880615234375,84.93791198730469,2.013610601425171,0.0,0.10123038291931152,98
1668151586.97970414,280124492,0,23.05903434753418,24.49449920654297,14.19913387298584,85.33282470703125,2.022716999053955,0.0,0.10109522193670273,98
1668151587.07963228,280224420,0,23.091325759887695,24.54016876220703,14.318514823913574,85.73030853271484,2.031895399093628,0.0,0.10118663311004639,98
1668151587.17987728,280324665,0,23.137134552001953,24.54681396484375,13.917716979980469,86.1178970336914,2.040863037109375,0.0,0.1012866348028183,98
1668151587.27967811,280424466,0,23.126113891601562,24.53548240661621,13.91065788269043,86.5035629272461,2.0497820377349854,0.0,0.10131572932004929,98
1668151587.37979722,280524585,0,23.239572525024414,24.490440368652344,12.367314338684082,86.8475341796875,2.0577757358551025,0.0,0.10114304721355438,98
1668151587.47963023,280624418,0,23.1885929107666,24.49335479736328,12.915724754333496,87.20573425292969,2.066082000732422,0.0,0.10102123767137527,98
1668151587.57977414,280724562,0,23.017274856567383,24.476287841796875,14.415251731872559,87.60658264160156,2.0753085613250732,0.0,0.10121309757232666,98
1668151587.67965817,280824446,0,23.01878547668457,24.544160842895508,15.09524917602539,88.02562713623047,2.0849545001983643,0.0,0.10105007141828537,98
1668151587.77978230,280924570,0,22.940011978149414,24.487415313720703,15.292886734008789,88.45098876953125,2.094712257385254,0.0,0.10118456929922104,98
1668151587.87964010,281024428,0,22.928993225097656,24.52294158935547,15.761504173278809,88.88822174072266,2.1047375202178955,0.0,0.10112916678190231,98
1668151587.97966719,281124455,0,22.93752098083496,24.541973114013672,15.887943267822266,89.32970428466797,2.1148641109466553,0.0,0.10098551213741302,98
1668151588.07964110,281224429,0,22.92573356628418,24.555904388427734,16.174270629882812,89.77891540527344,2.1251626014709473,0.0,0.10078790038824081,98
1668151588.17974329,281324531,0,22.894207000732422,24.53803062438965,16.324033737182617,90.23285675048828,2.1355552673339844,0.0,0.10069959610700607,98
1668151588.27970815,281424496,0,22.847923278808594,24.508352279663086,16.477783203125,90.69032287597656,2.146007537841797,0.0,0.10076771676540375,98
1668151588.37969112,281524479,0,22.80559730529785,24.47595977783203,16.539945602416992,91.14984130859375,2.156487226486206,0.0,0.10098960250616074,98
1668151588.47961330,281624401,0,22.86239242553711,24.52603530883789,16.48146629333496,91.60734558105469,2.1669468879699707,0.0,0.10094018280506134,98
1668151588.57973218,281724520,0,22.866418838500977,24.542835235595703,16.62908172607422,92.06985473632812,2.177522659301758,0.0,0.10081233829259872,98
1668151588.67966533,281824453,0,22.87810707092285,24.53850555419922,16.485456466674805,92.52751159667969,2.187993049621582,0.0,0.10071901232004166,98
1668151588.77972412,281924512,0,22.802021026611328,24.483585357666016,16.66437339782715,92.99072265625,2.1985552310943604,0.0,0.10090779513120651,98
1668151588.87965226,282024440,0,22.753820419311523,24.492290496826172,17.20664405822754,93.46837615966797,2.209423542022705,0.0,0.10103476047515869,98
1668151588.97973728,282124525,0,22.816299438476562,24.571096420288086,17.416250228881836,93.9526138305664,2.2204720973968506,0.0,0.10075629502534866,98
1668151589.07966232,282224450,0,22.814573287963867,24.576011657714844,17.530105590820312,94.4392318725586,2.231574058532715,0.0,0.10048071295022964,98
1668151589.17981315,282324601,0,22.76416778564453,24.53265380859375,17.605907440185547,94.92906951904297,2.242724657058716,0.0,0.10044842958450317,98
1668151589.27976632,282424554,0,22.719669342041016,24.49048614501953,17.597349166870117,95.41769409179688,2.253826141357422,0.0,0.10062971711158752,98
1668151589.37974715,282524535,0,22.69814109802246,24.51869010925293,18.08741569519043,95.92005920410156,2.2652289867401123,0.0,0.1006527990102768,98
1668151589.47964931,282624437,0,22.71318817138672,24.554805755615234,18.325868606567383,96.42865753173828,2.276780843734741,0.0,0.10049281269311905,98
1668151589.57967615,282724464,0,22.711366653442383,24.562772750854492,18.457216262817383,96.94153594970703,2.288429021835327,0.0,0.10030802339315414,98
1668151589.67969632,282824484,0,22.631925582885742,24.501876831054688,18.616493225097656,97.45880126953125,2.300135612487793,0.0,0.1004459485411644,98
1668151589.77972221,282924510,0,22.571937561035156,24.486804962158203,19.025575637817383,97.98747253417969,2.3120687007904053,0.0,0.10064699500799179,98
1668151589.87963128,283024419,0,22.53705406188965,24.496135711669922,19.438648223876953,98.52698516845703,2.324227809906006,0.0,0.1007828339934349,98
1668151589.97972417,283124512,0,22.564939498901367,24.521127700805664,19.41041374206543,99.066650390625,2.3364052772521973,0.0,0.10078039020299911,98
1668151590.07971025,283224498,0,22.582956314086914,24.509746551513672,19.108264923095703,99.59746551513672,2.3483924865722656,0.0,0.1008353978395462,98
1668151590.17974329,283324531,0,22.570880889892578,24.501426696777344,19.128076553344727,100.12901306152344,2.3603899478912354,0.0,0.10092732310295105,98
1668151590.27966213,283424450,0,22.52823829650879,24.420639038085938,18.65976333618164,100.64696502685547,2.372058629989624,0.0,0.10141613334417343,98
1668151590.37971520,283524503,0,22.515684127807617,24.394515991210938,18.52596092224121,101.1618881225586,2.383652448654175,0.0,0.10141613334417343,98
1668151590.47966623,283624454,0,22.549224853515625,24.472084045410156,18.943021774291992,101.6878662109375,2.395512819290161,0.0,0.10150749236345291,98
1668151590.57973433,283724522,0,22.538108825683594,24.467103958129883,18.983224868774414,102.215576171875,2.4074065685272217,0.0,0.101615771651268,98
1668151590.67971230,283824500,0,22.559669494628906,24.449621200561523,18.599000930786133,102.73213958740234,2.419059991836548,0.0,0.101615771651268,98
1668151590.77976632,283924554,0,22.54232406616211,24.3857479095459,18.14112091064453,103.23637390136719,2.430426597595215,0.0,0.101615771651268,98
1668151590.87961817,284024406,0,22.57433319091797,24.421960830688477,18.18248176574707,103.74073791503906,2.44181227684021,0.0,0.101615771651268,98
1668151590.97981620,284124604,0,22.59071922302246,24.4674015045166,18.460901260375977,104.25460052490234,2.453420639038086,0.0,0.10165710747241974,98
1668151591.07962132,284224409,0,22.592060089111328,24.50352668762207,18.803081512451172,104.77593231201172,2.465198516845703,0.0,0.10165710747241974,98
1668151591.17972422,284324512,0,22.601259231567383,24.476144790649414,18.436349868774414,105.28861999511719,2.476785898208618,0.0,0.10169507563114166,98
1668151591.27958226,284424370,0,22.562162399291992,24.415077209472656,18.220298767089844,105.7940673828125,2.488189935684204,0.0,0.10169507563114166,98
1668151591.37990522,284524693,0,22.535425186157227,24.371706008911133,18.056726455688477,106.29730224609375,2.499530553817749,0.0,0.10169507563114166,98
1668151591.47962117,284624409,0,22.61285400390625,24.418346405029297,17.774084091186523,106.78965759277344,2.510664224624634,0.0,0.10158003121614456,98
1668151591.57969332,284724481,0,22.65540313720703,24.438020706176758,17.549747467041016,107.27754211425781,2.5217175483703613,0.0,0.1015750840306282,98
1668151591.67971420,284824502,0,22.679262161254883,24.44624137878418,17.390472412109375,107.76074981689453,2.5326764583587646,0.0,0.10160620510578156,98
1668151591.77976227,284924550,0,22.65557289123535,24.35607147216797,16.795686721801758,108.22755432128906,2.5432522296905518,0.0,0.10124615579843521,98
1668151591.87977719,285024565,0,22.68683624267578,24.34856414794922,16.46305274963379,108.68485260009766,2.553626775741577,0.0,0.10093676298856735,98
1668151591.97972822,285124516,0,22.77240753173828,24.426076889038086,16.36822509765625,109.13945007324219,2.563978910446167,0.0,0.10102918744087219,98
1668151592.07968330,285224471,0,22.773271560668945,24.443378448486328,16.507244110107422,109.59781646728516,2.5744175910949707,0.0,0.10117415338754654,98
1668151592.17975330,285324541,0,22.766084671020508,24.423233032226562,16.374975204467773,110.05302429199219,2.5847809314727783,0.0,0.10120011121034622,98
1668151592.27967119,285424459,0,22.745290756225586,24.375896453857422,16.141740798950195,110.5010757446289,2.5949718952178955,0.0,0.10101798176765442,98
1668151592.37976933,285524557,0,22.7802677154541,24.401371002197266,16.05274200439453,110.94746398925781,2.6051406860351562,0.0,0.10098607838153839,98
1668151592.47963524,285624423,0,22.814956665039062,24.427932739257812,15.958221435546875,111.39019012451172,2.615241527557373,0.0,0.1010749414563179,98
1668151592.57979631,285724584,0,22.821142196655273,24.441377639770508,16.01004981994629,111.83563232421875,2.6254069805145264,0.0,0.1012011170387268,98
1668151592.67963314,285824421,0,22.821664810180664,24.389009475708008,15.50678825378418,112.26573181152344,2.6352226734161377,0.0,0.1010747104883194,98
1668151592.77979326,285924581,0,22.818885803222656,24.355234146118164,15.236725807189941,112.68968963623047,2.644896984100342,0.0,0.10083191841840744,98
1668151592.87965822,286024446,0,22.86890983581543,24.41904067993164,15.36040210723877,113.11578369140625,2.6546413898468018,0.0,0.10091731697320938,98
1668151592.97972226,286124510,0,22.894685745239258,24.419193267822266,15.096477508544922,113.53547668457031,2.664250135421753,0.0,0.10098426789045334,98
1668151593.07961631,286224404,0,22.91615104675293,24.42765998840332,14.954693794250488,113.95046997070312,2.673760175704956,0.0,0.10107259452342987,98
1668151593.17971730,286324505,0,22.96943473815918,24.446861267089844,14.595634460449219,114.35635375976562,2.6830830574035645,0.0,0.10122383385896683,98
1668151593.27964520,286424433,0,22.92573356628418,24.345884323120117,14.073923110961914,114.74703979492188,2.692039966583252,0.0,0.10090649127960205,98
1668151593.37976122,286524549,0,22.90281105041504,24.339815139770508,14.279539108276367,115.1441879272461,2.7011358737945557,0.0,0.10063385218381882,98
1668151593.47979832,286624586,0,22.960330963134766,24.440576553344727,14.676959991455078,115.55206298828125,2.710500955581665,0.0,0.1008550226688385,98
1668151593.57978916,286724577,0,22.96732521057129,24.426435470581055,14.451396942138672,115.95345306396484,2.719719886779785,0.0,0.100966677069664,98
1668151593.67974329,286824531,0,22.988309860229492,24.4144229888916,14.119649887084961,116.34555053710938,2.728733539581299,0.0,0.10100206732749939,98
1668151593.77974129,286924529,0,22.974607467651367,24.348358154296875,13.635992050170898,116.72434997558594,2.737436294555664,0.0,0.10074449330568314,98
1668151593.87928724,287024075,0,23.10052490234375,24.431995391845703,13.195301055908203,117.08924865722656,2.745865821838379,0.0,0.10090495645999908,98
1668151593.97974920,287124537,0,23.075515747070312,24.36050796508789,12.75798511505127,117.44530487060547,2.754081964492798,0.0,0.10072065889835358,98
1668151594.07964420,287224432,0,23.11672019958496,24.421701431274414,12.940889358520508,117.8044204711914,2.762383460998535,0.0,0.10084174573421478,98
1668151594.17964125,287324429,0,23.07168197631836,24.37681007385254,12.9551420211792,118.164306640625,2.770686626434326,0.0,0.10074209421873093,98
1668151594.27963924,287424427,0,23.070341110229492,24.344655990600586,12.67665958404541,118.51639556884766,2.7788095474243164,0.0,0.10052457451820374,98
1668151594.37975311,287524541,0,23.081743240356445,24.386363983154297,12.97679615020752,118.87736511230469,2.7871413230895996,0.0,0.10053490102291107,98
1668151594.47961211,287624400,0,23.06727409362793,24.40363121032715,13.281536102294922,119.24580383300781,2.795640230178833,0.0,0.10061763972043991,98
1668151594.57977509,287724563,0,23.010927200317383,24.419082641601562,14.015921592712402,119.63580322265625,2.804614305496216,0.0,0.10046827048063278,98
1668151594.67962027,287824408,0,23.024246215820312,24.42240333557129,13.937050819396973,120.02237701416016,2.8135147094726562,0.0,0.10031938552856445,98
1668151594.77971125,287924499,0,22.96368408203125,24.338666915893555,13.66821575164795,120.40242767333984,2.822242021560669,0.0,0.1005970686674118,98
1668151594.87966418,288024452,0,22.94844627380371,24.34935188293457,13.89899730682373,120.7883529663086,2.8310985565185547,0.0,0.1007918119430542,98
