timestamp,TimeUS,Instance,Volt,VoltR,Curr,CurrTot,EnrgTot,Temp,Res,RemPct
1668149061.27964997,189869614,0,24.718847274780273,24.740968704223633,0.20970739424228668,19.02866554260254,0.4715990722179413,0.0,0.10548312216997147,99
1668149061.37984800,189969812,0,24.782508850097656,24.818700790405273,0.34310176968574524,19.03821563720703,0.47183576226234436,0.0,0.10548312216997147,99
1668149061.47976708,190069731,0,24.778005599975586,24.81348419189453,0.3363502025604248,19.04755210876465,0.47206708788871765,0.0,0.10548312216997147,99
1668149061.58007812,190170042,0,24.78116798400879,24.81829833984375,0.35200151801109314,19.057361602783203,0.4723101556301117,0.0,0.10548312216997147,99
1668149061.68004799,190270012,0,24.781551361083984,24.81761360168457,0.34187421202659607,19.066856384277344,0.47254544496536255,0.0,0.10548312216997147,99
1668149061.77981710,190369781,0,24.790557861328125,24.829662322998047,0.3707217574119568,19.077131271362305,0.4728001654148102,0.0,0.10548312216997147,99
1668149061.88003898,190470003,0,24.721370697021484,24.74399757385254,0.2145153135061264,19.08310317993164,0.4729478061199188,0.0,0.10548312216997147,99
1668149061.98004317,190570007,0,24.770530700683594,24.804811477661133,0.3249953091144562,19.092126846313477,0.47317132353782654,0.0,0.10548312216997147,99
1668149062.08003902,190670003,0,24.792444229125977,24.83204460144043,0.37542739510536194,19.102561950683594,0.4734300374984741,0.0,0.10548312216997147,99
1668149062.17998719,190769951,0,24.756635665893555,24.787322998046875,0.2909306585788727,19.110639572143555,0.47363001108169556,0.0,0.10548312216997147,99
1668149062.28002501,190869989,0,24.728652954101562,24.754032135009766,0.24060088396072388,19.117326736450195,0.4737953543663025,0.0,0.10548312216997147,99
1668149062.37996221,190969926,0,24.763534545898438,24.7963924407959,0.3114921748638153,19.125974655151367,0.47400951385498047,0.0,0.10548526048660278,99
1668149062.48004413,191070008,0,24.796785354614258,24.837024688720703,0.38146287202835083,19.136579513549805,0.4742724895477295,0.0,0.10548526048660278,99
1668149062.57987499,191169839,0,24.792667388916016,24.832387924194336,0.37655261158943176,19.147022247314453,0.4745314121246338,0.0,0.10548526048660278,99
1668149062.68002701,191269991,0,24.732486724853516,24.75760841369629,0.23814575374126434,19.153648376464844,0.4746952950954437,0.0,0.10548526048660278,99
1668149062.77996612,191369930,0,24.745615005493164,24.77351951599121,0.2645381987094879,19.160993576049805,0.4748770296573639,0.0,0.10548526048660278,99
1668149062.87998700,191469951,0,24.79233741760254,24.83258628845215,0.3815651535987854,19.17159652709961,0.47513988614082336,0.0,0.10548526048660278,99
1668149062.98000503,191569969,0,24.789791107177734,24.82828140258789,0.3648908734321594,19.181734085083008,0.4753912091255188,0.0,0.10548526048660278,99
1668149063.08002305,191669987,0,24.78116798400879,24.81761932373047,0.3455568552017212,19.191335678100586,0.47562915086746216,0.0,0.10548526048660278,99
1668149063.18002319,191769987,0,24.783658981323242,24.819753646850586,0.34218108654022217,19.200841903686523,0.4758647382259369,0.0,0.10548526048660278,99
1668149063.27998519,191869949,0,24.750213623046875,24.778799057006836,0.27098289132118225,19.20836639404297,0.4760509729385376,0.0,0.10548526048660278,99
1668149063.38004112,191970005,0,24.740440368652344,24.766273498535156,0.24489732086658478,19.215173721313477,0.47621938586235046,0.0,0.10548526048660278,99
1668149063.48002720,192069991,0,24.798606872558594,24.838457107543945,0.37778016924858093,19.225666046142578,0.47647958993911743,0.0,0.10548526048660278,99
1668149063.57983708,192169801,0,24.763439178466797,24.868806838989258,1.041273832321167,19.25453758239746,0.47719454765319824,0.0,0.10119029134511948,99
1668149063.68004918,192270013,0,24.59324836730957,24.907344818115234,3.2060678005218506,19.34379005432129,0.4793895483016968,0.0,0.09796924144029617,99
1668149063.77997899,192369943,0,24.61558723449707,24.826858520507812,2.1550416946411133,19.403615951538086,0.48086220026016235,0.0,0.0980355367064476,99
1668149063.87998414,192469948,0,24.71887969970703,24.865068435668945,1.509586215019226,19.445554733276367,0.48189887404441833,0.0,0.09684065729379654,99
1668149063.97998309,192569947,0,24.717632293701172,24.862703323364258,1.5129621028900146,19.487585067749023,0.482937753200531,0.0,0.09588604420423508,99
1668149064.08003712,192670001,0,24.732006072998047,24.88737678527832,1.620373249053955,19.532623291015625,0.4840516448020935,0.0,0.09588604420423508,99
1668149064.18006015,192770024,0,24.67192268371582,24.807695388793945,1.397878885269165,19.57146453857422,0.48500993847846985,0.0,0.0971282422542572,99
1668149064.28002501,192869989,0,24.683134078979492,24.81589126586914,1.3555281162261963,19.609107971191406,0.485939085483551,0.0,0.09793707728385925,99
1668149064.37995601,192969920,0,24.735456466674805,24.87620735168457,1.4371604919433594,19.649005889892578,0.48692595958709717,0.0,0.09793707728385925,99
1668149064.48010802,193070072,0,24.726736068725586,24.86372947692871,1.3987994194030762,19.68791961669922,0.4878881573677063,0.0,0.09793707728385925,99
1668149064.58004403,193170008,0,24.742164611816406,24.881624221801758,1.423964262008667,19.727455139160156,0.4888663589954376,0.0,0.09793707728385925,99
1668149064.68018198,193270146,0,24.72579002380371,24.86184310913086,1.389183521270752,19.766098022460938,0.48982182145118713,0.0,0.09793707728385925,99
1668149064.77994204,193369906,0,24.677576065063477,24.80257797241211,1.276350736618042,19.801471710205078,0.4906947612762451,0.0,0.09793707728385925,99
1668149064.87998104,193469945,0,24.71150016784668,24.845420837402344,1.3671900033950806,19.839468002319336,0.49163368344306946,0.0,0.09795281291007996,99
1668149064.98001313,193569977,0,24.722904205322266,24.859739303588867,1.3969582319259644,19.87828826904297,0.4925934374332428,0.0,0.09795281291007996,99
1668149065.08007598,193670040,0,24.738428115844727,24.878299713134766,1.4279539585113525,19.91798210144043,0.49357539415359497,0.0,0.09795281291007996,99
1668149065.17980909,193769773,0,24.689266204833984,24.816452026367188,1.298446774482727,19.953956604003906,0.49446359276771545,0.0,0.09795281291007996,99
1668149065.28001213,193869976,0,24.691373825073242,24.82003402709961,1.3134844303131104,19.99051856994629,0.4953663647174835,0.0,0.09795281291007996,99
1668149065.37983704,193969801,0,24.71820831298828,24.852008819580078,1.3659623861312866,20.028398513793945,0.49630269408226013,0.0,0.09795281291007996,99
1668149065.48002100,194069985,0,24.71407699584961,24.847278594970703,1.3598586320877075,20.06624412536621,0.49723803997039795,0.0,0.09795281291007996,99
1668149065.58003020,194169994,0,24.7393856048584,24.87871742248535,1.4224298000335693,20.105762481689453,0.4982157051563263,0.0,0.09795281291007996,99
1668149065.68003297,194269997,0,24.71226692199707,24.84531593322754,1.3582900762557983,20.143497467041016,0.4991482198238373,0.0,0.09795281291007996,99
1668149065.78000307,194369967,0,24.674318313598633,24.79825782775879,1.2653027772903442,20.178627014160156,0.5000150203704834,0.0,0.09795281291007996,99
1668149065.87996316,194469927,0,24.713993072509766,24.84737205505371,1.3616658449172974,20.216449737548828,0.5009498000144958,0.0,0.09795281291007996,99
1668149065.98000908,194569973,0,24.72328758239746,24.859222412109375,1.3877514600753784,20.255020141601562,0.5019033551216125,0.0,0.09795281291007996,99
1668149066.08015609,194670120,0,24.73497772216797,24.872896194458008,1.4080060720443726,20.294191360473633,0.5028722882270813,0.0,0.09795281291007996,99
1668149066.18005013,194770014,0,24.71657943725586,24.850223541259766,1.3641209602355957,20.332046508789062,0.5038079619407654,0.0,0.09797098487615585,99
1668149066.28016019,194870124,0,24.664926528930664,24.788047790527344,1.2567099332809448,20.36699676513672,0.5046699643135071,0.0,0.09797098487615585,99
1668149066.37999606,194969960,0,24.68958854675293,24.818439483642578,1.315189242362976,20.403472900390625,0.5055705308914185,0.0,0.09797098487615585,99
1668149066.48010707,195070071,0,24.71590805053711,24.850032806396484,1.369031310081482,20.441543579101562,0.5065115094184875,0.0,0.09797098487615585,99
1668149066.57980204,195169766,0,24.72769546508789,24.864707946777344,1.398492693901062,20.48027801513672,0.5074693560600281,0.0,0.09797098487615585,99
1668149066.67938209,195269346,0,24.69846534729004,24.82784080505371,1.320542812347412,20.516809463500977,0.5083715915679932,0.0,0.09797098487615585,99
1668149066.77977419,195369738,0,24.672306060791016,24.796689987182617,1.269599199295044,20.552215576171875,0.5092451572418213,0.0,0.09797098487615585,99
1668149066.87971210,195469676,0,24.723957061767578,24.86111831665039,1.4000270366668701,20.591087341308594,0.5102062225341797,0.0,0.09797098487615585,99
1668149066.97995400,195569918,0,24.732006072998047,24.871183395385742,1.420588493347168,20.630647659301758,0.5111846327781677,0.0,0.09797098487615585,99
1668149067.08007216,195670036,0,24.733253479003906,24.87179946899414,1.4141438007354736,20.669979095458984,0.5121574401855469,0.0,0.09797098487615585,99
1668149067.17988205,195769846,0,24.664566040039062,24.787771224975586,1.257562279701233,20.70484733581543,0.513017475605011,0.0,0.09797098487615585,99
1668149067.27999115,195869955,0,24.679014205932617,24.805892944335938,1.295071005821228,20.740863800048828,0.5139063000679016,0.0,0.09797098487615585,99
1668149067.38001800,195969982,0,24.729324340820312,24.867990493774414,1.4153714179992676,20.780193328857422,0.5148788690567017,0.0,0.09797098487615585,99
1668149067.48008919,196070053,0,24.716867446899414,24.852495193481445,1.3843756914138794,20.81867218017578,0.5158299803733826,0.0,0.09797098487615585,99
1668149067.58004904,196170013,0,24.733444213867188,24.872861862182617,1.4230436086654663,20.85819435119629,0.516807496547699,0.0,0.09797098487615585,99
1668149067.68004608,196270010,0,24.72625732421875,24.863269805908203,1.398492693901062,20.897043228149414,0.5177680850028992,0.0,0.09797098487615585,99
1668149067.78003120,196369995,0,24.66665267944336,24.790315628051758,1.262233853340149,20.93210220336914,0.5186328887939453,0.0,0.09797098487615585,99
1668149067.88006115,196470025,0,24.672208786010742,24.797704696655273,1.280954122543335,20.96769905090332,0.5195111036300659,0.0,0.09797098487615585,99
1668149067.98000503,196569969,0,24.7233829498291,24.86066436767578,1.401254653930664,21.006603240966797,0.5204729437828064,0.0,0.09797098487615585,99
1668149068.08020711,196670171,0,24.734840393066406,24.873680114746094,1.417144536972046,21.046051025390625,0.5214486718177795,0.0,0.09797098487615585,99
1668149068.18006420,196770028,0,24.69108772277832,24.82052230834961,1.321156620979309,21.082700729370117,0.5223535895347595,0.0,0.09797098487615585,99
1668149068.28004599,196870010,0,24.6734561920166,24.798141479492188,1.2726681232452393,21.11804962158203,0.5232257843017578,0.0,0.09797098487615585,99
1668149068.37981105,196969775,0,24.70929718017578,24.843122482299805,1.3659623861312866,21.155906677246094,0.5241612195968628,0.0,0.09797098487615585,99
1668149068.48004198,197070006,0,24.734115600585938,24.87389373779297,1.4267263412475586,21.195632934570312,0.5251438021659851,0.0,0.09797098487615585,99
1668149068.58005810,197170022,0,24.72836685180664,24.866762161254883,1.4126094579696655,21.234880447387695,0.5261143445968628,0.0,0.09797098487615585,99
1668149068.68006516,197270029,0,24.73133659362793,24.87132453918457,1.4288746118545532,21.274578094482422,0.5270960927009583,0.0,0.09797098487615585,99
1668149068.78005910,197370023,0,24.67096519470215,24.795799255371094,1.274202585220337,21.309972763061523,0.5279693007469177,0.0,0.09797098487615585,99
1668149068.88013506,197470099,0,24.680068969726562,24.80691909790039,1.2947641611099243,21.34596824645996,0.5288577079772949,0.0,0.09797098487615585,99
1668149068.98005319,197570017,0,24.73185920715332,24.871366500854492,1.423964262008667,21.385494232177734,0.5298352241516113,0.0,0.09797098487615585,99
1668149069.08007097,197670035,0,24.73497772216797,24.87385368347168,1.4175195693969727,21.42487907409668,0.5308094024658203,0.0,0.09797098487615585,99
1668149069.18002701,197769991,0,24.631290435791016,24.91948890686035,3.0246965885162354,21.508865356445312,0.5328781008720398,0.0,0.09528171271085739,99
1668149069.28002000,197869984,0,24.008596420288086,24.907039642333984,13.277853965759277,21.87771224975586,0.5417336225509644,0.0,0.06766486167907715,99
1668149069.38003898,197970003,0,23.80476951599121,24.904207229614258,17.912796020507812,22.375423431396484,0.5535815358161926,0.0,0.061377182602882385,99
1668149069.48008704,198070051,0,23.612730026245117,24.903627395629883,21.481914520263672,22.972476959228516,0.5676795840263367,0.0,0.06009228155016899,99
1668149069.58003211,198169996,0,23.7435359954834,24.887786865234375,19.138816833496094,23.503860473632812,0.580296516418457,0.0,0.05978688225150108,99
1668149069.68016219,198270126,0,23.545265197753906,24.775238037109375,20.466110229492188,24.073148727416992,0.5937005281448364,0.0,0.060098063200712204,99
1668149069.77983618,198369800,0,23.37684440612793,24.749614715576172,22.696819305419922,24.701610565185547,0.6083920001983643,0.0,0.060482896864414215,99
1668149069.88019109,198470155,0,23.398170471191406,24.83441162109375,23.77437400817871,25.36440086364746,0.6239000558853149,0.0,0.06041131913661957,99
1668149069.97986317,198569827,0,23.4355411529541,24.835844039916992,23.206321716308594,26.0069637298584,0.6389588713645935,0.0,0.060341425240039825,99
1668149070.08011198,198670076,0,23.443111419677734,24.82982635498047,22.9942626953125,26.64727020263672,0.6539696455001831,0.0,0.06030696630477905,99
1668149070.18005109,198770015,0,23.342206954956055,24.761281967163086,23.41868782043457,27.297510147094727,0.6691476702690125,0.0,0.060595810413360596,99
1668149070.28009009,198870054,0,23.309911727905273,24.786657333374023,24.314496994018555,27.973222732543945,0.6848984956741333,0.0,0.06073518097400665,99
1668149070.38007998,198970044,0,23.310007095336914,24.839073181152344,25.221355438232422,28.67377471923828,0.7012283802032471,0.0,0.060625821352005005,99
1668149070.48004913,199070013,0,23.3147029876709,24.808208465576172,24.61985206604004,29.357528686523438,0.7171699404716492,0.0,0.06066266447305679,99
1668149070.58005214,199170016,0,23.349584579467773,24.822303771972656,24.288549423217773,30.032285690307617,0.7329252362251282,0.0,0.06063426285982132,99
1668149070.68008018,199270044,0,23.2768497467041,24.7902889251709,24.91292953491211,30.724559783935547,0.7490392327308655,0.0,0.06074916198849678,99
1668149070.78010702,199370071,0,23.233728408813477,24.7409725189209,24.680309295654297,31.410369873046875,0.7649731636047363,0.0,0.06107071787118912,99
1668149070.88006115,199470025,0,23.262571334838867,24.78888511657715,24.958351135253906,32.1033935546875,0.7810946702957153,0.0,0.06115445867180824,99
1668149070.97994208,199569906,0,23.266117095947266,24.7895565032959,24.881322860717773,32.79377365112305,0.7971571683883667,0.0,0.06122823804616928,99
1668149071.08008814,199670052,0,23.288829803466797,24.802013397216797,24.70854377746582,33.481170654296875,0.8131659030914307,0.0,0.0612412765622139,99
1668149071.18005204,199770016,0,23.240341186523438,24.74368667602539,24.440935134887695,34.15989685058594,0.82893967628479,0.0,0.06150929629802704,99
1668149071.28007817,199870042,0,23.19817543029785,24.733102798461914,24.835901260375977,34.85001754760742,0.8449492454528809,0.0,0.06180275231599808,99
1668149071.37983012,199969794,0,23.226179122924805,24.77655029296875,25.053726196289062,35.54429244995117,0.8610745668411255,0.0,0.06188182532787323,99
1668149071.48019719,200070161,0,23.238998413085938,24.78984832763672,25.055635452270508,36.24289321899414,0.8773093223571777,0.0,0.06189623847603798,99
1668149071.57986617,200169830,0,23.219831466674805,24.7828311920166,25.233938217163086,36.941566467285156,0.8935323357582092,0.0,0.06194039806723595,99
1668149071.68026209,200270226,0,23.151411056518555,24.71078109741211,25.030776977539062,37.63968276977539,0.9096946716308594,0.0,0.062298137694597244,99
1668149071.78008604,200370050,0,23.168758392333984,24.753501892089844,25.38062858581543,38.3435173034668,0.9260016083717346,0.0,0.06243910640478134,99
1668149071.88025713,200470221,0,23.222515106201172,24.772319793701172,24.80214500427246,39.03369903564453,0.9420293569564819,0.0,0.06248670071363449,99
1668149071.98085213,200570816,0,23.254043579101562,24.737565994262695,23.802915573120117,39.69886016845703,0.9574970006942749,0.0,0.06232526898384094,99
1668149072.08077812,200670742,0,23.273303985595703,24.751115798950195,23.739389419555664,40.357872009277344,0.9728344082832336,0.0,0.0622515007853508,99
1668149072.18080902,200770773,0,23.285377502441406,24.75760269165039,23.662050247192383,41.01540756225586,0.9881453514099121,0.0,0.06221882253885269,99
1668149072.28083515,200870799,0,23.286148071289062,24.73571014404297,23.336750030517578,41.66387176513672,1.0032455921173096,0.0,0.06211496517062187,99
1668149072.38084412,200970808,0,23.230224609375,24.675809860229492,23.27274513244629,42.310447692871094,1.018265724182129,0.0,0.06211496517062187,99
1668149072.48079801,201070762,0,23.26995086669922,24.715206146240234,23.306367874145508,42.95759582519531,1.0333248376846313,0.0,0.06201118603348732,99
1668149072.58089399,201170858,0,23.30962562561035,24.73885154724121,23.045513153076172,43.59842300415039,1.0482622385025024,0.0,0.062017519026994705,99
1668149072.68080997,201270774,0,23.28767967224121,24.6964111328125,22.76961898803711,44.230430603027344,1.0629802942276,0.0,0.06186889484524727,99
1668149072.78085804,201370822,0,23.264680862426758,24.669292449951172,22.70302391052246,44.86142349243164,1.077660083770752,0.0,0.06186889484524727,99
1668149072.88087916,201470843,0,23.321123123168945,24.713956832885742,22.51797103881836,45.487098693847656,1.0922515392303467,0.0,0.06185430288314819,99
1668149072.98088908,201570853,0,23.323999404907227,24.73344612121582,22.764707565307617,46.119571685791016,1.1070033311843872,0.0,0.06191364675760269,99
1668149073.08103919,201671003,0,23.31134796142578,24.726581573486328,22.850637435913086,46.755313873291016,1.1218233108520508,0.0,0.06193410977721214,99
1668149073.18091416,201770878,0,23.311359405517578,24.72437858581543,22.81207275390625,47.38823318481445,1.1365776062011719,0.0,0.06194174662232399,99
1668149073.28089118,201870855,0,23.25596046447754,24.64922332763672,22.493112564086914,48.01295471191406,1.1511061191558838,0.0,0.06194174662232399,99
1668149073.38089418,201970858,0,23.26487159729004,24.651023864746094,22.37833595275879,48.6346435546875,1.1655696630477905,0.0,0.06194174662232399,99
1668149073.48092103,202070885,0,23.295730590820312,24.71260643005371,22.858308792114258,49.26981735229492,1.1803665161132812,0.0,0.061985164880752563,99
1668149073.58086300,202170827,0,23.295059204101562,24.710481643676758,22.82547378540039,49.903541564941406,1.195129156112671,0.0,0.06201067566871643,99
1668149073.68086100,202270825,0,23.268800735473633,24.676403045654297,22.6993408203125,50.534114837646484,1.2098019123077393,0.0,0.06201067566871643,99
1668149073.78081608,202370780,0,23.217819213867188,24.62070083618164,22.623233795166016,51.16230010986328,1.2243869304656982,0.0,0.06201067566871643,99
1668149073.88083601,202470800,0,23.2647762298584,24.68374252319336,22.877338409423828,51.79796600341797,1.23917555809021,0.0,0.06202496215701103,99
1668149073.98085713,202570821,0,23.268224716186523,24.698001861572266,23.06975746154785,52.43897247314453,1.254090666770935,0.0,0.06197625771164894,99
1668149074.08081913,202670783,0,23.28058624267578,24.701705932617188,22.930055618286133,53.07572555541992,1.2689146995544434,0.0,0.06197625771164894,99
1668149074.18084502,202770809,0,23.226924896240234,24.633764266967773,22.699647903442383,53.70649337768555,1.2835655212402344,0.0,0.06197625771164894,99
1668149074.28083920,202870803,0,23.255098342895508,24.61461639404297,21.93610954284668,54.31584167480469,1.2977359294891357,0.0,0.06197625771164894,99
1668149074.38092303,202970887,0,23.284421920776367,24.66032600402832,22.212615966796875,54.93342590332031,1.312116026878357,0.0,0.0619424507021904,99
1668149074.48084903,203070813,0,23.310773849487305,24.664216995239258,21.854171752929688,55.54008483886719,1.3262577056884766,0.0,0.06193067505955696,99
1668149074.58082414,203170788,0,23.34115219116211,24.666879653930664,21.406417846679688,56.134605407714844,1.3401345014572144,0.0,0.06193132698535919,99
1668149074.68083620,203270800,0,23.353609085083008,24.66986656188965,21.24959945678711,56.72499084472656,1.3539221286773682,0.0,0.061942677944898605,99
1668149074.78086805,203370832,0,23.307804107666016,24.58736228942871,20.754894256591797,57.3017463684082,1.3673650026321411,0.0,0.06165088713169098,99
1668149074.88087511,203470839,0,23.3094425201416,24.575191497802734,20.620546340942383,57.87462615966797,1.380718469619751,0.0,0.06138286739587784,99
1668149074.98081613,203570780,0,23.37871551513672,24.63916778564453,20.525035858154297,58.4444694519043,1.3940407037734985,0.0,0.06141047552227974,99
1668149075.08085918,203670823,0,23.39558219909668,24.6434383392334,20.307756423950195,59.00886154174805,1.4072450399398804,0.0,0.061447255313396454,99
1668149075.18097901,203770943,0,23.37727928161621,24.614160537719727,20.154926300048828,59.56944274902344,1.4203499555587769,0.0,0.06136864796280861,99
1668149075.28089309,203870857,0,23.324859619140625,24.5493106842041,19.95237922668457,60.12324142456055,1.4332672357559204,0.0,0.06136864796280861,99
1668149075.38079309,203970757,0,23.373350143432617,24.59897804260254,19.993196487426758,60.678096771240234,1.44623601436615,0.0,0.06130228936672211,99
1668149075.48083019,204070794,0,23.403249740600586,24.612110137939453,19.720678329467773,61.226139068603516,1.4590619802474976,0.0,0.061299171298742294,99
1668149075.58081102,204170775,0,23.40056610107422,24.60977554321289,19.72988510131836,61.774131774902344,1.471885323524475,0.0,0.06128822639584541,99
1668149075.68084002,204270804,0,23.37183952331543,24.551834106445312,19.32274627685547,62.311073303222656,1.4844346046447754,0.0,0.06106763333082199,99
1668149075.78084207,204370806,0,23.3677921295166,24.53645896911621,19.208480834960938,62.844688415527344,1.4969040155410767,0.0,0.06084117665886879,99
1668149075.88087702,204470841,0,23.43103790283203,24.595895767211914,19.13237190246582,63.376373291015625,1.5093618631362915,0.0,0.060884181410074234,99
1668149075.98089099,204570855,0,23.45212173461914,24.605575561523438,18.923686981201172,63.90214538574219,1.5216923952102661,0.0,0.060952894389629364,99
1668149076.08091617,204670880,0,23.434297561645508,24.608203887939453,19.239477157592773,64.43675994873047,1.5342206954956055,0.0,0.061015535145998,99
1668149076.18102217,204770986,0,23.45643424987793,24.609575271606445,18.882566452026367,64.96184539794922,1.5465372800827026,0.0,0.06106904149055481,99
1668149076.28087997,204870844,0,23.38034439086914,24.524301528930664,18.732189178466797,65.48152160644531,1.558687448501587,0.0,0.06106904149055481,99
1668149076.38085103,204970815,0,23.4043025970459,24.555864334106445,18.890851974487305,66.00615692138672,1.570966124534607,0.0,0.06095866858959198,99
1668149076.48081803,205070782,0,23.441965103149414,24.597110748291016,18.92921257019043,66.5318374633789,1.5832891464233398,0.0,0.06102448329329491,99
1668149076.58080816,205170772,0,23.45606231689453,24.602508544921875,18.764890670776367,67.0530776977539,1.595515251159668,0.0,0.06109527498483658,99
1668149076.68085909,205270823,0,23.448286056518555,24.573341369628906,18.430519104003906,67.56533813476562,1.6075268983840942,0.0,0.06104302778840065,99
1668149076.78076005,205370724,0,23.400470733642578,24.513797760009766,18.238405227661133,68.07150268554688,1.6193712949752808,0.0,0.06104302778840065,99
1668149076.88081312,205470777,0,23.45652961730957,24.576507568359375,18.343053817749023,68.58134460449219,1.6313303709030151,0.0,0.06105738505721092,99
1668149076.98084021,205570804,0,23.464866638183594,24.575538635253906,18.188383102416992,69.08675384521484,1.643189787864685,0.0,0.061064958572387695,99
1668149077.08097720,205670941,0,23.48374366760254,24.591480255126953,18.121173858642578,69.5908432006836,1.6550277471542358,0.0,0.061129454523324966,99
1668149077.18083310,205770797,0,23.426342010498047,24.52085304260254,17.904817581176758,70.0875244140625,1.6666631698608398,0.0,0.061129454523324966,99
1668149077.28095698,205870921,0,23.4288330078125,24.520587921142578,17.859704971313477,70.58428192138672,1.6783015727996826,0.0,0.061129454523324966,99
1668149077.38080907,205970773,0,23.455102920532227,24.555776596069336,18.0106258392334,71.0838851928711,1.6900197267532349,0.0,0.0611124150454998,99
1668149077.48085618,206070820,0,23.480295181274414,24.58361053466797,18.027572631835938,71.58492279052734,1.701784372329712,0.0,0.06120157614350319,99
1668149077.58086801,206170832,0,23.481252670288086,24.56740379333496,17.744314193725586,72.0778579711914,1.7133591175079346,0.0,0.061211250722408295,99
1668149077.68084502,206270809,0,23.496200561523438,24.57853126525879,17.667898178100586,72.56861877441406,1.724890112876892,0.0,0.06125975772738457,99
1668149077.78091812,206370882,0,23.42998504638672,24.507051467895508,17.58197021484375,73.05740356445312,1.7363423109054565,0.0,0.06125975772738457,99
1668149077.88087797,206470842,0,23.461225509643555,24.54551887512207,17.71331787109375,73.54922485351562,1.7478810548782349,0.0,0.06121346727013588,99
1668149077.98090315,206570867,0,23.460458755493164,24.54588508605957,17.741859436035156,74.04227447509766,1.7594481706619263,0.0,0.061178795993328094,99
1668149078.08090115,206670865,0,23.489206314086914,24.579368591308594,17.791269302368164,74.53651428222656,1.771057367324829,0.0,0.06127510219812393,99
1668149078.18095899,206770923,0,23.46564483642578,24.542789459228516,17.595985412597656,75.0256118774414,1.7825343608856201,0.0,0.06121532991528511,99
1668149078.28074718,206870711,0,23.451547622680664,24.50521469116211,17.21247673034668,75.50276184082031,1.7937242984771729,0.0,0.06121532991528511,99
1668149078.38081908,206970783,0,23.486427307128906,24.543994903564453,17.27937889099121,75.9831314086914,1.8050063848495483,0.0,0.06120406091213226,99
1668149078.48090005,207070864,0,23.52945327758789,24.542753219604492,16.559722900390625,76.4433364868164,1.815834879875183,0.0,0.061190661042928696,99
1668149078.58079910,207170763,0,23.497066497802734,24.560182571411133,17.35855484008789,76.9252700805664,1.8271589279174805,0.0,0.06124453246593475,99
1668149078.68090320,207270867,0,23.380537033081055,24.509166717529297,18.377731323242188,77.43633270263672,1.839107871055603,0.0,0.06141286343336105,99
1668149078.78084803,207370812,0,23.351884841918945,24.50705337524414,18.761035919189453,77.95722961425781,1.8512717485427856,0.0,0.06157277897000313,99
1668149078.88087201,207470836,0,23.398170471191406,24.579086303710938,19.23027229309082,78.49150848388672,1.8637728691101074,0.0,0.06140923872590065,99
1668149078.98093820,207570902,0,23.369709014892578,24.56101417541504,19.42146110534668,79.03146362304688,1.8763914108276367,0.0,0.0613396018743515,99
1668149079.07992721,207669891,0,23.37961196899414,24.57411766052246,19.51131248474121,79.56792449951172,1.8889336585998535,0.0,0.061221156269311905,99
1668149079.17986798,207769832,0,23.287200927734375,24.498733520507812,19.720064163208008,80.1155014038086,1.9016852378845215,0.0,0.06143651902675629,98
1668149079.28088498,207870849,0,23.268417358398438,24.492977142333984,19.861539840698242,80.6728744506836,1.9146543741226196,0.0,0.06165487319231033,98
1668149079.38098407,207970948,0,23.34115219116211,24.57265853881836,20.021121978759766,81.22960662841797,1.9276491403579712,0.0,0.061510346829891205,98
1668149079.48086810,208070832,0,23.317386627197266,24.558908462524414,20.20740509033203,81.79031372070312,1.9407234191894531,0.0,0.06143893674015999,98
1668149079.58092117,208170885,0,23.322656631469727,24.561382293701172,20.186534881591797,82.35139465332031,1.9538092613220215,0.0,0.06136399134993553,98
1668149079.68094015,208270904,0,23.282793045043945,24.531085968017578,20.321874618530273,82.91604614257812,1.9669560194015503,0.0,0.061426110565662384,98
1668149079.78096604,208370930,0,23.21513557434082,24.474740982055664,20.407188415527344,83.48310852050781,1.9801204204559326,0.0,0.06172361597418785,98
1668149079.88076806,208470732,0,23.264934539794922,24.525184631347656,20.400266647338867,84.04869842529297,1.9932788610458374,0.0,0.061776190996170044,98
1668149079.98088312,208570847,0,23.27598762512207,24.526025772094727,20.220600128173828,84.61107635498047,2.006368637084961,0.0,0.06182006746530533,98
1668149080.08091617,208670880,0,23.313457489013672,24.550880432128906,20.01651954650879,85.16732025146484,2.019336462020874,0.0,0.06182006746530533,98
1668149080.17971110,208769675,0,23.285377502441406,24.51249885559082,19.84988021850586,85.71210479736328,2.032021999359131,0.0,0.06182006746530533,98
1668149080.27975416,208869718,0,23.279918670654297,24.532997131347656,20.268781661987305,86.27542114257812,2.045135974884033,0.0,0.06182306259870529,98
1668149080.37970400,208969668,0,23.306461334228516,24.610595703125,21.094621658325195,86.86112976074219,2.0587868690490723,0.0,0.06182306259870529,98
1668149080.48086309,209070827,0,23.28835105895996,24.571487426757812,20.791107177734375,87.4453353881836,2.072391986846924,0.0,0.06171565130352974,98
1668149080.57979512,209169759,0,23.26717185974121,24.56978416442871,21.137481689453125,88.02633666992188,2.0859100818634033,0.0,0.06162573769688606,98
1668149080.67986917,209269833,0,23.22174835205078,24.582794189453125,22.135278701782227,88.64170837402344,2.1002001762390137,0.0,0.06148764491081238,98
1668149080.77978802,209369752,0,23.119211196899414,24.483657836914062,22.081880569458008,89.254638671875,2.114370584487915,0.0,0.06179029121994972,98
1668149080.87978506,209469749,0,23.176136016845703,24.495210647583008,21.270465850830078,89.84552001953125,2.1280648708343506,0.0,0.0620143748819828,98
1668149080.97983217,209569796,0,23.24148941040039,24.545320510864258,21.024648666381836,90.42986297607422,2.141645669937134,0.0,0.0620143748819828,98
1668149081.07979798,209669762,0,23.258737564086914,24.561655044555664,21.009920120239258,91.01332092285156,2.1552162170410156,0.0,0.0620143748819828,98
1668149081.17942905,209769393,0,23.23679542541504,24.5172176361084,20.64717674255371,91.58477783203125,2.168494939804077,0.0,0.0620143748819828,98
1668149081.28083420,209870798,0,23.203636169433594,24.471269607543945,20.440948486328125,92.16061401367188,2.181856393814087,0.0,0.0620143748819828,98
1668149081.38085008,209970814,0,23.258546829223633,24.508018493652344,20.173646926879883,92.72113037109375,2.1948931217193604,0.0,0.06193586438894272,98
1668149081.47976518,210069729,0,23.27324104309082,24.531564712524414,20.30820083618164,93.27916717529297,2.2078804969787598,0.0,0.0619613379240036,98
1668149081.57976198,210169726,0,23.280780792236328,24.52690315246582,20.110427856445312,93.83781433105469,2.22088623046875,0.0,0.061963990330696106,98
1668149081.67975807,210269722,0,23.261037826538086,24.495784759521484,19.962814331054688,94.39229583740234,2.2337839603424072,0.0,0.06185236573219299,98
1668149081.78003716,210370001,0,23.26410675048828,24.465988159179688,19.49296760559082,94.93538665771484,2.2464184761047363,0.0,0.06165715306997299,98
1668149081.87965298,210469617,0,23.319015502929688,24.5269718170166,19.56846046447754,95.47691345214844,2.2590463161468506,0.0,0.0617297887802124,98
1668149081.98009205,210570056,0,23.340578079223633,24.54232406616211,19.432510375976562,96.01911163330078,2.2717015743255615,0.0,0.06184202805161476,98
1668149082.07972813,210669692,0,23.315853118896484,24.529720306396484,19.61572265625,96.56205749511719,2.284360885620117,0.0,0.06188235431909561,98
1668149082.18005013,210770014,0,23.35274887084961,24.538671493530273,19.14434242248535,97.09559631347656,2.296820640563965,0.0,0.06194639578461647,98
1668149082.27974820,210869712,0,23.2818660736084,24.468406677246094,19.154296875,97.6260986328125,2.309171676635742,0.0,0.06194639578461647,98
1668149082.38005114,210970015,0,23.301095962524414,24.48113441467285,19.08848762512207,98.1579818725586,2.3215651512145996,0.0,0.06181932985782623,98
1668149082.47979498,211069759,0,23.378620147705078,24.556974411010742,19.005935668945312,98.68461608886719,2.3338770866394043,0.0,0.06199922785162926,98
1668149082.58004498,211170009,0,23.371623992919922,24.545541763305664,18.904661178588867,99.21109771728516,2.346181869506836,0.0,0.062096722424030304,98
1668149082.67973518,211269699,0,23.339811325073242,24.507673263549805,18.826404571533203,99.73246765136719,2.3583505153656006,0.0,0.06203314661979675,98
1668149082.78002715,211369991,0,23.310869216918945,24.463348388671875,18.57843780517578,100.25009155273438,2.3704166412353516,0.0,0.06203314661979675,98
1668149082.87969899,211469663,0,23.35887908935547,24.50889778137207,18.541610717773438,100.76348114013672,2.382408857345581,0.0,0.062023647129535675,98
1668149082.98001218,211569976,0,23.371816635131836,24.534332275390625,18.717151641845703,101.28507995605469,2.394599437713623,0.0,0.06210961937904358,98
1668149083.07969809,211669662,0,23.403993606567383,24.553403854370117,18.465503692626953,101.79638671875,2.4065659046173096,0.0,0.062246356159448624,98
1668149083.18001914,211769983,0,23.368558883666992,24.48875617980957,18.034324645996094,102.29904174804688,2.4183123111724854,0.0,0.06211468577384949,98
1668149083.27974105,211869705,0,23.365970611572266,24.474559783935547,17.89192771911621,102.79469299316406,2.429893732070923,0.0,0.06196029856801033,98
1668149083.38009214,211970056,0,23.369997024536133,24.501605987548828,18.26940155029297,103.30400085449219,2.44179630279541,0.0,0.06194010749459267,98
1668149083.47969818,212069662,0,23.38475227355957,24.535634994506836,18.580585479736328,103.8181381225586,2.4538192749023438,0.0,0.06194010749459267,98
1668149083.58015800,212170122,0,23.377470016479492,24.53240203857422,18.645952224731445,104.33850860595703,2.4659841060638428,0.0,0.06194010749459267,98
1668149083.67974210,212269706,0,23.39289665222168,24.551877975463867,18.711320877075195,104.85614776611328,2.478093147277832,0.0,0.06194010749459267,98
1668149083.78004003,212370004,0,23.31997299194336,24.45838737487793,18.3792667388916,105.36824798583984,2.49003529548645,0.0,0.06194010749459267,98
1668149083.87968802,212469652,0,23.325307846069336,24.480884552001953,18.618947982788086,105.88365936279297,2.5020575523376465,0.0,0.06206454336643219,98
1668149083.98005605,212570020,0,23.3953914642334,24.545242309570312,18.485143661499023,106.39906311035156,2.514115571975708,0.0,0.06220410019159317,98
1668149084.07977700,212669741,0,23.377853393554688,24.544084548950195,18.748456954956055,106.91844177246094,2.5262575149536133,0.0,0.06220410019159317,98
1668149084.17998815,212769952,0,23.359262466430664,24.520843505859375,18.6741886138916,107.43830871582031,2.5384011268615723,0.0,0.06220248341560364,98
1668149084.27978301,212869747,0,23.321794509887695,24.476293563842773,18.560333251953125,107.9528579711914,2.550401449203491,0.0,0.06220248341560364,98
1668149084.38003707,212970001,0,23.35686683654785,24.51246452331543,18.578744888305664,108.47029113769531,2.5624871253967285,0.0,0.062200020998716354,98
1668149084.47967911,213069643,0,23.368175506591797,24.530988693237305,18.69474983215332,108.98758697509766,2.574575424194336,0.0,0.062200020998716354,98
1668149084.58005714,213170021,0,23.376415252685547,24.542417526245117,18.74599838256836,109.510498046875,2.586799144744873,0.0,0.062200020998716354,98
1668149084.67963505,213269599,0,23.328792572021484,24.487445831298828,18.62784767150879,110.02580261230469,2.598820447921753,0.0,0.062200020998716354,98
1668149084.78000402,213369968,0,23.305931091308594,24.473758697509766,18.72260856628418,110.5478286743164,2.6109867095947266,0.0,0.0623752735555172,98
1668149084.87970805,213469672,0,23.37152862548828,24.56041717529297,19.060253143310547,111.07575988769531,2.6233253479003906,0.0,0.0623752735555172,98
1668149084.98004103,213570005,0,23.34182357788086,24.537742614746094,19.197433471679688,111.61083984375,2.635815143585205,0.0,0.062295734882354736,98
1668149085.07967114,213669635,0,23.35073471069336,24.551088333129883,19.268632888793945,112.1441421508789,2.648268222808838,0.0,0.062295734882354736,98
1668149085.18013310,213770097,0,23.34843635559082,24.551393508911133,19.344125747680664,112.68400573730469,2.6608731746673584,0.0,0.06218723580241203,98
1668149085.27973604,213869700,0,23.277328491210938,24.480087280273438,19.27691650390625,113.21739196777344,2.6732890605926514,0.0,0.06239376962184906,98
1668149085.38004804,213970012,0,23.280012130737305,24.502172470092773,19.55894660949707,113.76243591308594,2.6859776973724365,0.0,0.06248604506254196,98
1668149085.47974205,214069706,0,23.31681251525879,24.572036743164062,20.15768814086914,114.3207015991211,2.6989946365356445,0.0,0.06227024644613266,98
1668149085.58000302,214169967,0,23.290651321411133,24.557361602783203,20.385400772094727,114.88848876953125,2.712218761444092,0.0,0.06213806942105293,98
1668149085.67977810,214269742,0,23.252477645874023,24.52655792236328,20.499835968017578,115.45664978027344,2.7254300117492676,0.0,0.06215079128742218,98
1668149085.78002715,214369991,0,23.19127655029297,24.488861083984375,20.81995391845703,116.03650665283203,2.738877773284912,0.0,0.06232409179210663,98
1668149085.87969208,214469656,0,23.235740661621094,24.533706665039062,20.838062286376953,116.61344909667969,2.7522833347320557,0.0,0.06228819862008095,98
1668149085.98004818,214570012,0,23.24666404724121,24.55666160583496,21.075593948364258,117.20100402832031,2.765942096710205,0.0,0.062157079577445984,98
1668149086.07974505,214669709,0,23.252702713012695,24.563817977905273,21.144336700439453,117.78662109375,2.7795591354370117,0.0,0.062007829546928406,98
1668149086.17998314,214769947,0,23.2237606048584,24.518335342407227,20.85739517211914,118.36741638183594,2.7930474281311035,0.0,0.06206785887479782,98
1668149086.27967501,214869639,0,23.21120834350586,24.509098052978516,20.879182815551758,118.9456558227539,2.806468963623047,0.0,0.06216191500425339,98
1668149086.37999606,214969960,0,23.19204330444336,24.494565963745117,20.904041290283203,119.52823638916016,2.8199801445007324,0.0,0.06230958551168442,98
1668149086.47971416,215069678,0,23.267065048217773,24.565542221069336,20.83911895751953,120.10548400878906,2.8334109783172607,0.0,0.06230958551168442,98
1668149086.58002520,215169989,0,23.271963119506836,24.557676315307617,20.634288787841797,120.6805191040039,2.8467931747436523,0.0,0.06230958551168442,98
1668149086.67969704,215269661,0,23.27311134338379,24.554651260375977,20.545595169067383,121.24940490722656,2.860032796859741,0.0,0.06237539276480675,98
1668149086.78011203,215370076,0,23.200571060180664,24.467906951904297,20.31788444519043,121.81617736816406,2.8731822967529297,0.0,0.06237539276480675,98
1668149086.87972999,215469694,0,23.25749397277832,24.531980514526367,20.428363800048828,122.38150787353516,2.8863306045532227,0.0,0.0623880997300148,98
1668149086.98014808,215570112,0,23.257015228271484,24.522932052612305,20.29854965209961,122.94755554199219,2.8994951248168945,0.0,0.06236490234732628,98
1668149087.07975507,215669719,0,23.299083709716797,24.563749313354492,20.235944747924805,123.50769805908203,2.912545919418335,0.0,0.062495991587638855,98
1668149087.18007898,215770043,0,23.26132583618164,24.504085540771484,19.922611236572266,124.06294250488281,2.925461530685425,0.0,0.0623793788254261,98
1668149087.27968907,215869653,0,23.25151824951172,24.471813201904297,19.56245994567871,124.6041259765625,2.938044786453247,0.0,0.0623793788254261,98
1668149087.38006210,215970026,0,23.28835105895996,24.520912170410156,19.757198333740234,125.1551742553711,2.9508776664733887,0.0,0.062385398894548416,98
1668149087.47968197,216069646,0,23.325817108154297,24.55157470703125,19.611427307128906,125.69790649414062,2.9635374546051025,0.0,0.0625021904706955,98
1668149087.57997203,216169936,0,23.314895629882812,24.547468185424805,19.69674301147461,126.24666595458984,2.9763317108154297,0.0,0.06257744878530502,98
1668149087.67970419,216269668,0,23.29774284362793,24.522480010986328,19.58196449279785,126.78919219970703,2.988971471786499,0.0,0.06254418939352036,98
1668149087.77983499,216369799,0,23.26573371887207,24.49419593811035,19.641502380371094,127.33555603027344,3.001682996749878,0.0,0.06254418939352036,98
1668149087.87980819,216469772,0,23.285669326782227,24.523054122924805,19.784818649291992,127.8850326538086,3.0144779682159424,0.0,0.06254211813211441,98
1668149087.97975898,216569723,0,23.312116622924805,24.534841537475586,19.537466049194336,128.42750549316406,3.0271244049072266,0.0,0.06258364021778107,98
1668149088.07971120,216669675,0,23.300329208374023,24.539548873901367,19.785432815551758,128.9768829345703,3.0399250984191895,0.0,0.06263288855552673,98
1668149088.17997503,216769939,0,23.29709243774414,24.53778648376465,19.80899429321289,129.52862548828125,3.052779197692871,0.0,0.06263288855552673,98
1668149088.27970505,216869669,0,23.22338104248047,24.452932357788086,19.631067276000977,130.072509765625,3.0654098987579346,0.0,0.06263288855552673,98
1668149088.38005304,216970017,0,23.2647762298584,24.5035343170166,19.778066635131836,130.6238555908203,3.0782368183135986,0.0,0.06263288855552673,98
1668149088.47971010,217069674,0,23.284610748291016,24.524290084838867,19.792797088623047,131.1715850830078,3.0909905433654785,0.0,0.06263288855552673,98
1668149088.58006120,217170025,0,23.303298950195312,24.538801193237305,19.70073127746582,131.7210235595703,3.1037940979003906,0.0,0.06271348148584366,98
1668149088.67974901,217269713,0,23.28816032409668,24.50840950012207,19.472713470458984,132.26028442382812,3.1163525581359863,0.0,0.06266452372074127,98
1668149088.78013515,217370099,0,23.246856689453125,24.462661743164062,19.40182113647461,132.8013458251953,3.1289305686950684,0.0,0.06266452372074127,98
1668149088.87971616,217469680,0,23.292375564575195,24.51683235168457,19.531328201293945,133.34165954589844,3.1415157318115234,0.0,0.06269193440675735,98
1668149088.98003912,217570003,0,23.313838958740234,24.5412654876709,19.54421615600586,133.8863525390625,3.15421462059021,0.0,0.06280254572629929,98
1668149089.07970905,217669673,0,23.31924057006836,24.5382022857666,19.386510848999023,134.42312622070312,3.166731834411621,0.0,0.06287679821252823,98
1668149089.17999411,217769958,0,23.254714965820312,24.465415954589844,19.255128860473633,134.95956420898438,3.179206371307373,0.0,0.06287679821252823,98
1668149089.27964902,217869613,0,23.259506225585938,24.471750259399414,19.279680252075195,135.49327087402344,3.191620111465454,0.0,0.06287679821252823,98
1668149089.38004017,217970004,0,23.307132720947266,24.53687858581543,19.558027267456055,136.03868103027344,3.204332113265991,0.0,0.06287679821252823,98
1668149089.47966504,218069629,0,23.292856216430664,24.52283477783203,19.561710357666016,136.58013916015625,3.2169439792633057,0.0,0.06287679821252823,98
1668149089.57967520,218169639,0,23.305599212646484,24.524036407470703,19.365915298461914,137.11817932128906,3.2294833660125732,0.0,0.0629165843129158,98
1668149089.67980814,218269772,0,23.292470932006836,24.525022506713867,19.59025001525879,137.66311645507812,3.2421762943267822,0.0,0.0629165843129158,98
1668149089.77973318,218369697,0,23.241968154907227,24.45001792907715,19.200807571411133,138.19610595703125,3.254563808441162,0.0,0.0629165843129158,98
1668149089.87976098,218469725,0,23.260143280029297,24.501989364624023,19.73261260986328,138.74444580078125,3.2673182487487793,0.0,0.06293371319770813,98
1668149089.98003912,218570003,0,23.2825984954834,24.519193649291992,19.649173736572266,139.29180908203125,3.280062437057495,0.0,0.06293371319770813,98
1668149090.07968211,218669646,0,23.29122543334961,24.51966094970703,19.50616455078125,139.83175659179688,3.2926385402679443,0.0,0.06297677010297775,98
1668149090.18004918,218770013,0,23.25615119934082,24.49172592163086,19.594547271728516,140.3780975341797,3.3053441047668457,0.0,0.06305709481239319,98
1668149090.27972102,218869685,0,23.229129791259766,24.45075225830078,19.373279571533203,140.91452026367188,3.3178048133850098,0.0,0.06305709481239319,98
1668149090.38006020,218970024,0,23.26199722290039,24.49508285522461,19.549739837646484,141.45945739746094,3.3304810523986816,0.0,0.06307428330183029,98
1668149090.47972202,219069686,0,23.287296295166016,24.519742965698242,19.539613723754883,142.00042724609375,3.343078851699829,0.0,0.06307428330183029,98
1668149090.58007717,219170041,0,23.270334243774414,24.511037826538086,19.682315826416016,142.5491485595703,3.3558478355407715,0.0,0.0630364865064621,98
1668149090.67971420,219269678,0,23.220855712890625,24.42743682861328,19.141000747680664,143.07894897460938,3.368150472640991,0.0,0.0630364865064621,98
1668149090.77996802,219369932,0,23.21571159362793,24.447534561157227,19.48468017578125,143.62159729003906,3.3807485103607178,0.0,0.06322011351585388,98
1668149090.87961102,219469575,0,23.268898010253906,24.509801864624023,19.62830352783203,144.16493225097656,3.3933913707733154,0.0,0.06322011351585388,98
1668149090.98001099,219569975,0,23.248197555541992,24.492395401000977,19.683237075805664,144.7139129638672,3.4061543941497803,0.0,0.06321106851100922,98
1668149091.07964015,219669604,0,23.25318145751953,24.500547409057617,19.746763229370117,145.26043701171875,3.41886305809021,0.0,0.06316808611154556,98
1668149091.18002510,219769989,0,23.25251007080078,24.49752426147461,19.717609405517578,145.810302734375,3.4316487312316895,0.0,0.06314220279455185,98
1668149091.27970219,219869666,0,23.212358474731445,24.44084358215332,19.455833435058594,146.3490447998047,3.4441542625427246,0.0,0.06314220279455185,98
1668149091.38000798,219969972,0,23.208045959472656,24.44003677368164,19.51137924194336,146.89273071289062,3.4567720890045166,0.0,0.06314220279455185,98
1668149091.47976804,220069732,0,23.25151824951172,24.489835739135742,19.611562728881836,147.4362335205078,3.469409227371216,0.0,0.06314220279455185,98
1668149091.58003116,220169995,0,23.260942459106445,24.50188636779785,19.653162002563477,147.983642578125,3.482142448425293,0.0,0.06314220279455185,98
1668149091.67970204,220269666,0,23.242353439331055,24.468860626220703,19.424530029296875,148.52146911621094,3.494642972946167,0.0,0.06314220279455185,98
1668149091.78004408,220370008,0,23.22174835205078,24.43697738647461,19.245920181274414,149.0579071044922,3.5071001052856445,0.0,0.06314220279455185,98
1668149091.87971401,220469678,0,23.243120193481445,24.472610473632812,19.47209930419922,149.5970916748047,3.519632577896118,0.0,0.0631411150097847,98
1668149091.98017812,220570142,0,23.2679386138916,24.493488311767578,19.386476516723633,150.1381378173828,3.532221555709839,0.0,0.0632166862487793,98
1668149092.07973909,220669703,0,23.281835556030273,24.494531631469727,19.164289474487305,150.66819763183594,3.544562339782715,0.0,0.06327894330024719,98
1668149092.18006015,220770024,0,23.203828811645508,24.427709579467773,19.34105682373047,151.2072296142578,3.557069778442383,0.0,0.06327894330024719,98
1668149092.27971697,220869681,0,23.22308921813965,24.445398330688477,19.316198348999023,151.7419891357422,3.569488525390625,0.0,0.06327894330024719,98
1668149092.38000202,220969966,0,23.260143280029297,24.483308792114258,19.312517166137695,152.27999877929688,3.582002639770508,0.0,0.06333540380001068,98
1668149092.47961712,221069581,0,23.248868942260742,24.478759765625,19.418701171875,152.81739807128906,3.594496488571167,0.0,0.06333540380001068,98
1668149092.58001399,221169978,0,23.259984970092773,24.496484756469727,19.523042678833008,153.36190795898438,3.607161521911621,0.0,0.06333540380001068,98
1668149092.67967820,221269642,0,23.28375244140625,24.492019653320312,19.060253143310547,153.88961791992188,3.619448661804199,0.0,0.06339196860790253,98
1668149092.78002310,221369987,0,23.199708938598633,24.41322898864746,19.143112182617188,154.42324829101562,3.631828784942627,0.0,0.06339196860790253,98
1668149092.87963009,221469594,0,23.23986053466797,24.456064224243164,19.18546485900879,154.95413208007812,3.6441662311553955,0.0,0.06339196860790253,98
1668149092.98000598,221569970,0,23.27435874938965,24.489049911499023,19.136974334716797,155.48776245117188,3.656585931777954,0.0,0.06347352266311646,98
1668149093.07976508,221669729,0,23.24273681640625,24.475940704345703,19.434043884277344,156.02633666992188,3.6691038608551025,0.0,0.06345590204000473,98
1668149093.18008304,221770047,0,23.221080780029297,24.44552230834961,19.295944213867188,156.5640869140625,3.6815907955169678,0.0,0.06345590204000473,98
1668149093.27978897,221869753,0,23.19817543029785,24.417545318603516,19.21601676940918,157.09634399414062,3.6939380168914795,0.0,0.06345590204000473,98
1668149093.38006115,221970025,0,23.215518951416016,24.45306968688965,19.49419403076172,157.6393585205078,3.7065443992614746,0.0,0.06348307430744171,98
1668149093.47970200,222069666,0,23.254810333251953,24.492965698242188,19.503705978393555,158.17922973632812,3.7190988063812256,0.0,0.06348307430744171,98
1668149093.58001804,222169982,0,23.25624656677246,24.487621307373047,19.39691162109375,158.71978759765625,3.7316701412200928,0.0,0.06348307430744171,98
1668149093.67970014,222269664,0,23.195491790771484,24.417125701904297,19.243467330932617,159.25267028808594,3.744030714035034,0.0,0.06348307430744171,98
1668149093.78004003,222370004,0,23.23401641845703,24.45854377746582,19.29041862487793,159.79037475585938,3.756523847579956,0.0,0.06347854435443878,98
1668149093.87960720,222469571,0,23.203828811645508,24.438655853271484,19.425451278686523,160.3276824951172,3.768991231918335,0.0,0.06356747448444366,97
1668149093.97999406,222569958,0,23.257972717285156,24.484670639038086,19.26740264892578,160.864990234375,3.7814881801605225,0.0,0.06366700679063797,97
1668149094.07994199,222669906,0,23.245983123779297,24.484302520751953,19.449934005737305,161.405029296875,3.794041872024536,0.0,0.06366700679063797,97
1668149094.18012118,222770085,0,23.235933303833008,24.469743728637695,19.379112243652344,161.94435119628906,3.8065733909606934,0.0,0.06366700679063797,97
1668149094.27968502,222869649,0,23.1899356842041,24.41780662536621,19.285816192626953,162.47772216796875,3.8189423084259033,0.0,0.06366700679063797,97
1668149094.38002419,222969988,0,23.175466537475586,24.423446655273438,19.554651260375977,163.02284240722656,3.831575632095337,0.0,0.06382008641958237,97
1668149094.47965407,223069618,0,23.23392105102539,24.47559356689453,19.455833435058594,163.5613250732422,3.8440868854522705,0.0,0.06382008641958237,97
1668149094.58006907,223170033,0,23.244749069213867,24.48279571533203,19.37266731262207,164.10159301757812,3.856645345687866,0.0,0.06390683352947235,97
1668149094.67973304,223269697,0,23.205936431884766,24.44119644165039,19.32908821105957,164.6368865966797,3.869067430496216,0.0,0.06390683352947235,97
1668149094.78005815,223370022,0,23.186866760253906,24.411497116088867,19.16275405883789,165.1709442138672,3.8814504146575928,0.0,0.06390683352947235,97
1668149094.87975407,223469718,0,23.23171615600586,24.46489906311035,19.282747268676758,165.7050018310547,3.893857717514038,0.0,0.06395269930362701,97
1668149094.98004913,223570013,0,23.238317489624023,24.4821720123291,19.44959259033203,166.24684143066406,3.90644907951355,0.0,0.06395269930362701,97
1668149095.07979107,223669755,0,23.249059677124023,24.482498168945312,19.261571884155273,166.78060913085938,3.918858766555786,0.0,0.06403624266386032,97
1668149095.18004417,223770008,0,23.187252044677734,24.40131378173828,18.9589786529541,167.30862426757812,3.9311020374298096,0.0,0.06403624266386032,97
1668149095.27970719,223869671,0,23.199325561523438,24.43211555480957,19.251445770263672,167.8416290283203,3.943467378616333,0.0,0.06403624266386032,97
1668149095.37997413,223969938,0,23.246280670166016,24.485065460205078,19.345046997070312,168.38046264648438,3.955993175506592,0.0,0.06403624266386032,97
1668149095.47960711,224069571,0,23.23621940612793,24.461410522460938,19.127155303955078,168.9098663330078,3.968294382095337,0.0,0.06405504792928696,97
1668149095.58000112,224169965,0,23.229129791259766,24.46562385559082,19.303617477416992,169.44822692871094,3.980800151824951,0.0,0.06405504792928696,97
1668149095.67964005,224269604,0,23.22088623046875,24.467435836791992,19.471792221069336,169.98719787597656,3.9933156967163086,0.0,0.06401819735765457,97
1668149095.78002310,224369987,0,23.189979553222656,24.400747299194336,18.912878036499023,170.51461791992188,4.005546569824219,0.0,0.06401819735765457,97
1668149095.87968302,224469647,0,23.19146728515625,24.427730560302734,19.282747268676758,171.04847717285156,4.017927646636963,0.0,0.06411243975162506,97
1668149095.98008513,224570049,0,23.214466094970703,24.454408645629883,19.34013557434082,171.58790588378906,4.030450344085693,0.0,0.06411243975162506,97
1668149096.07970810,224669672,0,23.24120330810547,24.481718063354492,19.349037170410156,172.12339782714844,4.042895793914795,0.0,0.06411243975162506,97
1668149096.18000817,224769972,0,23.193288803100586,24.42839241027832,19.2646427154541,172.66017150878906,4.05534553527832,0.0,0.06411243975162506,97
1668149096.27966499,224869629,0,23.15169906616211,24.404035568237305,19.473939895629883,173.19931030273438,4.067827224731445,0.0,0.0643082857131958,97
1668149096.38002014,224969984,0,23.212644577026367,24.44228172302246,19.124393463134766,173.7324676513672,4.080203533172607,0.0,0.06429676711559296,97
1668149096.47975898,225069723,0,23.22615623474121,24.471105575561523,19.362539291381836,174.26895141601562,4.092663764953613,0.0,0.06429676711559296,97
1668149096.58003306,225169997,0,23.23171615600586,24.474592208862305,19.33031463623047,174.80740356445312,4.105172634124756,0.0,0.06429676711559296,97
1668149096.67973018,225269694,0,23.174537658691406,24.397216796875,19.016197204589844,175.3341064453125,4.1173787117004395,0.0,0.06429676711559296,97
1668149096.77998900,225369953,0,23.191946029663086,24.407119750976562,18.899442672729492,175.86048889160156,4.129586696624756,0.0,0.06429676711559296,97
1668149096.87971997,225469684,0,23.212739944458008,24.446687698364258,19.181781768798828,176.3919219970703,4.141922473907471,0.0,0.0643291100859642,97
1668149096.97996116,225569925,0,23.22338104248047,24.462520599365234,19.262493133544922,176.92832946777344,4.154379844665527,0.0,0.0643291100859642,97
1668149097.07960510,225669569,0,23.2113037109375,24.45587158203125,19.346887588500977,177.4638671875,4.166810512542725,0.0,0.0643291100859642,97
1668149097.17999005,225769954,0,23.197792053222656,24.443798065185547,19.366836547851562,178.00393676757812,4.1793389320373535,0.0,0.06433708220720291,97
1668149097.27967215,225869636,0,23.158597946166992,24.392894744873047,19.184850692749023,178.53518676757812,4.191641807556152,0.0,0.06433708220720291,97
1668149097.38001204,225969976,0,23.18035316467285,24.425525665283203,19.339523315429688,179.0742950439453,4.204138278961182,0.0,0.0643848180770874,97
1668149097.47939610,226069360,0,23.210311889648438,24.444581985473633,19.16043472290039,179.60328674316406,4.216416358947754,0.0,0.06441765278577805,97
1668149097.57999420,226169958,0,23.200571060180664,24.44778060913086,19.361310958862305,180.1443634033203,4.228969573974609,0.0,0.06441765278577805,97
1668149097.67971110,226269675,0,23.18207550048828,24.427968978881836,19.326326370239258,180.6797332763672,4.24138069152832,0.0,0.06446610391139984,97
1668149097.77988505,226369849,0,23.1591739654541,24.386449813842773,19.03754234313965,181.2095184326172,4.253650188446045,0.0,0.06446610391139984,97
1668149097.87968516,226469649,0,23.2010498046875,24.439573287963867,19.201114654541016,181.74185180664062,4.266001224517822,0.0,0.06450267881155014,97
1668149097.98000407,226569968,0,23.21120834350586,24.45992660522461,19.35916519165039,182.2812957763672,4.278522491455078,0.0,0.06450267881155014,97
1668149098.07976604,226669730,0,23.222131729125977,24.46341896057129,19.21462059020996,182.81369018554688,4.290885925292969,0.0,0.06460119783878326,97
1668149098.18003011,226769994,0,23.15188980102539,24.374799728393555,18.930131912231445,183.3409423828125,4.3030924797058105,0.0,0.06460119783878326,97
1668149098.27983403,226869798,0,23.193479537963867,24.440040588378906,19.29625129699707,183.8761444091797,4.315505504608154,0.0,0.06460119783878326,97
1668149098.38000202,226969966,0,23.15079116821289,24.391618728637695,19.20749282836914,184.41062927246094,4.327878952026367,0.0,0.06460119783878326,97
1668149098.47972918,227069693,0,23.190319061279297,24.445344924926758,19.42729377746582,184.9488525390625,4.340360641479492,0.0,0.06460119783878326,97
1668149098.57996011,227169924,0,23.19721794128418,24.45333480834961,19.444169998168945,185.49026489257812,4.352919578552246,0.0,0.06460119783878326,97
1668149098.67979002,227269754,0,23.192138671875,24.441852569580078,19.345046997070312,186.02674865722656,4.36536169052124,0.0,0.06460119783878326,97
1668149098.77965212,227369616,0,23.125442504882812,24.376781463623047,19.29655647277832,186.56207275390625,4.37774133682251,0.0,0.06484781950712204,97
1668149098.87973404,227469698,0,23.155914306640625,24.42319679260254,19.535011291503906,187.10520935058594,4.390317916870117,0.0,0.06487234681844711,97
1668149098.97974420,227569708,0,23.178340911865234,24.451833724975586,19.630760192871094,187.6505889892578,4.402958869934082,0.0,0.06487234681844711,97
1668149099.07965302,227669617,0,23.201528549194336,24.45758056640625,19.334306716918945,188.18722534179688,4.415409564971924,0.0,0.06496493518352509,97
1668149099.18001819,227769982,0,23.16147232055664,24.412460327148438,19.25635528564453,188.72412109375,4.427845001220703,0.0,0.06496493518352509,97
1668149099.27977014,227869734,0,23.142595291137695,24.388925552368164,19.184646606445312,189.2557373046875,4.44014835357666,0.0,0.06496493518352509,97
1668149099.38016510,227970129,0,23.188880920410156,24.44624900817871,19.35455894470215,189.7955322265625,4.45266580581665,0.0,0.06496493518352509,97
1668149099.47977400,228069738,0,23.222898483276367,24.474363327026367,19.215232849121094,190.32723999023438,4.46501350402832,0.0,0.06512877345085144,97
1668149099.57986403,228169828,0,23.207183837890625,24.465904235839844,19.32663345336914,190.8645477294922,4.477482795715332,0.0,0.06512877345085144,97
1668149099.67971897,228269683,0,23.214275360107422,24.460905075073242,19.122859954833984,191.39508056640625,4.489798545837402,0.0,0.06519056111574173,97
1668149099.77969217,228369656,0,23.192331314086914,24.43779754638672,19.115800857543945,191.9258270263672,4.502107620239258,0.0,0.06515374034643173,97
1668149099.87982011,228469784,0,23.157352447509766,24.407978057861328,19.194978713989258,192.45989990234375,4.514475345611572,0.0,0.06515374034643173,97
1668149099.98006010,228570024,0,23.162429809570312,24.40541648864746,19.07774543762207,192.9911346435547,4.526780128479004,0.0,0.06515374034643173,97
1668149100.07962203,228669586,0,23.176136016845703,24.4448184967041,19.486419677734375,193.5301055908203,4.539271354675293,0.0,0.06510593742132187,97
1668149100.17999411,228769958,0,23.167604446411133,24.439102172851562,19.53531837463379,194.0747528076172,4.551889419555664,0.0,0.06508715450763702,97
1668149100.27963114,228869595,0,23.134641647338867,24.390579223632812,19.29625129699707,194.60891723632812,4.564247131347656,0.0,0.06508715450763702,97
1668149100.38017106,228970135,0,23.140104293823242,24.412269592285156,19.52580451965332,195.15426635742188,4.576866626739502,0.0,0.06515305489301682,97
1668149100.47985506,229069819,0,23.167030334472656,24.443235397338867,19.58779525756836,195.69668579101562,4.589433193206787,0.0,0.06515305489301682,97
1668149100.57969809,229169662,0,23.185718536376953,24.47028160095215,19.716075897216797,196.24354553222656,4.602112293243408,0.0,0.06515305489301682,97
