timestamp,TimeUS,Instance,Volt,VoltR,Curr,CurrTot,EnrgTot,Temp,Res,RemPct
1668153241.07953811,116488737,0,24.76808738708496,24.81594467163086,0.2537587285041809,10.241486549377441,0.2539529800415039,0.0,0.18859630823135376,99
1668153241.17957902,116588778,0,24.805030822753906,24.866207122802734,0.3243815302848816,10.25050163269043,0.2541765868663788,0.0,0.18859630823135376,99
1668153241.27958894,116688788,0,24.784042358398438,24.837810516357422,0.2850997745990753,10.2584228515625,0.25437289476394653,0.0,0.18859630823135376,99
1668153241.37976193,116788961,0,24.757211685180664,24.79928970336914,0.2231082022190094,10.264631271362305,0.25452661514282227,0.0,0.18859630823135376,99
1668153241.47958302,116888782,0,24.76848602294922,24.815303802490234,0.24823898077011108,10.271512985229492,0.2546970546245575,0.0,0.18859630823135376,99
1668153241.57973790,116988937,0,24.82601547241211,24.895063400268555,0.3661184310913086,10.281702041625977,0.25495001673698425,0.0,0.18859630823135376,99
1668153241.67955709,117088756,0,24.80838394165039,24.8726863861084,0.340953528881073,10.291156768798828,0.2551845610141754,0.0,0.18859630823135376,99
1668153241.77972198,117188921,0,24.81566619873047,24.88164710998535,0.3498533070087433,10.300891876220703,0.2554261386394501,0.0,0.18859630823135376,99
1668153241.87949705,117288696,0,24.775705337524414,24.82524871826172,0.26269686222076416,10.308173179626465,0.2556065320968628,0.0,0.18859630823135376,99
1668153241.97985911,117389058,0,24.742069244384766,24.78009605407715,0.2016259729862213,10.313794136047363,0.25574561953544617,0.0,0.18859630823135376,99
1668153242.07956409,117488763,0,24.80579376220703,24.87021255493164,0.3415673077106476,10.32325553894043,0.25598031282424927,0.0,0.18859630823135376,99
1668153242.17970705,117588906,0,24.81212043762207,24.877580642700195,0.34709128737449646,10.332911491394043,0.25621989369392395,0.0,0.18859630823135376,99
1668153242.27955794,117688757,0,24.819021224975586,24.887664794921875,0.36397019028663635,10.343006134033203,0.2564704418182373,0.0,0.18859630823135376,99
1668153242.37968493,117788884,0,24.747617721557617,24.787038803100586,0.20902542769908905,10.348820686340332,0.2566143572330475,0.0,0.18859630823135376,99
1668153242.47958899,117888788,0,24.773788452148438,24.823911666870117,0.2657657563686371,10.356196403503418,0.25679707527160645,0.0,0.18859630823135376,99
1668153242.57973599,117988935,0,24.806467056274414,24.86943817138672,0.33389508724212646,10.365485191345215,0.2570275068283081,0.0,0.18859630823135376,99
1668153242.67955709,118088756,0,24.818157196044922,24.886337280273438,0.361515074968338,10.375510215759277,0.2572762966156006,0.0,0.18859630823135376,99
1668153242.77974296,118188942,0,24.791898727416992,24.848098754882812,0.2979891002178192,10.383803367614746,0.2574819028377533,0.0,0.18859630823135376,99
1668153242.87951803,118288717,0,24.747533798217773,24.7874698638916,0.21175332367420197,10.38967227935791,0.25762712955474854,0.0,0.18859630823135376,99
1668153242.97976208,118388961,0,24.78289222717285,24.835561752319336,0.27926886081695557,10.39745044708252,0.25781989097595215,0.0,0.18859630823135376,99
1668153243.07951808,118488717,0,24.824195861816406,24.893938064575195,0.3698010742664337,10.407698631286621,0.2580742835998535,0.0,0.18859630823135376,99
1668153243.17973804,118588937,0,24.806604385375977,24.870269775390625,0.337577760219574,10.417097091674805,0.25830742716789246,0.0,0.18859630823135376,99
1668153243.27960706,118688806,0,24.820743560791016,24.89042854309082,0.3694941997528076,10.427348136901855,0.2585618495941162,0.0,0.18859630823135376,99
1668153243.37973690,118788936,0,24.6953067779541,24.828285217285156,0.6969445943832397,10.446735382080078,0.25904062390327454,0.0,0.1908019483089447,99
1668153243.47960997,118888809,0,24.43302345275879,24.859888076782227,2.240288734436035,10.508891105651855,0.2605592608451843,0.0,0.19054014980793,99
1668153243.57973504,118988934,0,24.624967575073242,24.88243865966797,1.3604382276535034,10.546731948852539,0.2614910900592804,0.0,0.18925556540489197,99
1668153243.67954898,119088748,0,24.696453094482422,24.914140701293945,1.166177749633789,10.579068183898926,0.2622896730899811,0.0,0.18666718900203705,99
1668153243.77976704,119188966,0,24.651704788208008,24.90753936767578,1.3849893808364868,10.617627143859863,0.2632402181625366,0.0,0.18471945822238922,99
1668153243.87956095,119288760,0,24.592960357666016,24.805837631225586,1.13334059715271,10.649046897888184,0.2640129029750824,0.0,0.18783129751682281,99
1668153243.97973895,119388938,0,24.637414932250977,24.859619140625,1.1818631887435913,10.681938171386719,0.2648232579231262,0.0,0.1880122274160385,99
1668153244.08012795,119489327,0,24.659849166870117,24.886796951293945,1.2143592834472656,10.715804100036621,0.2656583786010742,0.0,0.18688760697841644,99
1668153244.17980909,119589008,0,24.678821563720703,24.90863800048828,1.2297037839889526,10.749855995178223,0.26649874448776245,0.0,0.18688760697841644,99
1668153244.27955699,119688756,0,24.65697479248047,24.874988555908203,1.1670984029769897,10.782196998596191,0.26729616522789,0.0,0.18679995834827423,99
1668153244.37976599,119788965,0,24.61595916748047,24.814367294311523,1.0621423721313477,10.81176471710205,0.2680239975452423,0.0,0.18679995834827423,99
1668153244.47949195,119888691,0,24.634550094604492,24.84341049194336,1.1124721765518188,10.842584609985352,0.26878324151039124,0.0,0.18774476647377014,99
1668153244.57974410,119988943,0,24.680259704589844,24.911821365356445,1.2333863973617554,10.876935005187988,0.2696309983730316,0.0,0.18774476647377014,99
1668153244.67971802,120088917,0,24.67192268371582,24.897781372070312,1.2030043601989746,10.910345077514648,0.2704553008079529,0.0,0.18774476647377014,99
1668153244.77988791,120189087,0,24.675373077392578,24.904285430908203,1.2192695140838623,10.944273948669434,0.271292507648468,0.0,0.18774476647377014,99
1668153244.87950110,120288700,0,24.645505905151367,24.86016082763672,1.1433314085006714,10.975913047790527,0.2720722556114197,0.0,0.18774476647377014,99
1668153244.97976995,120388969,0,24.609729766845703,24.807586669921875,1.053856372833252,11.005268096923828,0.2727946639060974,0.0,0.18774476647377014,99
1668153245.07952404,120488723,0,24.658411026000977,24.878564834594727,1.1726224422454834,11.037761688232422,0.273595929145813,0.0,0.18774476647377014,99
1668153245.17987299,120589072,0,24.674701690673828,24.90326690673828,1.2174280881881714,11.071701049804688,0.2744333744049072,0.0,0.18774476647377014,99
1668153245.27961397,120688813,0,24.672208786010742,24.899160385131836,1.208835244178772,11.105195999145508,0.27525976300239563,0.0,0.18774476647377014,99
1668153245.37967396,120788873,0,24.597082138061523,24.78992462158203,1.0271570682525635,11.133747100830078,0.27596205472946167,0.0,0.18774476647377014,99
1668153245.47955704,120888756,0,24.64125633239746,24.85466957092285,1.136716365814209,11.165287971496582,0.2767392694950104,0.0,0.18774476647377014,99
1668153245.57971692,120988916,0,24.65802764892578,24.87910270690918,1.17753267288208,11.198046684265137,0.27754703164100647,0.0,0.18774476647377014,99
1668153245.67957711,121088776,0,24.676916122436523,24.905975341796875,1.2200536727905273,11.231882095336914,0.27838197350502014,0.0,0.18774476647377014,99
1668153245.77970600,121188905,0,24.64748764038086,24.86575698852539,1.1609605550765991,11.264189720153809,0.27917829155921936,0.0,0.1880074143409729,99
1668153245.87955308,121288752,0,24.61164665222168,24.812376022338867,1.0676662921905518,11.293804168701172,0.27990713715553284,0.0,0.1880074143409729,99
1668153245.97977710,121388976,0,24.644420623779297,24.860355377197266,1.1483781337738037,11.325777053833008,0.2806950807571411,0.0,0.18803516030311584,99
1668153246.07956004,121488759,0,24.68083381652832,24.912349700927734,1.2312381267547607,11.359908103942871,0.2815374732017517,0.0,0.18803516030311584,99
1668153246.17985106,121589050,0,24.65860366821289,24.880252838134766,1.1787601709365845,11.392749786376953,0.28234729170799255,0.0,0.18803516030311584,99
1668153246.27954412,121688743,0,24.67786407470703,24.90886116027832,1.2284761667251587,11.42677116394043,0.2831868529319763,0.0,0.18803516030311584,99
1668153246.37984490,121789044,0,24.6306209564209,24.838361740112305,1.1047999858856201,11.457552909851074,0.2839450240135193,0.0,0.18803516030311584,99
1668153246.47955799,121888757,0,24.615480422973633,24.817047119140625,1.071962833404541,11.487234115600586,0.28467562794685364,0.0,0.18803516030311584,99
1668153246.57969809,121988897,0,24.66105079650879,24.88296127319336,1.180158257484436,11.520082473754883,0.28548571467399597,0.0,0.18803516030311584,99
1668153246.67949605,122088695,0,24.68169593811035,24.91419219970703,1.2364552021026611,11.554361343383789,0.28633177280426025,0.0,0.18803516030311584,99
1668153246.77972293,122188922,0,24.672306060791016,24.898975372314453,1.205459475517273,11.58792495727539,0.28715986013412476,0.0,0.18803516030311584,99
1668153246.87958002,122288779,0,24.595355987548828,24.789594650268555,1.0329879522323608,11.616580963134766,0.28786465525627136,0.0,0.18803516030311584,99
1668153246.97966909,122388868,0,24.6395320892334,24.85333251953125,1.1370233297348022,11.648195266723633,0.28864362835884094,0.0,0.18803516030311584,99
1668153247.07959509,122488794,0,24.660327911376953,24.882610321044922,1.1821359395980835,11.681010246276855,0.2894528806209564,0.0,0.18803516030311584,99
1668153247.17968392,122588883,0,24.664064407348633,24.889118194580078,1.1968666315078735,11.714288711547852,0.29027366638183594,0.0,0.18803516030311584,99
1668153247.27960610,122688805,0,24.643558502197266,24.858570098876953,1.143467903137207,11.7460298538208,0.2910558879375458,0.0,0.18803516030311584,99
1668153247.37970805,122788907,0,24.639331817626953,24.853740692138672,1.1402626037597656,11.777738571166992,0.2918371558189392,0.0,0.18803516030311584,99
1668153247.47956991,122888769,0,24.605802536010742,24.806215286254883,1.0658249855041504,11.807306289672852,0.2925646901130676,0.0,0.18803516030311584,99
1668153247.57982993,122989029,0,24.674604415893555,24.904273986816406,1.221417784690857,11.841325759887695,0.29340410232543945,0.0,0.18803516030311584,99
1668153247.67956400,123088763,0,24.655920028686523,24.877971649169922,1.1809083223342896,11.874044418334961,0.294210821390152,0.0,0.18803516030311584,99
1668153247.77977991,123188979,0,24.668474197387695,24.89773941040039,1.2192695140838623,11.907988548278809,0.29504817724227905,0.0,0.18803516030311584,99
1668153247.87954402,123288743,0,24.620655059814453,24.82735824584961,1.0992759466171265,11.938454627990723,0.29579827189445496,0.0,0.18803516030311584,99
1668153247.97980404,123389003,0,24.612892150878906,24.81809425354004,1.0912967920303345,11.968849182128906,0.2965463697910309,0.0,0.18803516030311584,99
1668153248.07950401,123488703,0,24.65639877319336,24.880931854248047,1.1941046714782715,12.001921653747559,0.297361820936203,0.0,0.18803516030311584,99
1668153248.17969990,123588899,0,24.668760299682617,24.899179458618164,1.2254072427749634,12.036030769348145,0.2982032299041748,0.0,0.18803516030311584,99
1668153248.27964306,123688842,0,24.67244529724121,24.903846740722656,1.2306243181228638,12.070198059082031,0.29904621839523315,0.0,0.18803516030311584,99
1668153248.37987709,123789076,0,24.584142684936523,24.77716827392578,1.0265432596206665,12.098782539367676,0.2997489273548126,0.0,0.18803516030311584,99
1668153248.47955394,123888753,0,24.63100242614746,24.845264434814453,1.139478325843811,12.130334854125977,0.30052608251571655,0.0,0.18803516030311584,99
1668153248.57966399,123988863,0,24.653717041015625,24.877962112426758,1.1925702095031738,12.163500785827637,0.30134376883506775,0.0,0.18803516030311584,99
1668153248.67959595,124088795,0,24.66761016845703,24.89849090576172,1.2278623580932617,12.197587013244629,0.3021846115589142,0.0,0.18803516030311584,99
1668153248.77988911,124189088,0,24.668760299682617,24.89889144897461,1.2238727807998657,12.23168659210205,0.3030257821083069,0.0,0.18803516030311584,99
1668153248.87964511,124288844,0,24.648061752319336,24.86983299255371,1.1790670156478882,12.264360427856445,0.3038311302661896,0.0,0.18809115886688232,99
1668153248.97984004,124389039,0,24.600242614746094,24.802331924438477,1.0744179487228394,12.294266700744629,0.3045668303966522,0.0,0.18809115886688232,99
1668153249.07957697,124488776,0,24.625699996948242,24.839853286743164,1.1385576725006104,12.325812339782715,0.3053436577320099,0.0,0.18809115886688232,99
1668153249.17970204,124588901,0,24.661766052246094,24.891908645629883,1.223565936088562,12.359845161437988,0.30618298053741455,0.0,0.18809115886688232,99
1668153249.27954507,124688744,0,24.6613826751709,24.89077377319336,1.219576358795166,12.393671989440918,0.3070172071456909,0.0,0.18809115886688232,99
1668153249.37981391,124789013,0,24.615863800048828,24.8245906829834,1.1097102165222168,12.424578666687012,0.307778000831604,0.0,0.18809115886688232,99
1668153249.47956705,124888766,0,24.59401512145996,24.793506622314453,1.06060791015625,12.453972816467285,0.30850091576576233,0.0,0.18809115886688232,99
1668153249.57990694,124989106,0,24.63665771484375,24.855602264404297,1.1640294790267944,12.486419677734375,0.3093003034591675,0.0,0.18809115886688232,99
1668153249.67976403,125088963,0,24.660423278808594,24.8895263671875,1.2180418968200684,12.520208358764648,0.31013354659080505,0.0,0.18809115886688232,99
1668153249.77994108,125189140,0,24.653236389160156,24.878009796142578,1.1950253248214722,12.553464889526367,0.31095343828201294,0.0,0.18809115886688232,99
1668153249.87960196,125288801,0,24.583663940429688,24.78055763244629,1.0467979907989502,12.582447052001953,0.31166592240333557,0.0,0.18809115886688232,99
1668153249.97979403,125388993,0,24.61260414123535,24.82194709777832,1.1129835844039917,12.613425254821777,0.31242835521698,0.0,0.18809115886688232,99
1668153250.07960510,125488804,0,24.649978637695312,24.875272750854492,1.1977872848510742,12.64663314819336,0.3132469356060028,0.0,0.18809115886688232,99
1668153250.17971897,125588918,0,24.655824661254883,24.883426666259766,1.2100627422332764,12.680290222167969,0.3140767812728882,0.0,0.18809115886688232,99
1668153250.27962494,125688824,0,24.665119171142578,24.89722442626953,1.2340002059936523,12.71453857421875,0.3149215281009674,0.0,0.18809115886688232,99
1668153250.37997699,125789176,0,24.641834259033203,24.863779067993164,1.1799876689910889,12.74743366241455,0.31573212146759033,0.0,0.18809115886688232,99
1668153250.47964191,125888841,0,24.587688446044922,24.7872371673584,1.0609148740768433,12.77680778503418,0.31645435094833374,0.0,0.18809115886688232,99
1668153250.57983804,125989037,0,24.62429428100586,24.841217041015625,1.1532882452011108,12.808908462524414,0.3172447979450226,0.0,0.18809115886688232,99
1668153250.67964602,126088845,0,24.199199676513672,24.9383487701416,6.279560089111328,12.98302173614502,0.32145819067955017,0.0,0.11770709604024887,99
1668153250.77967095,126188870,0,23.760051727294922,24.903932571411133,9.820784568786621,13.255908966064453,0.32794198393821716,0.0,0.11647552996873856,99
1668153250.87954998,126288749,0,22.85511016845703,24.591781616210938,14.700897216796875,13.663805961608887,0.3372645080089569,0.0,0.11813367903232574,99
1668153250.97991610,126389115,0,22.57883644104004,24.513269424438477,16.124860763549805,14.113393783569336,0.3474156856536865,0.0,0.11996591091156006,99
1668153251.07959008,126488789,0,22.847061157226562,24.584699630737305,14.35595417022705,14.510906219482422,0.3564976751804352,0.0,0.12103959918022156,99
1668153251.17987490,126589074,0,22.735897064208984,24.582889556884766,15.139747619628906,14.932686805725098,0.3660872280597687,0.0,0.12199622392654419,99
1668153251.27960300,126688802,0,22.650035858154297,24.6866455078125,16.676647186279297,15.394699096679688,0.3765518367290497,0.0,0.12212342768907547,99
1668153251.37985611,126789055,0,22.382579803466797,24.39509391784668,16.207416534423828,15.84603500366211,0.3866539001464844,0.0,0.12417237460613251,99
1668153251.47959805,126888797,0,22.32709312438965,24.389047622680664,16.359630584716797,16.299379348754883,0.3967757523059845,0.0,0.12603914737701416,99
1668153251.57979608,126988995,0,22.3433837890625,24.462337493896484,16.654245376586914,16.762950897216797,0.4071334898471832,0.0,0.12723208963871002,99
1668153251.67962909,127088828,0,22.341360092163086,24.43933868408203,16.33194351196289,17.215898513793945,0.41725295782089233,0.0,0.12845855951309204,99
1668153251.77980208,127189001,0,22.30217933654785,24.437782287597656,16.480852127075195,17.6743221282959,0.42747682332992554,0.0,0.12958082556724548,99
1668153251.87964010,127288839,0,22.178848266601562,24.374000549316406,16.754291534423828,18.13920783996582,0.4377874433994293,0.0,0.13102029263973236,99
1668153251.97990203,127389101,0,22.123361587524414,24.34189796447754,16.738025665283203,18.60541343688965,0.4481014609336853,0.0,0.1325446516275406,99
1668153252.07958603,127488785,0,22.169551849365234,24.378915786743164,16.52627182006836,19.063058853149414,0.45824724435806274,0.0,0.13368795812129974,99
1668153252.17971492,127588914,0,22.312528610229492,24.546619415283203,16.7189998626709,19.528112411499023,0.4686237573623657,0.0,0.13362589478492737,99
1668153252.27963591,127688835,0,22.361881256103516,24.61675262451172,16.939958572387695,19.998336791992188,0.47913888096809387,0.0,0.13310958445072174,99
1668153252.37982512,127789024,0,22.26978874206543,24.437822341918945,16.20281219482422,20.44930076599121,0.489181786775589,0.0,0.133806049823761,99
1668153252.47977901,127888978,0,22.126068115234375,24.227930068969727,15.70827865600586,20.88507843017578,0.4988238513469696,0.0,0.133806049823761,99
1668153252.57978106,127988980,0,22.173288345336914,24.35085678100586,16.168439865112305,21.33465576171875,0.5087924599647522,0.0,0.13468024134635925,99
1668153252.67958212,128088781,0,22.139175415039062,24.396211624145508,16.69536781311035,21.797529220581055,0.5190401077270508,0.0,0.13518941402435303,99
1668153252.77984500,128189044,0,22.056474685668945,24.334623336791992,16.743549346923828,22.263883590698242,0.5293262600898743,0.0,0.13606131076812744,99
1668153252.87961102,128288810,0,21.98105812072754,24.324077606201172,17.111814498901367,22.738142013549805,0.5397509932518005,0.0,0.13692402839660645,99
1668153252.97985196,128389051,0,21.872100830078125,24.372255325317383,18.19912338256836,23.24492645263672,0.5508354306221008,0.0,0.1373777836561203,99
1668153253.07962704,128488826,0,21.89682388305664,24.454008102416992,18.625391006469727,23.761138916015625,0.5621388554573059,0.0,0.13729557394981384,99
1668153253.17979312,128588992,0,21.95182991027832,24.518592834472656,18.757661819458008,24.28312873840332,0.5735974907875061,0.0,0.1368381232023239,99
1668153253.27964902,128688848,0,21.8490047454834,24.37980079650879,18.440645217895508,24.794677734375,0.5847743153572083,0.0,0.13724008202552795,99
1668153253.37985992,128789059,0,21.88106346130371,24.457557678222656,18.78603172302246,25.317649841308594,0.5962175130844116,0.0,0.13714942336082458,99
1668153253.47965097,128888850,0,21.79467010498047,24.352584838867188,18.57782554626465,25.83266830444336,0.6074422001838684,0.0,0.13768641650676727,99
1668153253.57988405,128989083,0,21.750205993652344,24.277454376220703,18.231040954589844,26.340307235717773,0.6184834241867065,0.0,0.13862332701683044,99
1668153253.67967200,129088871,0,21.802528381347656,24.367916107177734,18.462432861328125,26.85210609436035,0.6296419501304626,0.0,0.13895179331302643,99
1668153253.78003502,129189234,0,21.839231491088867,24.406021118164062,18.462125778198242,27.36679458618164,0.6408823728561401,0.0,0.13902997970581055,99
1668153253.87969398,129288893,0,21.79102897644043,24.31771469116211,18.096622467041016,27.867855072021484,0.6518009901046753,0.0,0.13962194323539734,99
1668153253.97990203,129389101,0,21.898069381713867,24.400859832763672,17.931516647338867,28.367029190063477,0.662731945514679,0.0,0.13957498967647552,99
1668153254.07971406,129488913,0,21.950008392333984,24.408538818359375,17.614192962646484,28.855417251586914,0.6734520792961121,0.0,0.13957665860652924,99
1668153254.17990994,129589109,0,22.002426147460938,24.365863800048828,16.95806312561035,29.327449798583984,0.6838379502296448,0.0,0.13936957716941833,99
1668153254.27980995,129689009,0,21.974124908447266,24.285371780395508,16.649402618408203,29.789506912231445,0.6939912438392639,0.0,0.13881859183311462,99
1668153254.37988305,129789082,0,21.934677124023438,24.19935417175293,16.4133358001709,30.245798110961914,0.7039998173713684,0.0,0.13797782361507416,99
1668153254.47962308,129888822,0,21.759214401245117,23.946401596069336,15.851729393005371,30.68494415283203,0.7135552763938904,0.0,0.13797782361507416,99
1668153254.58003998,129989239,0,21.876989364624023,24.064516067504883,15.85418701171875,31.12728500366211,0.7232323884963989,0.0,0.13797782361507416,99
1668153254.67963600,130088835,0,21.974254608154297,24.10576820373535,15.518450736999512,31.5566463470459,0.7326672673225403,0.0,0.1373535394668579,99
1668153254.77993011,130189129,0,22.021305084228516,24.170377731323242,15.664527893066406,31.993085861206055,0.7422782182693481,0.0,0.13719360530376434,99
1668153254.87966704,130288866,0,22.07171058654785,24.276288986206055,16.022666931152344,32.4370231628418,0.7520766854286194,0.0,0.1375911682844162,99
1668153254.98000908,130389208,0,22.066057205200195,24.298248291015625,16.174884796142578,32.88789749145508,0.7620257139205933,0.0,0.13800351321697235,99
1668153255.07966495,130488864,0,22.02704429626465,24.242122650146484,16.04619598388672,33.332122802734375,0.7718107104301453,0.0,0.13804388046264648,99
1668153255.17997193,130589171,0,21.992557525634766,24.156814575195312,15.722224235534668,33.770233154296875,0.7814458608627319,0.0,0.13765586912631989,99
1668153255.27969790,130688897,0,22.08321189880371,24.260128021240234,15.790046691894531,34.20767593383789,0.7911059856414795,0.0,0.13786637783050537,99
1668153255.37987995,130789079,0,22.014596939086914,24.1236515045166,15.354569435119629,34.63500213623047,0.8005133867263794,0.0,0.13735684752464294,99
1668153255.47968507,130888884,0,22.055803298950195,24.17796516418457,15.463822364807129,35.063751220703125,0.8099697828292847,0.0,0.13723400235176086,99
1668153255.57987404,130989073,0,21.957674026489258,24.10379981994629,15.638442039489746,35.4990119934082,0.8195270895957947,0.0,0.13723400235176086,99
1668153255.67967200,131088871,0,22.013158798217773,24.26415252685547,16.40259552001953,35.95375442504883,0.8295374512672424,0.0,0.13723400235176086,99
1668153255.77989697,131189096,0,21.963998794555664,24.19242286682129,16.236263275146484,36.40581130981445,0.8394664525985718,0.0,0.13724985718727112,99
1668153255.87965202,131288851,0,22.092634201049805,24.203369140625,15.37410831451416,36.83185577392578,0.8488789200782776,0.0,0.1372915357351303,99
1668153255.97993112,131389130,0,22.08196258544922,24.088050842285156,14.66928768157959,37.24048614501953,0.8579022884368896,0.0,0.13675431907176971,99
1668153256.07974195,131488941,0,22.162843704223633,24.18190574645996,14.75859260559082,37.64972686767578,0.8669722080230713,0.0,0.13680587708950043,99
1668153256.17992997,131589129,0,22.19552230834961,24.225812911987305,14.812911987304688,38.06200408935547,0.8761228919029236,0.0,0.137062206864357,99
1668153256.27964592,131688845,0,22.170509338378906,24.22041893005371,14.937508583068848,38.47578811645508,0.8852967023849487,0.0,0.13723237812519073,99
1668153256.37984395,131789043,0,22.13591766357422,24.144887924194336,14.66499137878418,38.88398361206055,0.8943324685096741,0.0,0.13699084520339966,99
1668153256.47960997,131888809,0,22.116846084594727,24.057167053222656,14.228287696838379,39.278324127197266,0.9030540585517883,0.0,0.13637065887451172,99
1668153256.57990503,131989104,0,22.198110580444336,24.16635513305664,14.426538467407227,39.68027114868164,0.9119765162467957,0.0,0.1364322155714035,99
1668153256.67980194,132089001,0,22.22800636291504,24.174291610717773,14.256522178649902,40.07591247558594,0.9207708835601807,0.0,0.1365189254283905,99
1668153256.77982402,132189023,0,22.273536682128906,24.257089614868164,14.479016304016113,40.47822570800781,0.9297317862510681,0.0,0.13699495792388916,99
1668153256.87969303,132288892,0,22.160736083984375,24.11977195739746,14.332630157470703,40.8758659362793,0.9385437369346619,0.0,0.13668368756771088,99
1668153256.97988009,132389079,0,22.18028450012207,24.097192764282227,14.060728073120117,41.267208099365234,0.9472237825393677,0.0,0.13633069396018982,99
1668153257.07966995,132488869,0,22.220149993896484,24.123798370361328,13.97786808013916,41.65452575683594,0.9558300375938416,0.0,0.13619011640548706,99
1668153257.17987895,132589078,0,22.22369384765625,24.11538314819336,13.905441284179688,42.04179763793945,0.9644365906715393,0.0,0.13603951036930084,99
1668153257.27972889,132688928,0,22.24506378173828,24.1335506439209,13.884572982788086,42.42693328857422,0.9730039238929749,0.0,0.13601326942443848,99
1668153257.37988091,132789080,0,22.2029972076416,24.064908981323242,13.725605010986328,42.808807373046875,0.9814826250076294,0.0,0.13565239310264587,99
1668153257.47966790,132888867,0,22.2640380859375,24.145122528076172,13.854804992675781,43.192726135253906,0.9900302290916443,0.0,0.13577131927013397,99
1668153257.57988191,132989081,0,22.330076217651367,24.225114822387695,13.90752124786377,43.580055236816406,0.9986792802810669,0.0,0.1362600177526474,99
1668153257.67971301,133088912,0,22.35929298400879,24.199886322021484,13.482855796813965,43.95397186279297,1.0070397853851318,0.0,0.1365135759115219,99
1668153257.77987504,133189074,0,22.383058547973633,24.20526695251465,13.326342582702637,44.32477951049805,1.0153396129608154,0.0,0.13673728704452515,99
1668153257.87973189,133288931,0,22.351720809936523,24.13526153564453,13.060270309448242,44.6868782043457,1.0234332084655762,0.0,0.13656224310398102,99
1668153257.97986293,133389062,0,22.381141662597656,24.11376953125,12.71010971069336,45.040618896484375,1.0313503742218018,0.0,0.13631883263587952,99
1668153258.07964206,133488841,0,22.4116153717041,24.16948699951172,12.88687801361084,45.397823333740234,1.0393558740615845,0.0,0.13640794157981873,99
1668153258.17990494,133589104,0,22.492013931274414,24.2299861907959,12.706426620483398,45.751739501953125,1.0473161935806274,0.0,0.13677899539470673,99
1668153258.27968192,133688881,0,22.530729293823242,24.221357345581055,12.338159561157227,46.09373092651367,1.0550215244293213,0.0,0.1370244026184082,99
1668153258.37987900,133789078,0,22.50586700439453,24.172260284423828,12.166097640991211,46.43233871459961,1.0626420974731445,0.0,0.13697029650211334,99
1668153258.47966409,133888863,0,22.506196975708008,24.173931121826172,12.178884506225586,46.76997375488281,1.0702409744262695,0.0,0.13693660497665405,99
1668153258.57993507,133989134,0,22.5689640045166,24.244373321533203,12.205890655517578,47.10989761352539,1.07791268825531,0.0,0.13726240396499634,99
1668153258.67967796,134088877,0,22.60700798034668,24.289716720581055,12.216324806213379,47.44847106933594,1.085566759109497,0.0,0.13774263858795166,99
1668153258.78024411,134189443,0,22.536670684814453,24.195077896118164,12.048457145690918,47.785072326660156,1.093152642250061,0.0,0.13764485716819763,99
1668153258.87963295,134288832,0,22.547019958496094,24.170326232910156,11.81061840057373,48.11116409301758,1.100504994392395,0.0,0.1374446004629135,99
1668153258.97989893,134389098,0,22.52450180053711,24.135971069335938,11.752615928649902,48.43851852416992,1.107878565788269,0.0,0.13711580634117126,99
1668153259.07964110,134488840,0,22.571359634399414,24.21146583557129,11.950865745544434,48.76966094970703,1.1153528690338135,0.0,0.13723739981651306,99
1668153259.17989898,134589098,0,22.58937644958496,24.241666793823242,12.018074989318848,49.10438537597656,1.1229140758514404,0.0,0.13748370110988617,99
1668153259.27962804,134688827,0,22.59051513671875,24.27349090576172,12.210084915161133,49.442657470703125,1.1305558681488037,0.0,0.13783492147922516,99
1668153259.37989807,134789097,0,22.58391571044922,24.253955841064453,12.100627899169922,49.77972412109375,1.1381680965423584,0.0,0.13801264762878418,99
1668153259.47965908,134888858,0,22.55832862854004,24.165119171142578,11.668221473693848,50.10308837890625,1.1454626321792603,0.0,0.13770653307437897,99
1668153259.57983708,134989036,0,22.632404327392578,24.229280471801758,11.589350700378418,50.42561721801758,1.1527621746063232,0.0,0.13778822124004364,99
1668153259.67970991,135088909,0,22.68444061279297,24.294179916381836,11.649807929992676,50.748836517333984,1.1600942611694336,0.0,0.13817733526229858,99
1668153259.77994490,135189144,0,22.70025062561035,24.28366470336914,11.438362121582031,51.06721878051758,1.1673216819763184,0.0,0.13843011856079102,99
1668153259.87967110,135288870,0,22.674951553344727,24.21541404724121,11.139759063720703,51.37594985961914,1.1743221282958984,0.0,0.13828513026237488,99
1668153259.97999310,135389192,0,22.708396911621094,24.23143196105957,11.016389846801758,51.68296813964844,1.1812939643859863,0.0,0.13825179636478424,99
1668153260.07973409,135488933,0,22.890993118286133,24.27723503112793,10.012078285217285,51.960384368896484,1.187644362449646,0.0,0.1384570449590683,99
1668153260.17988896,135589088,0,22.83153533935547,24.337018966674805,10.837166786193848,52.261905670166016,1.194528579711914,0.0,0.13891850411891937,99
1668153260.27970505,135688904,0,22.715774536132812,24.287891387939453,11.316834449768066,52.57571029663086,1.2016568183898926,0.0,0.13891850411891937,99
1668153260.37995410,135789153,0,22.619661331176758,24.260509490966797,11.807549476623535,52.904537200927734,1.209094762802124,0.0,0.13896596431732178,99
1668153260.47962308,135888822,0,22.621381759643555,24.294761657714844,12.054902076721191,53.23831558227539,1.216645359992981,0.0,0.13881321251392365,99
1668153260.57993197,135989131,0,22.696226119995117,24.403303146362305,12.297650337219238,53.58100128173828,1.2244230508804321,0.0,0.13881321251392365,99
1668153260.67966104,136088860,0,22.62588882446289,24.291500091552734,11.998126983642578,53.91315841674805,1.2319384813308716,0.0,0.13882258534431458,99
1668153260.77995896,136189158,0,22.64802360534668,24.328800201416016,12.125179290771484,54.25124740600586,1.2395955324172974,0.0,0.13861867785453796,99
1668153260.87982202,136289021,0,22.56964683532715,24.231657028198242,11.957754135131836,54.582977294921875,1.2470824718475342,0.0,0.13899019360542297,99
1668153260.97992897,136389128,0,22.54884147644043,24.214935302734375,11.950559616088867,54.915321350097656,1.2545764446258545,0.0,0.13941553235054016,99
1668153261.07966208,136488861,0,22.4980525970459,24.15485191345215,11.822894096374512,55.24288558959961,1.2619459629058838,0.0,0.1401347666978836,99
1668153261.17989802,136589097,0,22.56800651550293,24.289703369140625,12.297037124633789,55.58530044555664,1.2696735858917236,0.0,0.1400090605020523,99
1668153261.27970910,136688908,0,22.580272674560547,24.281261444091797,12.154641151428223,55.92231750488281,1.2772835493087769,0.0,0.13994558155536652,99
1668153261.37992692,136789126,0,22.62493133544922,24.38312530517578,12.563416481018066,56.2720947265625,1.2851972579956055,0.0,0.13994558155536652,99
1668153261.47973895,136888938,0,22.72660255432129,24.57636260986328,13.217702865600586,56.638587951660156,1.2935264110565186,0.0,0.13994558155536652,99
1668153261.57993007,136989129,0,22.800199508666992,24.70746612548828,13.62862777709961,57.01784896850586,1.3021736145019531,0.0,0.13994558155536652,99
1668153261.67972112,137088920,0,22.81764030456543,24.790616989135742,14.098167419433594,57.408748626708984,1.3110929727554321,0.0,0.13994558155536652,99
1668153261.77989888,137189098,0,22.76055908203125,24.74617576599121,14.188495635986328,57.80360412597656,1.320080041885376,0.0,0.13994558155536652,99
1668153261.87971210,137288911,0,22.750368118286133,24.821266174316406,14.797874450683594,58.213924407958984,1.329414963722229,0.0,0.13994558155536652,99
1668153261.97991490,137389114,0,22.530059814453125,24.67608642578125,15.407049179077148,58.64278793334961,1.3390772342681885,0.0,0.13928861916065216,99
1668153262.07967591,137488875,0,22.426372528076172,24.704423904418945,16.444332122802734,59.09852981567383,1.3492978811264038,0.0,0.13853108882904053,99
1668153262.17994905,137589148,0,22.312240600585938,24.66741371154785,17.058725357055664,59.5737190246582,1.3599004745483398,0.0,0.13806267082691193,99
1668153262.27967691,137688876,0,22.275346755981445,24.631057739257812,17.088491439819336,60.047142028808594,1.3704460859298706,0.0,0.13785360753536224,99
1668153262.38003802,137789237,0,22.051490783691406,24.46316909790039,17.394155502319336,60.53209686279297,1.3811399936676025,0.0,0.13864871859550476,99
1668153262.47964001,137888839,0,21.870567321777344,24.339841842651367,17.6258544921875,61.01979446411133,1.3918062448501587,0.0,0.14009389281272888,99
1668153262.57991290,137989112,0,21.837730407714844,24.33811378479004,17.68054962158203,61.51230239868164,1.4025614261627197,0.0,0.14142000675201416,99
1668153262.67968798,138088887,0,21.864431381225586,24.2888126373291,16.964509963989258,61.982521057128906,1.4128425121307373,0.0,0.1429089903831482,99
1668153262.77996111,138189160,0,21.795820236206055,24.152156829833984,16.243934631347656,62.43500518798828,1.422704815864563,0.0,0.1450595259666443,99
1668153262.87968302,138288882,0,21.892799377441406,24.310962677001953,16.55204963684082,62.89354705810547,1.4327435493469238,0.0,0.14609448611736298,99
1668153262.98014402,138389343,0,21.99514389038086,24.39822006225586,16.39983367919922,63.351234436035156,1.4428104162216187,0.0,0.14653055369853973,99
1668153263.07971191,138488911,0,22.093942642211914,24.375123977661133,15.615732192993164,63.783164978027344,1.4523534774780273,0.0,0.1460822969675064,99
1668153263.17976403,138588963,0,22.040855407714844,24.235828399658203,15.025586128234863,64.20079040527344,1.4615583419799805,0.0,0.1460822969675064,99
1668153263.27976108,138688960,0,22.132465362548828,24.388599395751953,15.455537796020508,64.63013458251953,1.4710607528686523,0.0,0.14597570896148682,99
1668153263.37984896,138789048,0,21.910131454467773,24.034666061401367,14.554034233093262,65.03479766845703,1.4799269437789917,0.0,0.14597570896148682,99
1668153263.47968411,138888883,0,21.888294219970703,24.024770736694336,14.63583755493164,65.44071197509766,1.488811731338501,0.0,0.14597570896148682,99
1668153263.57992911,138989128,0,21.9386043548584,24.157554626464844,15.200819969177246,65.86402130126953,1.4980984926223755,0.0,0.14597570896148682,99
1668153263.67964697,139088846,0,21.99150276184082,24.154455184936523,14.817209243774414,66.27449035644531,1.5071252584457397,0.0,0.14597570896148682,99
1668153263.78002000,139189219,0,22.091930389404297,24.262577056884766,14.863242149353027,66.68893432617188,1.516281008720398,0.0,0.14604131877422333,99
1668153263.87970090,139288900,0,22.07008171081543,24.208175659179688,14.662229537963867,67.09495544433594,1.5252418518066406,0.0,0.14582319557666779,99
1668153263.97998190,139389181,0,21.92327308654785,24.067720413208008,14.70580768585205,67.50462341308594,1.534223198890686,0.0,0.14582319557666779,99
1668153264.07966709,139488866,0,21.91895866394043,24.16847038269043,15.399067878723145,67.93106842041016,1.5435703992843628,0.0,0.14608103036880493,99
1668153264.17997003,139589169,0,21.88733673095703,24.085651397705078,15.048603057861328,68.35037994384766,1.5527480840682983,0.0,0.14608103036880493,99
1668153264.27966809,139688867,0,21.923974990844727,24.019807815551758,14.347054481506348,68.74774169921875,1.5614597797393799,0.0,0.14608103036880493,99
1668153264.37998796,139789187,0,21.987573623657227,23.951555252075195,13.54055118560791,69.12507629394531,1.5697563886642456,0.0,0.1450445055961609,99
1668153264.47967696,139888876,0,22.05120277404785,24.047521591186523,13.794039726257324,69.50711059570312,1.5781806707382202,0.0,0.14472328126430511,99
1668153264.57992792,139989127,0,22.072284698486328,23.94955825805664,13.037866592407227,69.87020874023438,1.5861951112747192,0.0,0.14398619532585144,99
1668153264.67970109,140088900,0,22.23480987548828,23.97938346862793,12.151878356933594,70.20702362060547,1.5936840772628784,0.0,0.1435641199350357,99
1668153264.77990890,140189108,0,22.199068069458008,23.916452407836914,12.016233444213867,70.54153442382812,1.6011098623275757,0.0,0.14292196929454803,99
1668153264.87972903,140288928,0,22.202133178710938,23.894535064697266,11.89194393157959,70.87129974365234,1.608431339263916,0.0,0.1423150599002838,99
1668153264.97997093,140389170,0,22.12135124206543,23.813568115234375,11.964369773864746,71.2044677734375,1.6158015727996826,0.0,0.14143802225589752,99
1668153265.07982206,140489021,0,22.04833984375,23.802221298217773,12.40035629272461,71.5484390258789,1.6233855485916138,0.0,0.14143802225589752,99
1668153265.17976809,140588967,0,22.05992317199707,23.843162536621094,12.607913970947266,71.89849853515625,1.6311079263687134,0.0,0.14143802225589752,99
1668153265.27973390,140688933,0,22.13831329345703,23.93501853942871,12.69261646270752,72.2509765625,1.638911247253418,0.0,0.14155517518520355,99
1668153265.37991500,140789114,0,22.178462982177734,23.85148811340332,11.846217155456543,72.58065795898438,1.6462230682373047,0.0,0.14122861623764038,99
1668153265.47969103,140888890,0,22.28828239440918,23.900897979736328,11.419027328491211,72.89716339111328,1.6532775163650513,0.0,0.14122188091278076,99
1668153265.58001709,140989216,0,22.185075759887695,23.798181533813477,11.464754104614258,73.21658325195312,1.6603639125823975,0.0,0.1407012939453125,99
1668153265.67964506,141088844,0,22.24276351928711,23.878000259399414,11.6224946975708,73.5383529663086,1.6675209999084473,0.0,0.14069581031799316,99
1668153265.77998710,141189186,0,22.316936492919922,23.927867889404297,11.429768562316895,73.85696411132812,1.6746314764022827,0.0,0.14094173908233643,99
1668153265.87974191,141288941,0,22.238643646240234,23.7706356048584,10.916036605834961,74.15946960449219,1.681358814239502,0.0,0.1403433084487915,99
1668153265.98006201,141389261,0,22.39034080505371,23.84663200378418,10.383073806762695,74.44883728027344,1.687837839126587,0.0,0.14025621116161346,99
1668153266.07968211,141488881,0,22.463939666748047,23.872142791748047,10.035880088806152,74.72657775878906,1.6940768957138062,0.0,0.1403168886899948,99
1668153266.17987800,141589077,0,22.56273651123047,23.91337776184082,9.608076095581055,74.99398803710938,1.7001103162765503,0.0,0.14057347178459167,99
1668153266.27971196,141688911,0,22.641508102416992,23.929784774780273,9.145902633666992,75.24766540527344,1.705854058265686,0.0,0.14085841178894043,99
1668153266.37991691,141789116,0,22.669010162353516,23.92850112915039,8.927704811096191,75.49618530273438,1.7114876508712769,0.0,0.14107659459114075,99
1668153266.47972298,141888922,0,22.610363006591797,23.8625545501709,8.886274337768555,75.74256896972656,1.717058539390564,0.0,0.14091305434703827,99
1668153266.57991409,141989113,0,22.565227508544922,23.81584358215332,8.898241996765137,75.990234375,1.7226470708847046,0.0,0.14054638147354126,99
1668153266.67972994,142088929,0,22.59014320373535,23.805036544799805,8.665313720703125,76.23051452636719,1.7280750274658203,0.0,0.14020180702209473,99
1668153266.77990508,142189104,0,22.592111587524414,23.734189987182617,8.183021545410156,76.45823669433594,1.7332197427749634,0.0,0.13956671953201294,99
1668153266.87978411,142288983,0,22.483774185180664,23.684383392333984,8.602402687072754,76.6969223022461,1.7385863065719604,0.0,0.13956671953201294,99
1668153266.97991800,142389117,0,22.47764015197754,23.73928451538086,9.039718627929688,76.94837951660156,1.7442384958267212,0.0,0.13956671953201294,99
1668153267.07972598,142488925,0,22.484827041625977,23.734220504760742,8.951948165893555,77.19658660888672,1.7498193979263306,0.0,0.13956671953201294,99
1668153267.18007898,142589278,0,22.423593521118164,23.741973876953125,9.42946720123291,77.45946502685547,1.7557140588760376,0.0,0.1398148536682129,99
1668153267.27964211,142688841,0,22.41362953186035,23.800867080688477,9.93000316619873,77.73411560058594,1.7618699073791504,0.0,0.13970158994197845,99
1668153267.37986493,142789064,0,22.359771728515625,23.63896942138672,9.15664291381836,77.98905181884766,1.7675702571868896,0.0,0.13970158994197845,99
1668153267.47969198,142888891,0,22.40375518798828,23.693456649780273,9.231830596923828,78.24507141113281,1.7733060121536255,0.0,0.13970158994197845,99
1668153267.57995892,142989158,0,22.329105377197266,23.68907928466797,9.71180534362793,78.51558685302734,1.7793463468551636,0.0,0.14003297686576843,99
1668153267.67968512,143088884,0,22.479991912841797,23.749528884887695,9.063109397888184,78.76667022705078,1.784990668296814,0.0,0.14007748663425446,99
1668153267.78003097,143189230,0,22.484540939331055,23.768245697021484,9.155722618103027,79.02189636230469,1.7907294034957886,0.0,0.14020784199237823,99
1668153267.87972403,143288923,0,22.40912437438965,23.782079696655273,9.805713653564453,79.29346466064453,1.7968149185180664,0.0,0.1400158405303955,99
1668153267.97992301,143389122,0,22.375104904174805,23.79302978515625,10.143598556518555,79.57581329345703,1.80313241481781,0.0,0.13978524506092072,99
1668153268.07968998,143488889,0,22.44017219543457,24.11634635925293,11.991068840026855,79.90802001953125,1.8105871677398682,0.0,0.13978524506092072,99
1668153268.17989802,143589097,0,22.433847427368164,24.058414459228516,11.621881484985352,80.23167419433594,1.8178479671478271,0.0,0.13978524506092072,99
1668153268.27968502,143688884,0,22.276592254638672,24.061452865600586,12.876136779785156,80.58860778808594,1.8257993459701538,0.0,0.13861773908138275,99
1668153268.37990189,143789101,0,22.083595275878906,23.972156524658203,13.675888061523438,80.96935272216797,1.834207534790039,0.0,0.13809426128864288,99
1668153268.47968292,143888882,0,21.99393081665039,23.955398559570312,14.24168872833252,81.3641128540039,1.8428899049758911,0.0,0.13772715628147125,99
1668153268.57996297,143989162,0,22.010284423828125,24.046743392944336,14.878586769104004,81.77857971191406,1.8520125150680542,0.0,0.13687177002429962,99
1668153268.67978001,144088979,0,22.143966674804688,24.214855194091797,15.324494361877441,82.20353698730469,1.8614227771759033,0.0,0.13513579964637756,99
1668153268.78004909,144189248,0,22.277551651000977,24.398122787475586,15.692147254943848,82.64063262939453,1.8711602687835693,0.0,0.13513579964637756,99
1668153268.87965298,144288852,0,22.32115364074707,24.488462448120117,16.03801155090332,83.08441162109375,1.881065845489502,0.0,0.13513579964637756,99
1668153268.97997189,144389171,0,22.390914916992188,24.535415649414062,15.869222640991211,83.52666473388672,1.8909683227539062,0.0,0.13513579964637756,99
1668153269.07968092,144488880,0,22.395994186401367,24.548913955688477,15.93152141571045,83.96794891357422,1.9008513689041138,0.0,0.13513579964637756,99
1668153269.17992806,144589127,0,22.372709274291992,24.52454948425293,15.923543930053711,84.4113998413086,1.9107725620269775,0.0,0.13513579964637756,98
1668153269.27980089,144689000,0,22.371706008911133,24.484272003173828,15.632918357849121,84.84513854980469,1.920475959777832,0.0,0.13513579964637756,98
1668153269.37996888,144789168,0,22.357568740844727,24.433889389038086,15.364697456359863,85.2726821899414,1.9300347566604614,0.0,0.13513579964637756,98
1668153269.47972989,144888929,0,22.381906509399414,24.455904006958008,15.347511291503906,85.69801330566406,1.9395545721054077,0.0,0.13513579964637756,98
1668153269.57993007,144989129,0,22.486839294433594,24.580495834350586,15.492976188659668,86.1292724609375,1.9492522478103638,0.0,0.13513579964637756,98
1668153269.67970800,145088907,0,22.535905838012695,24.6096134185791,15.345362663269043,86.55461883544922,1.9588377475738525,0.0,0.13513579964637756,98
1668153269.77993202,145189131,0,22.551523208618164,24.670352935791016,15.679258346557617,86.99114990234375,1.9686821699142456,0.0,0.13513579964637756,98
1668153269.87971807,145288917,0,22.564559936523438,24.655935287475586,15.476099014282227,87.41988372802734,1.9783562421798706,0.0,0.13513579964637756,98
1668153269.97994590,145389145,0,22.583147048950195,24.652542114257812,15.313447952270508,87.84654998779297,1.9879915714263916,0.0,0.13513579964637756,98
1668153270.07967901,145488878,0,22.56302261352539,24.626859664916992,15.272323608398438,88.26954650878906,1.9975357055664062,0.0,0.13513579964637756,98
1668153270.17991209,145589111,0,22.56996726989746,24.66410255432129,15.4965238571167,88.70118713378906,2.007277727127075,0.0,0.13513579964637756,98
1668153270.27972794,145688927,0,22.565227508544922,24.66050148010254,15.5049467086792,89.13111877441406,2.016979217529297,0.0,0.13513579964637756,98
1668153270.37991309,145789112,0,22.51482391357422,24.586679458618164,15.327564239501953,89.55770874023438,2.0265839099884033,0.0,0.13517184555530548,98
1668153270.47970605,145888905,0,22.522296905517578,24.59122657775879,15.300251960754395,89.98186492919922,2.0361368656158447,0.0,0.13522197306156158,98
1668153270.57994699,145989146,0,22.52823829650879,24.598201751708984,15.299637794494629,90.40776824951172,2.045731782913208,0.0,0.13529497385025024,98
1668153270.67968798,146088887,0,22.491344451904297,24.55242347717285,15.233963966369629,90.83001708984375,2.0552287101745605,0.0,0.13529497385025024,98
1668153270.77995896,146189158,0,22.40912437438965,24.464597702026367,15.192533493041992,91.25321197509766,2.0647120475769043,0.0,0.13529497385025024,98
1668153270.87970591,146288905,0,22.355073928833008,24.339754104614258,14.66928768157959,91.65969848632812,2.0737991333007812,0.0,0.13529497385025024,98
1668153270.97995806,146389157,0,22.3708553314209,24.356412887573242,14.675766944885254,92.06841278076172,2.082942485809326,0.0,0.13529497385025024,98
1668153271.07969999,146488899,0,22.452341079711914,24.426559448242188,14.591951370239258,92.47273254394531,2.0920205116271973,0.0,0.13529497385025024,98
1668153271.17995405,146589153,0,22.491727828979492,24.465717315673828,14.600544929504395,92.87936401367188,2.101166248321533,0.0,0.13519975543022156,98
1668153271.27972388,146688923,0,22.5341796875,24.52818489074707,14.722993850708008,93.28742980957031,2.1103618144989014,0.0,0.1354348063468933,98
1668153271.38011909,146789318,0,22.512521743774414,24.496912002563477,14.649033546447754,93.69598388671875,2.1195592880249023,0.0,0.1354621797800064,98
1668153271.47963595,146888835,0,22.494218826293945,24.44315528869629,14.41334342956543,94.0944595336914,2.1285226345062256,0.0,0.13521753251552582,98
1668153271.57990599,146989105,0,22.547883987426758,24.5347957611084,14.665604591369629,94.50296783447266,2.1377336978912354,0.0,0.13548104465007782,98
1668153271.67972589,147088925,0,22.542037963867188,24.516006469726562,14.55819320678711,94.90666961669922,2.146833896636963,0.0,0.1355915367603302,98
1668153271.77995396,147189153,0,22.482656478881836,24.496135711669922,14.847965240478516,95.32008361816406,2.156128406524658,0.0,0.13560634851455688,98
1668153271.87964892,147288848,0,22.426565170288086,24.435426712036133,14.77424430847168,95.72926330566406,2.1653048992156982,0.0,0.13597045838832855,98
1668153271.97994208,147389141,0,22.447263717651367,24.47226333618164,14.880120277404785,96.14384460449219,2.1746110916137695,0.0,0.1360875517129898,98
1668153272.07966208,147488861,0,22.48061180114746,24.51742935180664,14.96696949005127,96.55846405029297,2.183932065963745,0.0,0.1360875517129898,98
1668153272.17992091,147589120,0,22.455886840820312,24.504796981811523,15.062105178833008,96.97797393798828,2.193352460861206,0.0,0.13603082299232483,98
1668153272.27975106,147688950,0,22.422443389892578,24.4688663482666,15.026505470275879,97.39469909667969,2.2026965618133545,0.0,0.13618749380111694,98
1668153272.37992907,147789128,0,22.410274505615234,24.450117111206055,14.950705528259277,97.8107681274414,2.2120208740234375,0.0,0.13643787801265717,98
1668153272.47970200,147888901,0,22.420623779296875,24.462678909301758,14.950091361999512,98.22513580322266,2.221311330795288,0.0,0.13659146428108215,98
1668153272.57991791,147989117,0,22.466684341430664,24.542203903198242,15.195091247558594,98.6481704711914,2.2308156490325928,0.0,0.13659146428108215,98
1668153272.67968893,148088888,0,22.46499252319336,24.516311645507812,15.017913818359375,99.06440734863281,2.240166425704956,0.0,0.13659146428108215,98
1668153272.77989697,148189096,0,22.48003578186035,24.54677963256836,15.130847930908203,99.4856185913086,2.2496352195739746,0.0,0.13659146428108215,98
1668153272.87969708,148288896,0,22.455408096313477,24.489288330078125,14.890247344970703,99.89844512939453,2.2589054107666016,0.0,0.13659146428108215,98
1668153272.97992802,148389127,0,22.430973052978516,24.46518898010254,14.892702102661133,100.31312561035156,2.26820707321167,0.0,0.13659146428108215,98
1668153273.07967591,148488875,0,22.479270935058594,24.540483474731445,15.090340614318848,100.73127746582031,2.277606725692749,0.0,0.13659146428108215,98
1668153273.17999411,148589193,0,22.486553192138672,24.555477142333984,15.146807670593262,101.15339660644531,2.2870986461639404,0.0,0.13659146428108215,98
1668153273.27934289,148688542,0,22.49680519104004,24.574155807495117,15.208492279052734,101.57313537597656,2.296541452407837,0.0,0.13659146428108215,98
1668153273.37987208,148789071,0,22.42828941345215,24.45068359375,14.806159973144531,101.98660278320312,2.3058149814605713,0.0,0.13659146428108215,98
1668153273.47981811,148889017,0,22.419727325439453,24.4797306060791,15.061424255371094,102.4048080444336,2.3151910305023193,0.0,0.1367735117673874,98
1668153273.57979393,148988993,0,22.49374008178711,24.546463012695312,14.987531661987305,102.82106018066406,2.324554204940796,0.0,0.13696202635765076,98
1668153273.67970490,149088904,0,22.45713233947754,24.51633644104004,15.034485816955566,103.23834991455078,2.333925247192383,0.0,0.1369653344154358,98
1668153273.78006101,149189260,0,22.428863525390625,24.499000549316406,15.102921485900879,103.6594009399414,2.3433690071105957,0.0,0.13706867396831512,98
1668153273.87969995,149288899,0,22.399444580078125,24.468477249145508,15.06517505645752,104.07640075683594,2.3527095317840576,0.0,0.13733874261379242,98
1668153273.97990894,149389108,0,22.45952796936035,24.528390884399414,15.063946723937988,104.4957504272461,2.3621280193328857,0.0,0.13733874261379242,98
1668153274.07975101,149488950,0,22.492589950561523,24.567649841308594,15.109058380126953,104.9148178100586,2.371553897857666,0.0,0.13733874261379242,98
1668153274.17992496,149589124,0,22.49402618408203,24.549528121948242,14.952239990234375,105.33091735839844,2.380913496017456,0.0,0.13747113943099976,98
1668153274.27971101,149688910,0,22.53472137451172,24.60799789428711,15.08154296875,105.74898529052734,2.390334367752075,0.0,0.13747113943099976,98
1668153274.37989402,149789093,0,22.480899810791016,24.526901245117188,14.891167640686035,106.16342163085938,2.399651288986206,0.0,0.13739702105522156,98
1668153274.47972798,149888927,0,22.44304656982422,24.475387573242188,14.791736602783203,106.57365417480469,2.408858060836792,0.0,0.13739702105522156,98
1668153274.57989812,149989097,0,22.46316909790039,24.519502639770508,14.96635627746582,106.99012756347656,2.418213367462158,0.0,0.13739702105522156,98
1668153274.67969394,150088893,0,22.522010803222656,24.57097625732422,14.889020919799805,107.40290069580078,2.4275097846984863,0.0,0.13761582970619202,98
1668153274.77997899,150189178,0,22.529483795166016,24.592491149902344,14.961139678955078,107.8197021484375,2.4369001388549805,0.0,0.1378909945487976,98
1668153274.87969208,150288891,0,22.474096298217773,24.512346267700195,14.781609535217285,108.22916412353516,2.4461023807525635,0.0,0.1378909945487976,98
1668153274.98001599,150389215,0,22.41956901550293,24.457735061645508,14.780994415283203,108.64111328125,2.4553380012512207,0.0,0.1378909945487976,98
1668153275.07964993,150488849,0,22.470516204833984,24.523418426513672,14.887861251831055,109.05318450927734,2.464597463607788,0.0,0.1378909945487976,98
1668153275.17993307,150589132,0,22.53561782836914,24.625200271606445,15.153864860534668,109.47534942626953,2.4741110801696777,0.0,0.1378909945487976,98
1668153275.27972007,150688919,0,22.549894332885742,24.629404067993164,15.080826759338379,109.89340209960938,2.4835381507873535,0.0,0.1378909945487976,98
1668153275.37994003,150789139,0,22.530729293823242,24.59220314025879,14.931984901428223,110.30912780761719,2.4929046630859375,0.0,0.13805755972862244,98
1668153275.47967911,150888878,0,22.506675720214844,24.56761932373047,14.92738151550293,110.72273254394531,2.502213478088379,0.0,0.1380646824836731,98
1668153275.58011198,150989311,0,22.547019958496094,24.6414794921875,15.17013168334961,111.14598083496094,2.511756420135498,0.0,0.1380646824836731,98
1668153275.67972898,151088928,0,22.54069709777832,24.615835189819336,15.030189514160156,111.5619125366211,2.521131992340088,0.0,0.1380646824836731,98
1668153275.77989292,151189092,0,22.5395450592041,24.63811492919922,15.199898719787598,111.98486328125,2.530665159225464,0.0,0.1380646824836731,98
1668153275.87976193,151288961,0,22.51923179626465,24.597463607788086,15.052592277526855,112.40247344970703,2.540069580078125,0.0,0.1380646824836731,98
1668153275.97995305,151389152,0,22.49500846862793,24.554967880249023,14.920254707336426,112.8177490234375,2.5494112968444824,0.0,0.1380646824836731,98
1668153276.07971311,151488912,0,22.56378936767578,24.64926528930664,15.105070114135742,113.23635864257812,2.558856725692749,0.0,0.1380646824836731,98
1668153276.17987704,151589076,0,22.566761016845703,24.651899337768555,15.102615356445312,113.65660095214844,2.5683400630950928,0.0,0.1380646824836731,98
1668153276.27971196,151688911,0,22.563884735107422,24.638504028320312,15.009627342224121,114.0728759765625,2.577732801437378,0.0,0.13821928203105927,98
1668153276.37989998,151789099,0,22.483200073242188,24.548784255981445,14.944260597229004,114.48880004882812,2.5870840549468994,0.0,0.13821928203105927,98
1668153276.47962689,151888826,0,22.555740356445312,24.650466918945312,15.155092239379883,114.9086685180664,2.5965545177459717,0.0,0.13821928203105927,98
1668153276.57995892,151989158,0,22.500160217285156,24.587759017944336,15.088805198669434,115.3292236328125,2.6060171127319336,0.0,0.13835416734218597,98
1668153276.67966890,152088868,0,22.52814292907715,24.624658584594727,15.153251647949219,115.74896240234375,2.6154730319976807,0.0,0.13835416734218597,98
1668153276.78001904,152189218,0,22.551546096801758,24.664512634277344,15.2721529006958,116.17469787597656,2.6250739097595215,0.0,0.13835416734218597,98
1668153276.87969398,152288893,0,22.541366577148438,24.656946182250977,15.291045188903809,116.59811401367188,2.6346182823181152,0.0,0.13835416734218597,98
1668153276.97994208,152389141,0,22.499584197998047,24.57274627685547,14.98446273803711,117.01541137695312,2.644007444381714,0.0,0.13835416734218597,98
1668153277.07969189,152488891,0,22.497957229614258,24.56882667541504,14.967889785766602,117.43016815185547,2.653338670730591,0.0,0.13835416734218597,98
1668153277.17996192,152589161,0,22.545774459838867,24.631629943847656,15.064253807067871,117.84949493408203,2.662792682647705,0.0,0.13846386969089508,98
1668153277.27971601,152688915,0,22.541080474853516,24.644315719604492,15.18977165222168,118.2707290649414,2.672287702560425,0.0,0.13846386969089508,98
1668153277.37989402,152789093,0,22.49738121032715,24.5760555267334,15.012389183044434,118.68852233886719,2.6816868782043457,0.0,0.13846386969089508,98
1668153277.47973490,152888934,0,22.49077033996582,24.564727783203125,14.978325843811035,119.10395812988281,2.691030263900757,0.0,0.13846386969089508,98
1668153277.57991099,152989110,0,22.492345809936523,24.598308563232422,15.20566177368164,119.5271224975586,2.7005481719970703,0.0,0.13849854469299316,98
1668153277.67982888,153089028,0,22.501501083374023,24.616226196289062,15.276927947998047,119.95116424560547,2.710089683532715,0.0,0.13842609524726868,98
1668153277.77990699,153189106,0,22.510892868041992,24.6075439453125,15.14803409576416,120.37230682373047,2.7195699214935303,0.0,0.1384107619524002,98
1668153277.87969398,153288893,0,22.49469757080078,24.565692901611328,14.962674140930176,120.7870864868164,2.72890043258667,0.0,0.1384107619524002,98
1668153277.97993493,153389134,0,22.481090545654297,24.526769638061523,14.779767990112305,121.19865417480469,2.7381529808044434,0.0,0.1384107619524002,98
1668153278.07969999,153488899,0,22.5274715423584,24.595149993896484,14.93413257598877,121.612548828125,2.7474770545959473,0.0,0.1384531706571579,98
1668153278.17994189,153589141,0,22.532455444335938,24.602619171142578,14.944567680358887,122.0287094116211,2.7568540573120117,0.0,0.13852277398109436,98
1668153278.27965808,153688857,0,22.486743927001953,24.55830955505371,14.954693794250488,122.44297790527344,2.766169548034668,0.0,0.13852277398109436,98
1668153278.37992406,153789123,0,22.51597023010254,24.5616397857666,14.780688285827637,122.85467529296875,2.7754392623901367,0.0,0.13840146362781525,98
1668153278.47968888,153888888,0,22.507572174072266,24.538341522216797,14.673038482666016,123.26131439208984,2.7845916748046875,0.0,0.13840146362781525,98
1668153278.58006001,153989259,0,22.558135986328125,24.619487762451172,14.869686126708984,123.67594909667969,2.793945074081421,0.0,0.138627827167511,98
1668153278.67968607,154088885,0,22.554494857788086,24.59929656982422,14.742326736450195,124.0839614868164,2.803147554397583,0.0,0.13870275020599365,98
1668153278.78003097,154189230,0,22.539642333984375,24.574655532836914,14.678494453430176,124.49312591552734,2.8123700618743896,0.0,0.13863903284072876,98
1668153278.87970209,154288901,0,22.482624053955078,24.493085861206055,14.501419067382812,124.89466094970703,2.821397542953491,0.0,0.13863903284072876,98
1668153278.97990108,154389100,0,22.475244522094727,24.5007266998291,14.60975170135498,125.30133056640625,2.8305375576019287,0.0,0.13863903284072876,98
1668153279.07972002,154488919,0,22.523927688598633,24.5791072845459,14.823959350585938,125.71239471435547,2.839796304702759,0.0,0.13863903284072876,98
1668153279.17991090,154589110,0,22.55938148498535,24.593664169311523,14.656397819519043,126.12033081054688,2.8489990234375,0.0,0.13879822194576263,98
1668153279.27974892,154688948,0,22.566133499145508,24.569351196289062,14.43230152130127,126.5206069946289,2.858031749725342,0.0,0.1388009488582611,98
1668153279.37990093,154789100,0,22.439403533935547,24.397008895874023,14.103692054748535,126.91300201416016,2.8668367862701416,0.0,0.1388009488582611,98
1668153279.47984290,154889042,0,22.465087890625,24.448379516601562,14.288745880126953,127.3097152709961,2.875748872756958,0.0,0.1388009488582611,98
1668153279.57989407,154989093,0,22.54069709777832,24.549802780151367,14.461831092834473,127.71167755126953,2.8848092555999756,0.0,0.1389247328042984,98
1668153279.67965007,155088849,0,22.57164764404297,24.543010711669922,14.183789253234863,128.104736328125,2.893681287765503,0.0,0.1389869898557663,98
1668153279.78004289,155189242,0,22.593210220336914,24.538076400756836,13.990756034851074,128.49493408203125,2.9024970531463623,0.0,0.13901081681251526,98
1668153279.87938690,155288586,0,22.599056243896484,24.524747848510742,13.857566833496094,128.8773651123047,2.911139726638794,0.0,0.13896314799785614,98
1668153279.97986507,155389064,0,22.54012107849121,24.408666610717773,13.446335792541504,129.25270080566406,2.919599771499634,0.0,0.13896314799785614,98
1668153280.07965493,155488854,0,22.63353157043457,24.531156539916992,13.645984649658203,129.6309814453125,2.92816162109375,0.0,0.13906098902225494,98
1668153280.17983794,155589037,0,22.57433319091797,24.454444885253906,13.549757957458496,130.00808715820312,2.9366743564605713,0.0,0.13875608146190643,98
1668153280.27971792,155688917,0,22.632978439331055,24.513710021972656,13.548528671264648,130.38401794433594,2.9451828002929688,0.0,0.13881440460681915,98
1668153280.38003302,155789232,0,22.600875854492188,24.453914642333984,13.373296737670898,130.75665283203125,2.9536046981811523,0.0,0.13856258988380432,98
