timestamp,TimeUS,Instance,Volt,VoltR,Curr,CurrTot,EnrgTot,Temp,Res,RemPct
1674111794.23983598,77415870,0,23.458133697509766,23.490318298339844,0.42120495438575745,10.398588180541992,0.2442687600851059,0.0,0.07640983909368515,99
1674111794.33985591,77515890,0,23.45551300048828,23.48752212524414,0.41890329122543335,10.41022777557373,0.24454176425933838,0.0,0.07640983909368515,99
1674111794.43990302,77615937,0,23.47370147705078,23.508359909057617,0.4535817503929138,10.422823905944824,0.2448374480009079,0.0,0.07640983909368515,99
1674111794.53981113,77715845,0,23.486915588378906,23.52396583557129,0.4848843812942505,10.436291694641113,0.2451537698507309,0.0,0.07640983909368515,99
1674111794.63987613,77815910,0,23.471595764160156,23.505762100219727,0.44713708758354187,10.448720932006836,0.24544550478458405,0.0,0.07640983909368515,99
1674111794.73987412,77915908,0,23.456663131713867,23.48827362060547,0.41368618607521057,10.460212707519531,0.24571506679058075,0.0,0.07640983909368515,99
1674111794.83987498,78015909,0,23.47771453857422,23.51333236694336,0.4661300778388977,10.473161697387695,0.24601908028125763,0.0,0.07640983909368515,99
1674111794.93985295,78115887,0,23.492565155029297,23.53078842163086,0.5002288222312927,10.487054824829102,0.24634546041488647,0.0,0.07640983909368515,99
1674111795.03987312,78215907,0,23.488542556762695,23.525991439819336,0.49010154604911804,10.500672340393066,0.2466653287410736,0.0,0.07640983909368515,99
1674111795.13989997,78315934,0,23.494001388549805,23.53224754333496,0.500535786151886,10.514579772949219,0.2469920814037323,0.0,0.07640983909368515,99
1674111795.23986912,78415903,0,23.458961486816406,23.491836547851562,0.430258184671402,10.526529312133789,0.24727240204811096,0.0,0.07640983909368515,99
1674111795.33988595,78515920,0,23.469873428344727,23.503313064575195,0.4376235604286194,10.538688659667969,0.24755778908729553,0.0,0.07640983909368515,99
1674111795.43984008,78615874,0,23.490840911865234,23.528383255004883,0.4913291037082672,10.552331924438477,0.2478782683610916,0.0,0.07640983909368515,99
1674111795.53981304,78715847,0,23.499744415283203,23.53866958618164,0.5094355344772339,10.56648063659668,0.24821074306964874,0.0,0.07640983909368515,99
1674111795.63981700,78815851,0,23.500160217285156,23.538564682006836,0.502615749835968,10.5804443359375,0.24853888154029846,0.0,0.07640983909368515,99
1674111795.73985791,78915892,0,23.44383430480957,23.474037170410156,0.3952728807926178,10.59142780303955,0.24879638850688934,0.0,0.07640983909368515,99
1674111795.83989596,79015930,0,23.473129272460938,23.50818634033203,0.4587988555431366,10.604179382324219,0.24909570813179016,0.0,0.07640983909368515,99
1674111795.93988013,79115914,0,23.485095977783203,23.52186393737793,0.48120176792144775,10.617545127868652,0.24940960109233856,0.0,0.07640983909368515,99
1674111796.03980708,79215841,0,23.503286361694336,23.542985916137695,0.519562840461731,10.63196849822998,0.2497485876083374,0.0,0.07640983909368515,99
1674111796.13985991,79315894,0,23.476192474365234,23.51106071472168,0.45634374022483826,10.644652366638184,0.25004637241363525,0.0,0.07640983909368515,99
1674111796.23989391,79415928,0,23.462120056152344,23.49443244934082,0.42289286851882935,10.656404495239258,0.2503221035003662,0.0,0.07640983909368515,99
1674111796.33985591,79515890,0,23.487777709960938,23.524850845336914,0.48519134521484375,10.669878005981445,0.25063857436180115,0.0,0.07640983909368515,99
1674111796.43986297,79615897,0,23.461013793945312,23.567087173461914,1.433171033859253,10.709694862365723,0.25157272815704346,0.0,0.07401242107152939,99
1674111796.53985906,79715893,0,23.276960372924805,23.61411476135254,4.840558052062988,10.844160079956055,0.2547026574611664,0.0,0.06965213268995285,99
1674111796.63987303,79815907,0,23.36284065246582,23.57802963256836,3.130880117416382,10.931147575378418,0.2567349374294281,0.0,0.06873103231191635,99
1674111796.73986912,79915903,0,23.380935668945312,23.522192001342773,2.0423452854156494,10.987882614135742,0.2580614387989044,0.0,0.06916379183530807,99
1674111796.83988214,80015916,0,23.378541946411133,23.51593780517578,1.9720677137374878,11.04267406463623,0.25934237241744995,0.0,0.06967123597860336,99
1674111796.93985701,80115891,0,23.410037994384766,23.55271339416504,2.0583038330078125,11.099839210510254,0.260680615901947,0.0,0.06931695342063904,99
1674111797.03987694,80215911,0,23.427654266357422,23.56667137145996,2.005518913269043,11.155560493469238,0.26198601722717285,0.0,0.06931695342063904,99
1674111797.13987398,80315908,0,23.42430305480957,23.558937072753906,1.942299723625183,11.209519386291504,0.2632499635219574,0.0,0.06931695342063904,99
1674111797.23984599,80415880,0,23.378252029418945,23.501314163208008,1.7753520011901855,11.258825302124023,0.2644026279449463,0.0,0.06931695342063904,99
1674111797.33987594,80515910,0,23.409208297729492,23.53573226928711,1.82530677318573,11.309547424316406,0.26558998227119446,0.0,0.06931695342063904,99
1674111797.43986511,80615899,0,23.4153995513916,23.540996551513672,1.8103375434875488,11.359832763671875,0.2667674422264099,0.0,0.06937725841999054,99
1674111797.53979111,80715825,0,23.430620193481445,23.55870819091797,1.8462433815002441,11.411083221435547,0.2679682672023773,0.0,0.06937725841999054,99
1674111797.63982296,80815857,0,23.410900115966797,23.536027908325195,1.8035858869552612,11.461202621459961,0.26914161443710327,0.0,0.06937725841999054,99
1674111797.73989201,80915926,0,23.387636184692383,23.50937843322754,1.7547905445098877,11.509981155395508,0.27028244733810425,0.0,0.06937725841999054,99
1674111797.83987999,81015914,0,23.42497444152832,23.5522518157959,1.8345816135406494,11.560942649841309,0.27147620916366577,0.0,0.06937725841999054,99
1674111797.93984914,81115883,0,23.42267608642578,23.550188064575195,1.837957501411438,11.61198616027832,0.27267178893089294,0.0,0.06937725841999054,99
1674111798.03988814,81215922,0,23.431293487548828,23.561403274536133,1.875397801399231,11.664105415344238,0.27389299869537354,0.0,0.06937725841999054,99
1674111798.13986802,81315902,0,23.435911178588867,23.564910888671875,1.8594056367874146,11.715749740600586,0.2751033306121826,0.0,0.06937725841999054,99
1674111798.23987508,81415909,0,23.39299774169922,23.51512336730957,1.7603144645690918,11.764655113220215,0.2762473523616791,0.0,0.06937725841999054,99
1674111798.33983207,81515866,0,23.403240203857422,23.527196884155273,1.7867070436477661,11.814268112182617,0.2774084508419037,0.0,0.06937725841999054,99
1674111798.43986607,81615900,0,23.422292709350586,23.549144744873047,1.8284437656402588,11.865079879760742,0.2785985767841339,0.0,0.06937725841999054,99
1674111798.53979897,81715833,0,23.42985725402832,23.557497024536133,1.8397988080978394,11.916154861450195,0.27979525923728943,0.0,0.06937725841999054,99
1674111798.63980103,81815835,0,23.419422149658203,23.546550750732422,1.8324333429336548,11.967061042785645,0.2809874415397644,0.0,0.06937725841999054,99
1674111798.73982692,81915861,0,23.385433197021484,23.507728576660156,1.7627696990966797,12.016043663024902,0.28213292360305786,0.0,0.06937725841999054,99
1674111798.83984303,82015877,0,23.404773712158203,23.529815673828125,1.8023582696914673,12.066116333007812,0.2833048701286316,0.0,0.06937725841999054,99
1674111798.93988514,82115919,0,23.41442108154297,23.540441513061523,1.8164411783218384,12.116602897644043,0.2844869792461395,0.0,0.06937725841999054,99
1674111799.03986096,82215895,0,23.430620193481445,23.559389114379883,1.8560638427734375,12.16815185546875,0.28569480776786804,0.0,0.06937725841999054,99
1674111799.13982201,82315856,0,23.370403289794922,23.545251846313477,2.5235469341278076,12.238229751586914,0.28733253479003906,0.0,0.0692865327000618,99
1674111799.23982501,82415859,0,23.110666275024414,23.610706329345703,7.709661960601807,12.452410697937012,0.2922824025154114,0.0,0.06485884636640549,99
1674111799.33986306,82515897,0,23.00937271118164,23.605506896972656,10.358420372009277,12.740277290344238,0.29890602827072144,0.0,0.05755076929926872,99
1674111799.43987513,82615909,0,23.099178314208984,23.580385208129883,8.426247596740723,12.974384307861328,0.3043137192726135,0.0,0.057108163833618164,99
1674111799.53986192,82715896,0,23.08673095703125,23.591516494750977,8.91788387298584,13.22209358215332,0.31003251671791077,0.0,0.056603699922561646,99
1674111799.63986611,82815900,0,23.045372009277344,23.58342742919922,9.566339492797852,13.4878568649292,0.31615713238716125,0.0,0.05624472722411156,99
1674111799.73988605,82915920,0,22.926753997802734,23.561279296875,11.296579360961914,13.801738739013672,0.3233534097671509,0.0,0.056169673800468445,99
1674111799.83991194,83015946,0,22.933391571044922,23.55820655822754,11.130859375,14.111031532287598,0.3304465413093567,0.0,0.05613359808921814,99
1674111799.93988514,83115919,0,22.86663055419922,23.60117530822754,13.177193641662598,14.476995468139648,0.3388148844242096,0.0,0.055743686854839325,99
1674111800.03988004,83215914,0,22.86012077331543,23.600189208984375,13.356110572814941,14.848012924194336,0.3472963869571686,0.0,0.055410418659448624,99
1674111800.13989496,83315929,0,22.885202407836914,23.584190368652344,12.652107238769531,15.19952392578125,0.35534077882766724,0.0,0.05524678900837898,99
1674111800.23981905,83415853,0,22.844322204589844,23.525054931640625,12.246092796325684,15.539424896240234,0.36310556530952454,0.0,0.055587753653526306,99
1674111800.33980608,83515840,0,22.83350372314453,23.569046020507812,13.245323181152344,15.907390594482422,0.37150752544403076,0.0,0.05553215742111206,99
1674111800.43986106,83615895,0,22.758060455322266,23.57187843322754,14.672663688659668,16.315176010131836,0.3807879388332367,0.0,0.05546486750245094,99
1674111800.53989506,83715929,0,22.7572021484375,23.56029510498047,14.472264289855957,16.717395782470703,0.38994136452674866,0.0,0.05549187213182449,99
1674111800.63981009,83815844,0,22.716917037963867,23.51949119567871,14.376720428466797,17.11644172668457,0.3990064561367035,0.0,0.055824607610702515,99
1674111800.73986697,83915901,0,22.677547454833984,23.47405433654785,14.105226516723633,17.508508682250977,0.40789756178855896,0.0,0.05646895244717598,99
1674111800.83987904,84015913,0,22.657251358032227,23.496217727661133,14.747544288635254,17.918245315551758,0.4171810448169708,0.0,0.05688855051994324,99
1674111800.93989706,84115931,0,22.561798095703125,23.491756439208984,16.239023208618164,18.36944580078125,0.4273609519004822,0.0,0.05726691707968712,99
1674111801.03983998,84215874,0,22.534896850585938,23.47892189025879,16.362394332885742,18.823728561401367,0.43759819865226746,0.0,0.057694848626852036,99
1674111801.13987899,84315913,0,22.60928726196289,23.507431030273438,15.51476764678955,19.254901885986328,0.4473467171192169,0.0,0.05788956582546234,99
1674111801.23990607,84415940,0,22.556631088256836,23.52920150756836,16.791730880737305,19.72150230407715,0.4578716456890106,0.0,0.05791958421468735,99
1674111801.33985400,84515888,0,22.510101318359375,23.59490394592285,18.847579956054688,20.244815826416016,0.4696514904499054,0.0,0.0575566403567791,99
1674111801.43988895,84615923,0,22.305126190185547,23.574283599853516,22.11840057373047,20.859474182128906,0.48336151242256165,0.0,0.05738018825650215,99
1674111801.53989410,84715928,0,22.144084930419922,23.47122573852539,22.990407943725586,21.498180389404297,0.4975050687789917,0.0,0.05772586911916733,99
1674111801.63993311,84815967,0,22.12303352355957,23.392375946044922,21.730186462402344,22.102081298828125,0.5108651518821716,0.0,0.058413803577423096,99
1674111801.73983312,84915867,0,21.964872360229492,23.338302612304688,23.16305160522461,22.74491310119629,0.5249848961830139,0.0,0.059294022619724274,99
1674111801.83983707,85015871,0,21.921504974365234,23.355945587158203,23.913394927978516,23.40925407409668,0.5395482182502747,0.0,0.05998483672738075,99
1674111801.93984008,85115874,0,21.95003318786621,23.358783721923828,23.248058319091797,24.0550594329834,0.5537236928939819,0.0,0.06059650331735611,99
1674111802.03987908,85215913,0,21.828065872192383,23.39967918395996,25.790327072143555,24.7718448638916,0.5693697333335876,0.0,0.06093809753656387,99
1674111802.13988805,85315922,0,21.780197143554688,23.458227157592773,27.512279510498047,25.536197662353516,0.5860174894332886,0.0,0.060992006212472916,99
1674111802.23987198,85415906,0,21.802597045898438,23.442338943481445,26.834976196289062,26.28156089782715,0.6022683382034302,0.0,0.0611046627163887,99
1674111802.33981800,85515852,0,21.773048400878906,23.53226661682129,28.907567977905273,27.084178924560547,0.6197437644004822,0.0,0.06085668131709099,99
1674111802.43986893,85615903,0,21.6121768951416,23.514205932617188,31.328136444091797,27.954822540283203,0.6385602951049805,0.0,0.060713112354278564,99
1674111802.53990293,85715937,0,21.347362518310547,23.606733322143555,38.117130279541016,29.014183044433594,0.6611748337745667,0.0,0.05927443131804466,99
1674111802.63988304,85815917,0,21.371776580810547,23.605953216552734,38.40376663208008,30.08083724975586,0.683971107006073,0.0,0.0581759549677372,99
1674111802.73987699,85915911,0,21.29039764404297,23.41295623779297,36.38873291015625,31.091646194458008,0.7054916024208069,0.0,0.05833011865615845,99
1674111802.83985996,86015894,0,21.31892967224121,23.409393310546875,35.74702835083008,32.08454132080078,0.7266590595245361,0.0,0.05847937986254692,99
1674111802.93988013,86115914,0,21.288005828857422,23.368087768554688,35.4158935546875,33.0685920715332,0.7476075291633606,0.0,0.05873299390077591,99
1674111803.03988194,86215916,0,21.2877197265625,23.401119232177734,35.90016555786133,34.06591796875,0.7688383460044861,0.0,0.05886877700686455,99
1674111803.13989091,86315925,0,21.257946014404297,23.41970443725586,36.67782211303711,35.08491897583008,0.7905002236366272,0.0,0.05893910303711891,99
1674111803.23988295,86415917,0,21.302865982055664,23.505855560302734,37.494659423828125,36.12643814086914,0.8126875758171082,0.0,0.05875476822257042,99
1674111803.33988714,86515921,0,20.95770835876465,23.545574188232422,44.23066329956055,37.355140686035156,0.8384383916854858,0.0,0.058508407324552536,99
1674111803.43984199,86615876,0,20.995813369750977,23.605241775512695,45.63744354248047,38.622440338134766,0.8650464415550232,0.0,0.05717736482620239,99
1674111803.53988814,86715922,0,20.995718002319336,23.57811164855957,45.42783737182617,39.88501739501953,0.8915551900863647,0.0,0.056846074759960175,99
1674111803.63991213,86815946,0,20.94919204711914,23.469127655029297,44.35710144042969,41.1175537109375,0.9173758029937744,0.0,0.05681018903851509,99
1674111803.73986101,86915895,0,20.889833450317383,23.513381958007812,46.293880462646484,42.40292739868164,0.9442270994186401,0.0,0.0566716231405735,99
1674111803.83985591,87015890,0,20.91778564453125,23.569412231445312,47.00248336791992,43.70844650268555,0.9715356826782227,0.0,0.05641461908817291,99
1674111803.93987894,87115913,0,20.815061569213867,23.407018661499023,45.824031829833984,44.98165512084961,0.998037576675415,0.0,0.05656328797340393,99
1674111804.03986597,87215900,0,20.88427734375,23.537540435791016,47.050838470458984,46.288780212402344,1.0253359079360962,0.0,0.0563914030790329,99
1674111804.13984299,87315877,0,20.926403045654297,23.419925689697266,44.124786376953125,47.51429748535156,1.0509815216064453,0.0,0.056510720402002335,99
1674111804.23987007,87415904,0,20.96498680114746,23.336315155029297,41.96245193481445,48.680328369140625,1.0754274129867554,0.0,0.056510720402002335,99
1674111804.33991098,87515945,0,20.943540573120117,23.247180938720703,40.7646598815918,49.81322479248047,1.0991542339324951,0.0,0.056510720402002335,99
1674111804.43986201,87615896,0,21.030948638916016,23.14118194580078,37.69761276245117,50.859962463378906,1.1211681365966797,0.0,0.05597792565822601,99
1674111804.53990793,87715942,0,21.019365310668945,23.182430267333984,38.86686325073242,51.940181732177734,1.143873691558838,0.0,0.05565318837761879,99
1674111804.63987899,87815913,0,21.011131286621094,23.19069480895996,39.32719421386719,53.03237533569336,1.166821837425232,0.0,0.05542127043008804,99
1674111804.73987508,87915909,0,21.046363830566406,23.237648010253906,39.59971237182617,54.13241195678711,1.1899735927581787,0.0,0.055335838347673416,99
1674111804.83988905,88015923,0,21.02448272705078,23.184118270874023,39.1484489440918,55.220096588134766,1.2128416299819946,0.0,0.05516528710722923,99
1674111804.93980098,88115835,0,21.074892044067383,23.268598556518555,39.740882873535156,56.32313919067383,1.2360881567001343,0.0,0.05520026013255119,99
1674111805.03980112,88215835,0,21.060340881347656,23.24117660522461,39.526981353759766,57.42118835449219,1.2592134475708008,0.0,0.05517333373427391,99
1674111805.13988113,88315915,0,21.076522827148438,23.267345428466797,39.68594741821289,58.52455520629883,1.2824686765670776,0.0,0.05520397052168846,99
1674111805.23989606,88415930,0,21.026927947998047,23.20163917541504,39.39409255981445,59.61908721923828,1.305483341217041,0.0,0.05520397052168846,99
1674111805.33980298,88515837,0,21.068384170532227,23.270103454589844,39.84982681274414,60.7250862121582,1.3287849426269531,0.0,0.05525042116641998,99
1674111805.43983102,88615865,0,21.011131286621094,23.187314987182617,39.38764953613281,61.819580078125,1.3517814874649048,0.0,0.05525042116641998,99
1674111805.53985310,88715887,0,21.05583953857422,23.223346710205078,39.2553825378418,62.91032409667969,1.3747479915618896,0.0,0.05521552637219429,99
1674111805.63988113,88815915,0,21.022991180419922,23.167064666748047,38.830989837646484,63.989349365234375,1.3974323272705078,0.0,0.05521552637219429,99
1674111805.73986793,88915902,0,20.95665740966797,23.135499954223633,39.460693359375,65.0854263305664,1.4204024076461792,0.0,0.05521552637219429,99
1674111805.83988500,89015919,0,20.929275512695312,23.103118896484375,39.37015914916992,66.17931365966797,1.4432966709136963,0.0,0.05521552637219429,99
1674111805.93988800,89115922,0,20.92496681213379,23.102893829345703,39.44411849975586,67.27508544921875,1.4662256240844727,0.0,0.05521552637219429,99
1674111806.03982210,89215856,0,20.980113983154297,23.183765411376953,39.920406341552734,68.38337707519531,1.4894776344299316,0.0,0.05520113557577133,99
1674111806.13992095,89315955,0,20.927553176879883,23.11089324951172,39.552452087402344,69.48323059082031,1.5124949216842651,0.0,0.05520113557577133,99
1674111806.23988700,89415921,0,20.942968368530273,23.147178649902344,39.89739227294922,70.59119415283203,1.5356988906860352,0.0,0.0552469864487648,99
1674111806.33988595,89515920,0,20.927265167236328,23.1280517578125,39.77341079711914,71.69605255126953,1.5588206052780151,0.0,0.055333107709884644,99
1674111806.43991709,89615951,0,20.954837799072266,23.161867141723633,39.88634490966797,72.80448150634766,1.5820475816726685,0.0,0.0553329735994339,99
1674111806.53981495,89715849,0,20.95448875427246,23.16019630432129,39.85974884033203,73.91064453125,1.6052266359329224,0.0,0.055336736142635345,99
1674111806.63981104,89815845,0,20.948518753051758,23.136491775512695,39.53925704956055,75.0090103149414,1.6282358169555664,0.0,0.055336736142635345,99
1674111806.73987007,89915904,0,20.965560913085938,23.1626033782959,39.70313262939453,76.1124267578125,1.651369571685791,0.0,0.055336736142635345,99
1674111806.83986807,90015902,0,21.001848220825195,23.213308334350586,39.96368408203125,77.22278594970703,1.6746891736984253,0.0,0.055336736142635345,99
1674111806.93980908,90115843,0,20.98528289794922,23.183834075927734,39.70743179321289,78.32521057128906,1.6978237628936768,0.0,0.05536876246333122,99
1674111807.03992796,90215962,0,20.973316192626953,23.17193603515625,39.70773696899414,79.42960357666016,1.7209866046905518,0.0,0.05537005141377449,99
1674111807.13988209,90315916,0,20.941051483154297,23.125635147094727,39.454246520996094,80.52513122558594,1.743928074836731,0.0,0.05537005141377449,98
1674111807.23989105,90415925,0,20.896915435791016,23.071184158325195,39.26796340942383,81.61610412597656,1.766726016998291,0.0,0.05537005141377449,98
1674111807.33986092,90515895,0,20.872365951538086,23.05242156982422,39.372474670410156,82.70954132080078,1.789548635482788,0.0,0.05537005141377449,98
1674111807.43988204,90615916,0,20.91845703125,23.12866973876953,39.91089630126953,83.81849670410156,1.812746286392212,0.0,0.055378660559654236,98
1674111807.53989911,90715933,0,20.932533264160156,23.156286239624023,40.19630432128906,84.93534088134766,1.8361246585845947,0.0,0.0553223192691803,98
1674111807.63987303,90815907,0,20.959623336791992,23.177654266357422,40.09288024902344,86.04882049560547,1.8594627380371094,0.0,0.0553223192691803,98
1674111807.73988104,90915915,0,20.670305252075195,23.222129821777344,46.28559494018555,87.33474731445312,1.8860433101654053,0.0,0.05513216182589531,98
1674111807.83986807,91015902,0,20.60041618347168,23.450700759887695,52.307979583740234,88.78767395019531,1.9159742593765259,0.0,0.05449045076966286,98
1674111807.93990111,91115935,0,20.579448699951172,23.575939178466797,55.80436706542969,90.33843231201172,1.9478880167007446,0.0,0.05369632691144943,98
1674111808.03981304,91215847,0,20.669347763061523,23.490375518798828,53.07520294189453,91.8115463256836,1.9783363342285156,0.0,0.05315151810646057,98
1674111808.13984108,91315875,0,20.660783767700195,23.414371490478516,52.14314651489258,93.26050567626953,2.008272886276245,0.0,0.0528082437813282,98
1674111808.23987103,91415905,0,20.632200241088867,23.353668212890625,51.72304916381836,94.69751739501953,2.037921667098999,0.0,0.05261615291237831,98
1674111808.33986592,91515900,0,20.608552932739258,23.334619522094727,51.9461555480957,96.14080047607422,2.0676655769348145,0.0,0.052478689700365067,98
1674111808.43979311,91615827,0,20.571121215820312,23.268220901489258,51.38854217529297,97.56732940673828,2.097010850906372,0.0,0.052484460175037384,98
1674111808.53989506,91715929,0,20.650487899780273,23.32686996459961,51.101295471191406,98.98835754394531,2.1263558864593506,0.0,0.052374038845300674,98
1674111808.63986111,91815895,0,20.6069278717041,23.281925201416016,51.08686447143555,100.4070816040039,2.1555914878845215,0.0,0.052361760288476944,98
1674111808.73986506,91915899,0,20.576099395751953,23.266294479370117,51.357852935791016,101.83377075195312,2.1849472522735596,0.0,0.052381377667188644,98
1674111808.83989406,92015928,0,20.580215454101562,23.26885414123535,51.31549835205078,103.25980377197266,2.2142951488494873,0.0,0.05239427834749222,98
1674111808.93988705,92115921,0,20.604724884033203,23.29987144470215,51.48828125,104.6900634765625,2.243765354156494,0.0,0.05234486237168312,98
1674111809.03992009,92215954,0,20.64504051208496,23.35881233215332,51.84410095214844,106.13076782226562,2.2735087871551514,0.0,0.05234486237168312,98
1674111809.13988614,92315920,0,20.768341064453125,23.42828369140625,50.597076416015625,107.53587341308594,2.3026905059814453,0.0,0.052571091800928116,98
1674111809.23997402,92416008,0,20.878725051879883,23.317169189453125,46.39238739013672,108.82579040527344,2.329622268676758,0.0,0.05256129428744316,98
1674111809.33996606,92516000,0,21.0090274810791,23.258684158325195,42.88618469238281,110.01692199707031,2.354646682739258,0.0,0.052456460893154144,98
1674111809.43994403,92615978,0,21.178194046020508,23.213876724243164,38.92271423339844,111.09809875488281,2.3775439262390137,0.0,0.05230063199996948,98
1674111809.53995204,92715986,0,21.370723724365234,23.17572784423828,34.634246826171875,112.06031799316406,2.3981072902679443,0.0,0.05211615562438965,98
1674111809.64000392,92816038,0,21.46847152709961,23.078371047973633,31.074031829833984,112.92400360107422,2.416649341583252,0.0,0.05180853232741356,98
1674111809.73998904,92916023,0,21.391305923461914,22.993539810180664,31.154741287231445,113.78935241699219,2.4351603984832764,0.0,0.051428232342004776,98
1674111809.83998203,93016016,0,21.414030075073242,23.08601951599121,32.59773254394531,114.69485473632812,2.4545507431030273,0.0,0.0512915700674057,98
1674111809.94005108,93116085,0,21.344589233398438,23.032669067382812,33.03781509399414,115.61328125,2.474154233932495,0.0,0.05109536647796631,98
1674111810.03996396,93215998,0,21.368141174316406,23.109085083007812,34.08798599243164,116.5594253540039,2.4943714141845703,0.0,0.05107209086418152,98
1674111810.13996005,93315994,0,21.33539581298828,23.13463020324707,35.21212387084961,117.53751373291016,2.5152392387390137,0.0,0.05109700933098793,98
1674111810.24001503,93416049,0,21.2681884765625,23.09914207458496,35.86119079589844,118.53435516357422,2.536440372467041,0.0,0.05105667933821678,98
1674111810.34002900,93516063,0,21.142004013061523,23.02981948852539,36.974891662597656,119.56166076660156,2.558159589767456,0.0,0.05105667933821678,98
1674111810.43995714,93615991,0,21.12429428100586,23.10301399230957,38.75515365600586,120.63748931884766,2.580885887145996,0.0,0.05105694383382797,98
1674111810.53998113,93716015,0,21.076234817504883,23.09735679626465,39.577003479003906,121.73721313476562,2.6040639877319336,0.0,0.05106809735298157,98
1674111810.64009500,93816129,0,21.0272159576416,23.08014678955078,40.16592025756836,122.85429382324219,2.6275529861450195,0.0,0.051111284643411636,98
1674111810.73994207,93915976,0,21.048734664916992,23.135425567626953,40.88100814819336,123.98822784423828,2.651420831680298,0.0,0.051043059676885605,98
1674111810.83997893,94016013,0,20.929370880126953,23.047849655151367,41.4158821105957,125.13910675048828,2.6755080223083496,0.0,0.05115136876702309,98
1674111810.93995595,94115990,0,20.922000885009766,23.12161636352539,43.04085922241211,126.33458709716797,2.7005200386047363,0.0,0.05110527202486992,98
1674111811.03994703,94215981,0,20.899213790893555,23.15988540649414,44.33623123168945,127.56612396240234,2.7262582778930664,0.0,0.05098927766084671,98
1674111811.13995409,94315988,0,20.870014190673828,23.166690826416016,45.14642333984375,128.8203887939453,2.7524349689483643,0.0,0.05087171494960785,98
1674111811.23992205,94415956,0,20.871164321899414,23.155384063720703,44.97548294067383,130.0694122314453,2.77850341796875,0.0,0.050788093358278275,98
1674111811.34000397,94516038,0,20.938276290893555,23.169761657714844,44.02658462524414,131.29347229003906,2.804133176803589,0.0,0.05068496987223625,98
1674111811.44001293,94616047,0,20.965656280517578,23.172603607177734,43.62701416015625,132.50552368164062,2.82954478263855,0.0,0.05058673396706581,98
1674111811.53995991,94715994,0,20.937679290771484,23.15062141418457,43.78519821166992,133.7212371826172,2.85499906539917,0.0,0.05054087191820145,98
1674111811.63995695,94815991,0,20.928796768188477,23.180450439453125,44.63913345336914,134.96127319335938,2.8809516429901123,0.0,0.05044126138091087,98
1674111811.74001503,94916049,0,20.894428253173828,23.163631439208984,45.038089752197266,136.21315002441406,2.907109022140503,0.0,0.050384070724248886,98
1674111811.83999705,95016031,0,20.84330177307129,23.150848388671875,45.82341766357422,137.48590087890625,2.9336371421813965,0.0,0.05035737529397011,98
1674111811.93994212,95115976,0,20.840526580810547,23.10175323486328,44.839839935302734,138.73086547851562,2.959582805633545,0.0,0.05042896047234535,98
1674111812.03994203,95215976,0,20.77054214477539,23.063621520996094,45.34620666503906,139.99058532714844,2.985747814178467,0.0,0.05056825280189514,98
1674111812.13996911,95316003,0,20.762981414794922,23.03424072265625,44.752685546875,141.23414611816406,3.0115678310394287,0.0,0.05075136944651604,98
1674111812.23997402,95416008,0,20.794954299926758,23.068479537963867,44.71033477783203,142.4762420654297,3.0373973846435547,0.0,0.05085011199116707,98
1674111812.33996511,95515999,0,20.786733627319336,23.04071617126465,44.32600784301758,143.70751953125,3.0629916191101074,0.0,0.05085011199116707,98
1674111812.44000006,95616034,0,20.838037490844727,23.095203399658203,44.37674331665039,144.9407196044922,3.088689088821411,0.0,0.05086372047662735,98
1674111812.53995800,95715992,0,20.899213790893555,23.1490478515625,44.16407012939453,146.16708374023438,3.114319086074829,0.0,0.050942644476890564,98
1674111812.63996291,95815997,0,20.89385223388672,23.113929748535156,43.577606201171875,147.37774658203125,3.1396143436431885,0.0,0.050945356488227844,98
1674111812.73996592,95916000,0,20.88791847229004,23.09595489501953,43.36492919921875,148.58245849609375,3.164778232574463,0.0,0.05091756582260132,98
1674111812.83997202,96016006,0,20.88964080810547,23.07461929321289,42.96014404296875,149.7759552001953,3.1897099018096924,0.0,0.05086059495806694,98
1674111812.94002700,96116061,0,20.85373878479004,23.0313663482666,42.81560134887695,150.96597290039062,3.2145261764526367,0.0,0.05086059495806694,98
1674111813.04001212,96216046,0,20.88581085205078,23.06008529663086,42.790740966796875,152.15377807617188,3.2393345832824707,0.0,0.05081178620457649,98
1674111813.13996911,96316003,0,20.86359977722168,23.02789306640625,42.59433364868164,153.33734130859375,3.2640280723571777,0.0,0.05081178620457649,98
1674111813.24001193,96416046,0,20.819602966308594,22.969072341918945,42.302581787109375,154.51300048828125,3.2885048389434814,0.0,0.05081178620457649,98
1674111813.33999205,96516026,0,20.840717315673828,22.99286460876465,42.35526657104492,155.6894073486328,3.3130218982696533,0.0,0.05081178620457649,98
1674111813.44000101,96616035,0,20.836698532104492,22.990015029907227,42.3782844543457,156.8665771484375,3.337550401687622,0.0,0.05081178620457649,98
1674111813.53999996,96716034,0,20.881885528564453,23.036958694458008,42.41204071044922,158.04476928710938,3.3621532917022705,0.0,0.05081278085708618,98
1674111813.63996291,96815997,0,20.830856323242188,22.972816467285156,42.15394592285156,159.215576171875,3.3865420818328857,0.0,0.05081278085708618,98
1674111813.73994493,96915979,0,20.8815975189209,23.052379608154297,42.68425369262695,160.401123046875,3.4112980365753174,0.0,0.050856735557317734,97
1674111813.84004807,97016082,0,20.895862579345703,23.015527725219727,41.701595306396484,161.560791015625,3.435530424118042,0.0,0.05082936957478523,97
1674111813.93998694,97116021,0,20.917213439941406,23.060836791992188,42.127864837646484,162.73037719726562,3.4599950313568115,0.0,0.05088373273611069,97
1674111814.03994513,97215979,0,20.835878372192383,22.99307632446289,42.394649505615234,163.90760803222656,3.4845235347747803,0.0,0.05088373273611069,97
1674111814.13994098,97315975,0,20.83755874633789,22.99651527404785,42.42922592163086,165.0862579345703,3.5090837478637695,0.0,0.05088373273611069,97
1674111814.23999214,97416026,0,20.782127380371094,22.972631454467773,42.96628189086914,166.2804718017578,3.5339019298553467,0.0,0.05098193883895874,97
1674111814.33995914,97515993,0,20.723533630371094,22.954042434692383,43.64419937133789,167.4925079345703,3.5590195655822754,0.0,0.05110663175582886,97
1674111814.44000506,97616039,0,20.714248657226562,22.959232330322266,43.83938217163086,168.71092224121094,3.5842580795288086,0.0,0.05120927467942238,97
1674111814.53999996,97716034,0,20.78509521484375,23.062519073486328,44.56732177734375,169.94818115234375,3.6099746227264404,0.0,0.05110074579715729,97
1674111814.63993311,97815967,0,20.77935218811035,23.029632568359375,44.06555938720703,171.17225646972656,3.6354100704193115,0.0,0.05106666311621666,97
1674111814.73991394,97915948,0,20.746416091918945,22.973440170288086,43.54323196411133,172.38165283203125,3.6605007648468018,0.0,0.051145121455192566,97
1674111814.84007406,98016108,0,20.752349853515625,22.991676330566406,43.75345230102539,173.5990753173828,3.685765027999878,0.0,0.051180582493543625,97
1674111814.94002604,98116060,0,20.764179229736328,23.007312774658203,43.82645797729492,174.81597900390625,3.7110331058502197,0.0,0.05118216946721077,97
1674111815.03993106,98215965,0,20.76087188720703,23.015249252319336,44.05819320678711,176.0387725830078,3.736419200897217,0.0,0.05116816237568855,97
1674111815.14003205,98316066,0,20.781265258789062,23.018871307373047,43.730438232421875,177.25482177734375,3.761690139770508,0.0,0.05116816237568855,97
1674111815.23997808,98416012,0,20.6921329498291,22.940214157104492,43.818206787109375,178.47145080566406,3.786864757537842,0.0,0.05130472406744957,97
1674111815.33999395,98516028,0,20.672603607177734,22.911222457885742,43.63376235961914,179.68377685546875,3.81192684173584,0.0,0.05130472406744957,97
1674111815.43994403,98615978,0,20.75321388244629,23.01148223876953,44.01676559448242,180.9059600830078,3.8372912406921387,0.0,0.05130472406744957,97
1674111815.53995013,98715984,0,20.663314819335938,22.880708694458008,43.2200813293457,182.106689453125,3.8621022701263428,0.0,0.05130472406744957,97
1674111815.63995910,98815993,0,20.74679946899414,22.963367462158203,43.218238830566406,183.30738830566406,3.8870129585266113,0.0,0.05128778517246246,97
1674111815.73995399,98915988,0,20.697694778442383,22.90668487548828,43.07048797607422,184.5038299560547,3.911776542663574,0.0,0.05128778517246246,97
1674111815.83992600,99015960,0,20.739620208740234,22.944583892822266,43.01416015625,185.69842529296875,3.936552047729492,0.0,0.051261331886053085,97
1674111815.94002199,99116056,0,20.69931411743164,22.906700134277344,43.06141662597656,186.89532470703125,3.961326837539673,0.0,0.051261331886053085,97
1674111816.04002213,99216056,0,20.724685668945312,22.958511352539062,43.593868255615234,188.10687255859375,3.986435651779175,0.0,0.05124175548553467,97
1674111816.14002800,99316062,0,20.716354370117188,22.972034454345703,44.05819320678711,189.33090209960938,4.01179313659668,0.0,0.05119774490594864,97
1674111816.23995495,99415989,0,20.7369384765625,23.003664016723633,44.2739372253418,190.5599365234375,4.0372796058654785,0.0,0.05119774490594864,97
1674111816.33994699,99515981,0,20.744596481323242,22.978710174560547,43.610748291015625,191.77134704589844,4.0624098777771,0.0,0.051228512078523636,97
1674111816.43996906,99616003,0,20.76786231994629,23.033607482910156,44.228206634521484,193.00027465820312,4.087932109832764,0.0,0.051228512078523636,97
1674111816.53999114,99716025,0,20.784711837768555,23.059362411499023,44.40204620361328,194.23390197753906,4.113572597503662,0.0,0.051228512078523636,97
1674111816.63995099,99815985,0,20.740001678466797,22.998342514038086,44.097782135009766,195.45858764648438,4.138972282409668,0.0,0.051212128251791,97
1674111816.73995805,99915992,0,20.728513717651367,22.9936580657959,44.23557662963867,196.68753051757812,4.164446830749512,0.0,0.051206402480602264,97
1674111816.83994102,100015975,0,20.628084182739258,22.90727996826172,44.3687629699707,197.91973876953125,4.1898651123046875,0.0,0.051369380205869675,97
1674111816.93997812,100116012,0,20.689165115356445,23.004047393798828,45.09946823120117,199.17320251464844,4.215798377990723,0.0,0.051328372210264206,97
1674111817.03995013,100215984,0,20.648380279541016,22.94217872619629,44.61611557006836,200.4123077392578,4.241384029388428,0.0,0.05141186714172363,97
1674111817.14002395,100316058,0,20.625978469848633,22.925853729248047,44.64097595214844,201.65335083007812,4.266981601715088,0.0,0.05151936411857605,97
1674111817.23994803,100415982,0,20.62578582763672,22.947708129882812,45.021209716796875,202.90309143066406,4.292758464813232,0.0,0.0515739768743515,97
1674111817.33994794,100515982,0,20.610681533813477,22.957134246826172,45.469337463378906,204.16622924804688,4.318792819976807,0.0,0.051605161279439926,97
1674111817.43995309,100615987,0,20.629806518554688,22.95136070251465,44.95246505737305,205.41505432128906,4.344555854797363,0.0,0.05164462700486183,97
1674111817.53998494,100716019,0,20.72870445251465,23.0655517578125,45.24861526489258,206.67247009277344,4.3706207275390625,0.0,0.05164462700486183,97
1674111817.64001012,100816044,0,20.65355110168457,22.98880386352539,45.222835540771484,207.92906188964844,4.396574020385742,0.0,0.05163878947496414,97
1674111817.73993993,100915974,0,20.64349937438965,22.94375991821289,44.545223236083984,209.16567993164062,4.422101974487305,0.0,0.05163878947496414,97
1674111817.84006405,101016098,0,20.632200241088867,22.905712127685547,44.027198791503906,210.39027404785156,4.447368144989014,0.0,0.05163878947496414,97
1674111817.93997192,101116006,0,20.620710372924805,22.905250549316406,44.24079132080078,211.61814880371094,4.472687721252441,0.0,0.05163878947496414,97
1674111818.04013896,101216173,0,20.65757179260254,22.963268280029297,44.650489807128906,212.860595703125,4.498353481292725,0.0,0.05163878947496414,97
1674111818.14000201,101316036,0,20.649625778198242,22.926305770874023,44.08857345581055,214.0836944580078,4.5236101150512695,0.0,0.05163878947496414,97
1674111818.23995805,101415992,0,20.635892868041992,22.911151885986328,44.061058044433594,215.3071746826172,4.548857688903809,0.0,0.05163878947496414,97
1674111818.33995008,101515984,0,20.661399841308594,22.937145233154297,44.082435607910156,216.5315704345703,4.574155330657959,0.0,0.05162474885582924,97
1674111818.43994999,101615984,0,20.6823673248291,22.969209671020508,44.26104736328125,217.76112365722656,4.599585056304932,0.0,0.05166715383529663,97
1674111818.53996801,101716002,0,20.674135208129883,22.948335647583008,44.01799011230469,218.98431396484375,4.624873161315918,0.0,0.051665227860212326,97
1674111818.63998508,101816019,0,20.65115737915039,22.93762969970703,44.255523681640625,220.2139434814453,4.650266170501709,0.0,0.051665227860212326,97
1674111818.73997808,101916012,0,20.64129638671875,22.92228126525879,44.14933776855469,221.44017028808594,4.675577163696289,0.0,0.051665227860212326,97
1674111818.83994794,102015982,0,20.651636123657227,22.913198471069336,43.773399353027344,222.65599060058594,4.700685977935791,0.0,0.051665227860212326,97
1674111818.93996811,102116002,0,20.681888580322266,22.988353729248047,44.64250946044922,223.89639282226562,4.726339817047119,0.0,0.051665227860212326,97
1674111819.03998613,102216020,0,20.664508819580078,22.98395538330078,44.89375305175781,225.14376831054688,4.7521162033081055,0.0,0.051665227860212326,97
1674111819.13995099,102315985,0,20.66829490661621,22.94487762451172,44.07537841796875,226.3677520751953,4.777413845062256,0.0,0.05165202170610428,97
1674111819.24001813,102416052,0,20.63861656188965,22.923870086669922,44.243247985839844,227.59765625,4.802797317504883,0.0,0.05165202170610428,97
1674111819.33995104,102515985,0,20.566335678100586,22.863285064697266,44.330711364746094,228.82835388183594,4.828108310699463,0.0,0.05181393772363663,97
1674111819.43997097,102616005,0,20.588449478149414,22.884014129638672,44.304012298583984,230.0593719482422,4.853453159332275,0.0,0.05181393772363663,97
1674111819.53995299,102715987,0,20.619564056396484,22.927440643310547,44.53816604614258,231.29641723632812,4.878960609436035,0.0,0.05181797221302986,97
1674111819.64004803,102816082,0,20.58308982849121,22.85124397277832,43.77155685424805,232.5135498046875,4.904012680053711,0.0,0.05181797221302986,97
1674111819.73999500,102916029,0,20.626554489135742,22.89112091064453,43.73749542236328,233.72723388671875,4.929047107696533,0.0,0.05177629739046097,97
1674111819.83997512,103016009,0,20.597492218017578,22.8780517578125,44.04639434814453,234.95127868652344,4.954259395599365,0.0,0.05177629739046097,97
1674111819.93995309,103115987,0,20.580215454101562,22.8554744720459,43.94403076171875,236.17178344726562,4.979377746582031,0.0,0.05177629739046097,97
1674111820.03997207,103216006,0,20.562408447265625,22.872236251831055,44.57038879394531,237.41018676757812,5.004842281341553,0.0,0.05182426795363426,97
1674111820.14005804,103316092,0,20.56049346923828,22.877933502197266,44.6894645690918,238.65272521972656,5.030389308929443,0.0,0.05185651779174805,97
1674111820.23998404,103416018,0,20.530241012573242,22.86138916015625,44.900604248046875,239.89913940429688,5.055978298187256,0.0,0.05191796272993088,97
1674111820.33993793,103515972,0,20.530433654785156,22.853076934814453,44.67504119873047,241.1396484375,5.081446170806885,0.0,0.05198974907398224,96
1674111820.43994498,103615979,0,20.586822509765625,22.951316833496094,45.480010986328125,242.4031524658203,5.107457637786865,0.0,0.05198974907398224,96
1674111820.53998995,103716024,0,20.625019073486328,22.95694923400879,44.85364532470703,243.64976501464844,5.133169174194336,0.0,0.05198974907398224,96
1674111820.63999009,103816024,0,20.628232955932617,22.93021011352539,44.24518966674805,244.87889099121094,5.158524036407471,0.0,0.05202774330973625,96
1674111820.74003005,103916064,0,20.54574966430664,22.86319351196289,44.54246520996094,246.1167755126953,5.183957099914551,0.0,0.05202774330973625,96
1674111820.83997297,104016007,0,20.560205459594727,22.886659622192383,44.68608856201172,247.35745239257812,5.209465503692627,0.0,0.05206216126680374,96
1674111820.93995094,104115985,0,20.554941177368164,22.853723526000977,44.15455627441406,248.58380126953125,5.234673023223877,0.0,0.05206216126680374,96
1674111821.03994799,104215982,0,20.576194763183594,22.916715621948242,44.99359130859375,249.83367919921875,5.260390758514404,0.0,0.05201900377869606,96
1674111821.14001799,104316052,0,20.528039932250977,22.835227966308594,44.35280990600586,251.066650390625,5.285701274871826,0.0,0.05201900377869606,96
1674111821.23997808,104416012,0,20.540390014648438,22.84223175048828,44.25,252.29544067382812,5.310941219329834,0.0,0.05201900377869606,96
1674111821.33994198,104515976,0,20.562026977539062,22.89899253845215,44.95891571044922,253.5439453125,5.336613178253174,0.0,0.051980018615722656,96
1674111821.43999004,104616024,0,20.53940773010254,22.863309860229492,44.678245544433594,254.7856903076172,5.362117767333984,0.0,0.05201417952775955,96
1674111821.53998613,104716020,0,20.599458694458008,22.902944564819336,44.25214767456055,256.0149841308594,5.387440204620361,0.0,0.05205365642905235,96
1674111821.63999891,104816033,0,20.578588485717773,22.840909957885742,43.52206039428711,257.22418212890625,5.412323951721191,0.0,0.05198103189468384,96
1674111821.73994803,104915982,0,20.552547454833984,22.798885345458984,43.21455764770508,258.424072265625,5.436984539031982,0.0,0.05198103189468384,96
1674111821.83994794,105015982,0,20.56709861755371,22.818317413330078,43.36922836303711,259.6288757324219,5.461763858795166,0.0,0.0519082248210907,96
1674111821.93996406,105115998,0,20.57830238342285,22.83346176147461,43.47111511230469,260.836669921875,5.486618518829346,0.0,0.05187719315290451,96
1674111822.03994513,105215979,0,20.654123306274414,22.92889404296875,43.735652923583984,262.0514221191406,5.5117082595825195,0.0,0.05201181769371033,96
1674111822.13995600,105315990,0,20.593618392944336,22.857555389404297,43.539554595947266,263.2611083984375,5.536619663238525,0.0,0.05199725925922394,96
1674111822.24004197,105416076,0,20.59429931640625,22.83742904663086,43.176536560058594,264.4615783691406,5.561342239379883,0.0,0.051952533423900604,96
1674111822.34004092,105516075,0,20.638137817382812,22.897842407226562,43.440425872802734,265.6683654785156,5.58624792098999,0.0,0.05201849341392517,96
1674111822.43993402,105615968,0,20.596202850341797,22.84124183654785,43.194305419921875,266.86700439453125,5.610935688018799,0.0,0.05197534337639809,96
1674111822.54001093,105716045,0,20.63555145263672,22.917308807373047,43.9007568359375,268.0874938964844,5.6361212730407715,0.0,0.05197534337639809,96
1674111822.63996196,105815996,0,20.56212043762207,22.818132400512695,43.40544128417969,269.2926940917969,5.660902976989746,0.0,0.05197534337639809,96
1674111822.74001002,105916044,0,20.542207717895508,22.830299377441406,43.970420837402344,270.5147705078125,5.686007022857666,0.0,0.052037082612514496,96
1674111822.84000111,106016035,0,20.571407318115234,22.87355613708496,44.264732360839844,271.74432373046875,5.711300849914551,0.0,0.05200864374637604,96
1674111822.93999100,106116025,0,20.61764907836914,22.916397094726562,44.199363708496094,272.9720458984375,5.736613750457764,0.0,0.05200864374637604,96
1674111823.03994298,106215977,0,20.60674476623535,22.89239501953125,43.947505950927734,274.1921691894531,5.761756420135498,0.0,0.05200864374637604,96
1674111823.13998103,106316015,0,20.56441879272461,22.864215850830078,44.20427322387695,275.4206848144531,5.787020206451416,0.0,0.052026595920324326,96
1674111823.24000096,106416035,0,20.547283172607422,22.865215301513672,44.54062271118164,276.6583557128906,5.812451362609863,0.0,0.05204087123274803,96
1674111823.33997607,106516010,0,20.4892635345459,22.79195213317871,44.11589050292969,277.8835754394531,5.837555408477783,0.0,0.052196335047483444,96
1674111823.43996811,106616002,0,20.5429744720459,22.883819580078125,44.87973403930664,279.1302490234375,5.863165855407715,0.0,0.052158173173666,96
1674111823.53993201,106715966,0,20.522676467895508,22.840124130249023,44.388099670410156,280.3628845214844,5.888463020324707,0.0,0.05220874771475792,96
1674111823.63994598,106815980,0,20.573514938354492,22.88205337524414,44.217464447021484,281.5914306640625,5.91373872756958,0.0,0.05220874771475792,96
1674111823.73991203,106915946,0,20.506017684936523,22.806640625,44.06586837768555,282.8151550292969,5.9388322830200195,0.0,0.05220874771475792,96
1674111823.83998704,107016021,0,20.492233276367188,22.822179794311523,44.57008361816406,284.05426025390625,5.964224338531494,0.0,0.052276019006967545,96
1674111823.94000602,107116040,0,20.478986740112305,22.839008331298828,45.121185302734375,285.3078918457031,5.989897727966309,0.0,0.05230405554175377,96
1674111824.03996801,107216002,0,20.448575973510742,22.842737197875977,45.75804901123047,286.5786437988281,6.01588249206543,0.0,0.05232219025492668,96
1674111824.14003491,107316069,0,20.469160079956055,22.8410587310791,45.31551742553711,287.8383483886719,6.041667461395264,0.0,0.052341870963573456,96
1674111824.23996711,107416001,0,20.443214416503906,22.8226318359375,45.41249465942383,289.0990295410156,6.067440032958984,0.0,0.05239564925432205,96
1674111824.33999705,107516031,0,20.463701248168945,22.835493087768555,45.24646759033203,290.3563537597656,6.093169689178467,0.0,0.05241936445236206,96
1674111824.43993306,107615967,0,20.462169647216797,22.840980529785156,45.371063232421875,291.615966796875,6.118943691253662,0.0,0.05243011936545372,96
1674111824.53996205,107715996,0,20.52104949951172,22.93060874938965,45.95752716064453,292.8930358886719,6.145150184631348,0.0,0.05243011936545372,96
1674111824.63994312,107815977,0,20.532920837402344,22.930959701538086,45.737796783447266,294.16339111328125,6.171234607696533,0.0,0.05243011936545372,96
1674111824.73995399,107915988,0,20.454734802246094,22.820890426635742,45.12971115112305,295.417236328125,6.1968817710876465,0.0,0.05243011936545372,96
1674111824.83998394,108016018,0,20.531579971313477,22.926158905029297,45.671817779541016,296.6863708496094,6.222939491271973,0.0,0.05243011936545372,96
1674111824.93992496,108115959,0,20.5429744720459,22.92900848388672,45.508853912353516,297.9498596191406,6.248895168304443,0.0,0.05243011936545372,96
1674111825.03997207,108216006,0,20.529760360717773,22.890962600708008,45.02397155761719,299.2012023925781,6.274585247039795,0.0,0.0524432398378849,96
1674111825.13994598,108315980,0,20.559059143066406,22.929874420166016,45.14304733276367,300.4549560546875,6.300361156463623,0.0,0.0525178425014019,96
1674111825.23996401,108415998,0,20.491464614868164,22.809158325195312,44.13153839111328,301.68115234375,6.3254876136779785,0.0,0.0525178425014019,96
1674111825.33997703,108516011,0,20.49529457092285,22.820804595947266,44.28038024902344,302.9114074707031,6.350702285766602,0.0,0.0525178425014019,96
1674111825.44000006,108616034,0,20.493762969970703,22.861711502075195,45.07338333129883,304.16375732421875,6.376368045806885,0.0,0.05253540724515915,96
1674111825.53992796,108715962,0,20.491968154907227,22.862207412719727,45.10414123535156,305.4159240722656,6.402027130126953,0.0,0.052550360560417175,96
1674111825.63995409,108815988,0,20.453554153442383,22.81325912475586,44.90367126464844,306.6636657714844,6.427547931671143,0.0,0.052550360560417175,96
1674111825.73995399,108915988,0,20.456714630126953,22.802291870117188,44.63483428955078,307.90362548828125,6.452913284301758,0.0,0.052550360560417175,96
1674111825.83998394,109016018,0,20.473373413085938,22.816547393798828,44.589111328125,309.1426696777344,6.478281021118164,0.0,0.052550360560417175,96
1674111825.94000602,109116040,0,20.501996994018555,22.861909866333008,44.90766143798828,310.3904724121094,6.503863334655762,0.0,0.052550360560417175,96
1674111826.03993702,109215971,0,20.505634307861328,22.859088897705078,44.768333435058594,311.63330078125,6.529347896575928,0.0,0.052569616585969925,96
1674111826.13997507,109316009,0,20.541919708251953,22.8940486907959,44.68117904663086,312.8750305175781,6.5548553466796875,0.0,0.052642498165369034,96
1674111826.24000001,109416034,0,20.491849899291992,22.820974349975586,44.24416732788086,314.10443115234375,6.580048084259033,0.0,0.052642498165369034,96
1674111826.33996606,109516000,0,20.458776473999023,22.777992248535156,44.05594253540039,315.32769775390625,6.605074405670166,0.0,0.052642498165369034,96
1674111826.44001794,109616052,0,20.490985870361328,22.799365997314453,43.850120544433594,316.5459899902344,6.630038738250732,0.0,0.052642498165369034,96
1674111826.53995705,109715991,0,20.5030517578125,22.843250274658203,44.44180679321289,317.7805480957031,6.655350685119629,0.0,0.052657611668109894,96
1674111826.63993692,109815971,0,20.461502075195312,22.792861938476562,44.2739372253418,319.0102233886719,6.680511951446533,0.0,0.052657611668109894,96
1674111826.73994803,109915982,0,20.398887634277344,22.728906631469727,44.24846267700195,320.23956298828125,6.705589294433594,0.0,0.052657611668109894,95
1674111826.83996892,110016003,0,20.429235458374023,22.805416107177734,45.113582611083984,321.4930725097656,6.731197834014893,0.0,0.052671048790216446,95
1674111826.93991804,110115952,0,20.407312393188477,22.790586471557617,45.213016510009766,322.7484436035156,6.756816864013672,0.0,0.05271211639046669,95
1674111827.04000711,110216041,0,20.478063583374023,22.887479782104492,45.708946228027344,324.0193786621094,6.782843112945557,0.0,0.05271211639046669,95
1674111827.13994002,110315974,0,20.4681396484375,22.872114181518555,45.60573196411133,325.2854309082031,6.808757305145264,0.0,0.05271211639046669,95
1674111827.23990297,110415937,0,20.510709762573242,22.8963623046875,45.25813293457031,326.542236328125,6.834535121917725,0.0,0.05271211639046669,95
1674111827.33998895,110516023,0,20.440534591674805,22.819629669189453,45.09670639038086,327.7961120605469,6.860165119171143,0.0,0.05275539308786392,95
1674111827.43999696,110616031,0,20.45479965209961,22.823806762695312,44.905513763427734,329.043701171875,6.885684013366699,0.0,0.05275539308786392,95
1674111827.53992605,110715960,0,20.511669158935547,22.888626098632812,45.05619430541992,330.2944641113281,6.911339282989502,0.0,0.05275539308786392,95
1674111827.63995099,110815985,0,20.502668380737305,22.859704971313477,44.658775329589844,331.5353088378906,6.936779975891113,0.0,0.05277881398797035,95
1674111827.73999596,110916030,0,20.421768188476562,22.76272201538086,44.354034423828125,332.7680969238281,6.961956024169922,0.0,0.05277881398797035,95
1674111827.83995104,111015985,0,20.423397064208984,22.808839797973633,45.15439987182617,334.02191162109375,6.987563610076904,0.0,0.052828557789325714,95
1674111827.93998504,111116019,0,20.475095748901367,22.852399826049805,45.000343322753906,335.2724304199219,7.0131683349609375,0.0,0.052828557789325714,95
1674111828.03995514,111215989,0,20.4251651763916,22.80733871459961,45.04582977294922,336.52325439453125,7.038716793060303,0.0,0.05288331210613251,95
1674111828.13994813,111315982,0,20.477968215942383,22.862783432006836,45.09578323364258,337.7760925292969,7.064372539520264,0.0,0.05288331210613251,95
1674111828.23993492,111415969,0,20.38634490966797,22.75567626953125,44.803009033203125,339.02056884765625,7.089743137359619,0.0,0.05288331210613251,95
1674111828.33993602,111515970,0,20.411523818969727,22.784507751464844,44.87206268310547,340.2671203613281,7.115187168121338,0.0,0.05288331210613251,95
1674111828.43998003,111616014,0,20.413726806640625,22.7806396484375,44.757286071777344,341.5110168457031,7.140579700469971,0.0,0.05288331210613251,95
1674111828.54005003,111716084,0,20.43067169189453,22.803735733032227,44.87359619140625,342.75848388671875,7.1660661697387695,0.0,0.05288331210613251,95
1674111828.64003491,111816069,0,20.444747924804688,22.819419860839844,44.90397644042969,344.0057373046875,7.191565990447998,0.0,0.05288331210613251,95
1674111828.73996305,111915997,0,20.419281005859375,22.772724151611328,44.50257110595703,345.2411193847656,7.21679162979126,0.0,0.05288331210613251,95
1674111828.83995509,112015989,0,20.482393264770508,22.83549690246582,44.45387268066406,346.4759216308594,7.242083549499512,0.0,0.052933599799871445,95
1674111828.93995214,112115986,0,20.456905364990234,22.835491180419922,44.93528366088867,347.7242126464844,7.267619609832764,0.0,0.052933599799871445,95
1674111829.03998613,112216020,0,20.453073501586914,22.831724166870117,44.93650817871094,348.9728698730469,7.293158531188965,0.0,0.052933599799871445,95
1674111829.14000106,112316035,0,20.467628479003906,22.855913162231445,45.11849594116211,350.2264709472656,7.318816661834717,0.0,0.052933599799871445,95
1674111829.23994803,112415982,0,20.415929794311523,22.79458236694336,44.8864860534668,351.47271728515625,7.344259738922119,0.0,0.052992627024650574,95
1674111829.33993292,112515967,0,20.409608840942383,22.804540634155273,45.164527893066406,352.7273254394531,7.369865894317627,0.0,0.05302681773900986,95
1674111829.43993211,112615966,0,20.4222469329834,22.815196990966797,45.11849594116211,353.980712890625,7.395462989807129,0.0,0.05303702503442764,95
1674111829.53998899,112716023,0,20.484956741333008,22.902013778686523,45.572998046875,355.2474670410156,7.421411991119385,0.0,0.05303702503442764,95
1674111829.63998103,112816015,0,20.488880157470703,22.863393783569336,44.7293586730957,356.4898376464844,7.446866512298584,0.0,0.05308622866868973,95
1674111829.73996091,112915995,0,20.484519958496094,22.80986213684082,43.845211029052734,357.7077331542969,7.4718146324157715,0.0,0.05303528159856796,95
1674111829.83993602,113015970,0,20.516550064086914,22.854686737060547,44.057273864746094,358.93133544921875,7.496918678283691,0.0,0.053070396184921265,95
1674111829.93992591,113115960,0,20.526315689086914,22.849090576171875,43.753143310546875,360.14630126953125,7.521857261657715,0.0,0.053088195621967316,95
1674111830.03994513,113215979,0,20.529186248779297,22.887351989746094,44.355262756347656,361.3791198730469,7.547165870666504,0.0,0.05316542834043503,95
1674111830.13997412,113316008,0,20.479785919189453,22.81458854675293,43.91579818725586,362.5994567871094,7.572157859802246,0.0,0.05316542834043503,95
1674111830.23992896,113415963,0,20.536272048950195,22.87502670288086,43.94924545288086,363.8197937011719,7.597219467163086,0.0,0.05321488529443741,95
1674111830.33997011,113516004,0,20.480648040771484,22.783342361450195,43.271636962890625,365.02239990234375,7.621849536895752,0.0,0.05321488529443741,95
1674111830.44005203,113616086,0,20.54747200012207,22.90005874633789,44.20917892456055,366.25152587890625,7.6471052169799805,0.0,0.05321488529443741,95
1674111830.53999496,113716029,0,20.524410247802734,22.877716064453125,44.222686767578125,367.4793395996094,7.672305107116699,0.0,0.05321488529443741,95
1674111830.64001513,113816049,0,20.5380916595459,22.906829833984375,44.5126953125,368.7161560058594,7.697706699371338,0.0,0.05321488529443741,95
1674111830.73992109,113915955,0,20.514156341552734,22.875904083251953,44.38134765625,369.9479064941406,7.722975254058838,0.0,0.05321488529443741,95
1674111830.83991814,114015952,0,20.496252059936523,22.86326789855957,44.47648239135742,371.1834411621094,7.748298645019531,0.0,0.053219497203826904,95
1674111830.93993497,114115969,0,20.51693344116211,22.915912628173828,45.077064514160156,372.4358825683594,7.7739949226379395,0.0,0.053219497203826904,95
1674111831.03995514,114215989,0,20.48505210876465,22.89964485168457,45.413414001464844,373.6977233886719,7.799843788146973,0.0,0.053169138729572296,95
1674111831.13997412,114316008,0,20.511571884155273,22.917516708374023,45.250762939453125,374.95501708984375,7.8256330490112305,0.0,0.053169138729572296,95
1674111831.23992801,114415962,0,20.425216674804688,22.817657470703125,44.88894271850586,376.2014465332031,7.8510918617248535,0.0,0.05329686775803566,95
1674111831.33999109,114516025,0,20.559940338134766,22.989620208740234,45.5876579284668,377.4686584472656,7.877145767211914,0.0,0.05329686775803566,95
1674111831.43993592,114615970,0,20.557525634765625,22.95135498046875,44.91502380371094,378.7156982421875,7.902781963348389,0.0,0.05329686775803566,95
1674111831.53996801,114716002,0,20.605012893676758,22.996936798095703,44.75145721435547,379.95928955078125,7.928406238555908,0.0,0.05344908684492111,95
1674111831.64000797,114816042,0,20.572362899780273,22.96245765686035,44.66706085205078,381.2006530761719,7.953943729400635,0.0,0.05350910499691963,95
1674111831.74000406,114916038,0,20.509754180908203,22.897451400756836,44.622257232666016,382.4402160644531,7.979366779327393,0.0,0.05350910499691963,95
1674111831.83993196,115015966,0,20.565662384033203,22.970388412475586,44.94050216674805,383.6877746582031,8.005023002624512,0.0,0.05350910499691963,95
1674111831.93998313,115116017,0,20.609512329101562,23.003189086914062,44.64005661010742,384.9284973144531,8.030593872070312,0.0,0.053621720522642136,95
1674111832.03996205,115215996,0,20.58672523498535,22.977619171142578,44.55136489868164,386.1658630371094,8.05606746673584,0.0,0.053666021674871445,95
1674111832.13998604,115316020,0,20.589405059814453,22.981550216674805,44.540828704833984,387.40350341796875,8.081549644470215,0.0,0.05370677635073662,95
1674111832.23998713,115416021,0,20.506593704223633,22.885591506958008,44.29603576660156,388.63360595703125,8.106775283813477,0.0,0.05370677635073662,95
1674111832.33996606,115516000,0,20.523059844970703,22.884157180786133,43.96274948120117,389.8550720214844,8.131843566894531,0.0,0.05370677635073662,95
1674111832.43996406,115615998,0,20.6153507232666,23.007640838623047,44.44916915893555,391.08984375,8.157299041748047,0.0,0.05382079258561134,95
1674111832.53994608,115715980,0,20.606447219848633,22.973844528198242,43.960601806640625,392.31085205078125,8.182459831237793,0.0,0.053852714598178864,95
1674111832.63998199,115816016,0,20.604724884033203,22.971317291259766,43.928993225097656,393.5316467285156,8.207613945007324,0.0,0.053873151540756226,95
1674111832.74003696,115916071,0,20.546323776245117,22.894912719726562,43.594791412353516,394.7433776855469,8.232510566711426,0.0,0.053873151540756226,95
1674111832.83993602,116015970,0,20.5447940826416,22.90442657470703,43.7997932434082,395.9588928222656,8.25748348236084,0.0,0.053873151540756226,95
1674111832.93995905,116115993,0,20.537517547607422,22.935043334960938,44.49029541015625,397.19512939453125,8.282873153686523,0.0,0.053888723254203796,95
1674111833.03995609,116215990,0,20.543771743774414,22.99822425842285,45.6391487121582,398.4625244140625,8.308910369873047,0.0,0.053779542446136475,95
1674111833.13998699,116316021,0,20.49979591369629,22.94930076599121,45.54998016357422,399.72869873046875,8.334866523742676,0.0,0.05377618968486786,95
1674111833.23999095,116416025,0,20.472797393798828,22.930294036865234,45.6696662902832,400.9974670410156,8.360841751098633,0.0,0.053810250014066696,94
1674111833.33999491,116516029,0,20.46169090270996,22.92844581604004,45.81237030029297,402.2701721191406,8.386883735656738,0.0,0.05384472385048866,94
1674111833.43995094,116615985,0,20.44666290283203,22.951295852661133,46.52742385864258,403.5621337890625,8.413299560546875,0.0,0.05383133515715599,94
1674111833.53994799,116715982,0,20.48696517944336,23.019878387451172,47.181095123291016,404.872802734375,8.44015121459961,0.0,0.053684916347265244,94
1674111833.64000297,116816037,0,20.48514747619629,23.038375854492188,47.70986557006836,406.19891357421875,8.467316627502441,0.0,0.0535157173871994,94
1674111833.73997998,116916014,0,20.399940490722656,22.918603897094727,46.9926643371582,407.5040588378906,8.493941307067871,0.0,0.053596965968608856,94
