timestamp,TimeUS,Instance,Volt,VoltR,Curr,CurrTot,EnrgTot,Temp,Res,RemPct
1674110673.81932378,259326706,0,24.783388137817383,24.836339950561523,0.5360965132713318,37.80902099609375,0.9364811778068542,0.0,0.09877363592386246,99
1674110673.91937184,259426754,0,24.752668380737305,24.799440383911133,0.47352951765060425,37.822181701660156,0.9368069171905518,0.0,0.09877363592386246,99
1674110674.01938486,259526767,0,24.719064712524414,24.75916862487793,0.40601396560668945,37.83346176147461,0.937085747718811,0.0,0.09877363592386246,99
1674110674.11933684,259626719,0,24.748931884765625,24.79515838623047,0.46800553798675537,37.846458435058594,0.937407374382019,0.0,0.09877363592386246,99
1674110674.21931481,259726697,0,24.771625518798828,24.822126388549805,0.51127690076828,37.86065673828125,0.9377591609954834,0.0,0.09877363592386246,99
1674110674.31933594,259826718,0,24.765390396118164,24.81500244140625,0.5022748112678528,37.87461471557617,0.9381048083305359,0.0,0.09877363592386246,99
1674110674.41937280,259926755,0,24.77803611755371,24.830415725708008,0.530303955078125,37.88935089111328,0.9384699463844299,0.0,0.09877363592386246,99
1674110674.51938176,260026764,0,24.77698516845703,24.829607009887695,0.5327590703964233,37.904151916503906,0.9388366937637329,0.0,0.09877363592386246,99
1674110674.61935687,260126739,0,24.779666900634766,24.83253288269043,0.5352141261100769,37.91901779174805,0.9392050504684448,0.0,0.09877363592386246,99
1674110674.71943092,260226813,0,24.73036003112793,24.77203941345215,0.4219721853733063,37.930747985839844,0.9394951462745667,0.0,0.09877363592386246,99
1674110674.81938076,260326763,0,24.75056266784668,24.79839515686035,0.4842706322669983,37.94419479370117,0.9398279786109924,0.0,0.09877363592386246,99
1674110674.91938496,260426767,0,24.78349494934082,24.837421417236328,0.545955240726471,37.9593620300293,0.9402039051055908,0.0,0.09877363592386246,99
1674110675.01935673,260526739,0,24.745391845703125,24.79046630859375,0.45634374022483826,37.9720344543457,0.9405175447463989,0.0,0.09877363592386246,99
1674110675.11937475,260626757,0,24.738880157470703,24.78325843811035,0.44928526878356934,37.98451614379883,0.9408263564109802,0.0,0.09877363592386246,99
1674110675.21936774,260726750,0,24.766559600830078,24.817148208618164,0.5121634602546692,37.998741149902344,0.9411786794662476,0.0,0.09877363592386246,99
1674110675.31929779,260826680,0,24.785888671875,24.84072494506836,0.5551619529724121,38.01415252685547,0.941560685634613,0.0,0.09877363592386246,99
1674110675.41932178,260926704,0,24.78110122680664,24.834239959716797,0.5379762053489685,38.02910232543945,0.9419311285018921,0.0,0.09877363592386246,99
1674110675.51937079,261026753,0,24.729690551757812,24.77121925354004,0.420437753200531,38.04078674316406,0.9422200918197632,0.0,0.09877363592386246,99
1674110675.61935592,261126738,0,24.748647689819336,24.79608726501465,0.4802810847759247,38.05412673950195,0.9425502419471741,0.0,0.09877363592386246,99
1674110675.71930385,261226686,0,24.78186798095703,24.83509635925293,0.538896918296814,38.069087982177734,0.9429210424423218,0.0,0.09877363592386246,99
1674110675.81938291,261326765,0,24.76923179626465,24.819551467895508,0.5094355344772339,38.083251953125,0.943271815776825,0.0,0.09877363592386246,99
1674110675.91934490,261426727,0,24.77679443359375,24.829416275024414,0.5327590703964233,38.09804916381836,0.9436383843421936,0.0,0.09877363592386246,99
1674110676.01954079,261526923,0,24.721935272216797,24.88099479675293,1.659041166305542,38.144229888916016,0.9447800517082214,0.0,0.09587423503398895,99
1674110676.11937189,261626754,0,24.461793899536133,24.9390869140625,5.381466865539551,38.29347229003906,0.9484307765960693,0.0,0.0886918157339096,99
1674110676.21937776,261726760,0,24.593358993530273,24.884138107299805,3.3110241889953613,38.385459899902344,0.9506930112838745,0.0,0.08782155811786652,99
1674110676.31939483,261826777,0,24.6722469329834,24.866588592529297,2.2227959632873535,38.44721984863281,0.9522167444229126,0.0,0.08743104338645935,99
1674110676.41935992,261926742,0,24.6740665435791,24.865463256835938,2.1970174312591553,38.50822448730469,0.9537219405174255,0.0,0.08711633831262589,99
1674110676.51938295,262026765,0,24.647260665893555,24.830263137817383,2.090833902359009,38.56632995605469,0.9551540613174438,0.0,0.08752577006816864,99
1674110676.61938691,262126769,0,24.647356033325195,24.821401596069336,1.9766709804534912,38.62124252319336,0.9565075635910034,0.0,0.0880497470498085,99
1674110676.71937394,262226756,0,24.688426971435547,24.864877700805664,2.003984212875366,38.67690658569336,0.9578818082809448,0.0,0.0880497470498085,99
1674110676.81930590,262326688,0,24.686416625976562,24.85816192626953,1.9465960264205933,38.7309455871582,0.9592158794403076,0.0,0.08822805434465408,99
1674110676.91932178,262426704,0,24.705181121826172,24.878467559814453,1.952836036682129,38.78520202636719,0.9605563282966614,0.0,0.08873552083969116,99
1674110677.01933980,262526722,0,24.651952743530273,24.812021255493164,1.803892731666565,38.835323333740234,0.9617919325828552,0.0,0.08873552083969116,99
1674110677.11935496,262626737,0,24.662195205688477,24.825586318969727,1.841333270072937,38.88648223876953,0.9630535840988159,0.0,0.08873552083969116,99
1674110677.21937990,262726762,0,24.69532012939453,24.8658390045166,1.9134521484375,38.93965148925781,0.9643666744232178,0.0,0.08911620080471039,99
1674110677.31936193,262826744,0,24.690725326538086,24.861745834350586,1.9140658378601074,38.99281692504883,0.9656793475151062,0.0,0.08934903144836426,99
1674110677.41930175,262926684,0,24.69866943359375,24.8724308013916,1.944754719734192,39.046810150146484,0.967012882232666,0.0,0.08934903144836426,99
1674110677.51938295,263026765,0,24.67808723449707,24.847490310668945,1.895959496498108,39.09952163696289,0.9683137536048889,0.0,0.08934903144836426,99
1674110677.61944175,263126824,0,24.648406982421875,24.811941146850586,1.8302851915359497,39.1503791809082,0.9695672988891602,0.0,0.08934903144836426,99
1674110677.71935081,263226733,0,24.671247482299805,24.840187072753906,1.89077627658844,39.202877044677734,0.9708625078201294,0.0,0.08934903144836426,99
1674110677.81938076,263326763,0,24.682491302490234,24.852907180786133,1.9073143005371094,39.2558708190918,0.9721705317497253,0.0,0.08934903144836426,99
1674110677.91937995,263426762,0,24.69292640686035,24.865537643432617,1.9318653345108032,39.30954360961914,0.9734959006309509,0.0,0.08934903144836426,99
1674110678.01936889,263526751,0,24.664398193359375,24.831058502197266,1.8652704954147339,39.36135482788086,0.9747738242149353,0.0,0.08934903144836426,99
1674110678.11937475,263626757,0,24.65760040283203,24.82297134399414,1.8508466482162476,39.41277313232422,0.9760417342185974,0.0,0.08934903144836426,99
1674110678.21938777,263726770,0,24.673683166503906,24.842592239379883,1.8904353380203247,39.46529769897461,0.977337658405304,0.0,0.08934903144836426,99
1674110678.31936479,263826747,0,24.696754455566406,24.87059783935547,1.9456753730773926,39.51933670043945,0.978672206401825,0.0,0.08934903144836426,99
1674110678.41936493,263926747,0,24.69110870361328,24.863582611083984,1.9303309917449951,39.57296371459961,0.9799962639808655,0.0,0.08934903144836426,99
1674110678.51939678,264026779,0,24.643142700195312,24.805334091186523,1.815247654914856,39.623409271240234,0.981239378452301,0.0,0.08934903144836426,99
1674110678.61937881,264126761,0,24.681884765625,24.852407455444336,1.9085078239440918,39.67641830444336,0.9825477004051208,0.0,0.08934903144836426,99
1674110678.71936584,264226748,0,24.655397415161133,24.819671630859375,1.8385711908340454,39.72748565673828,0.983806848526001,0.0,0.08934903144836426,99
1674110678.81937075,264326753,0,24.69034194946289,24.862733840942383,1.9294103384017944,39.78106689453125,0.9851297736167908,0.0,0.08934903144836426,99
1674110678.91931987,264426702,0,24.69043731689453,24.863130569458008,1.932785987854004,39.83475112915039,0.9864552617073059,0.0,0.08934903144836426,99
1674110679.01936674,264526749,0,24.67646026611328,24.84670066833496,1.9051660299301147,39.88770294189453,0.987761914730072,0.0,0.0893574208021164,99
1674110679.11936378,264626746,0,24.637975692749023,24.80034637451172,1.8170889616012573,39.93817901611328,0.9890055656433105,0.0,0.0893574208021164,99
1674110679.21936584,264726748,0,24.688426971435547,24.86124610900879,1.9340136051177979,39.99189758300781,0.9903318285942078,0.0,0.0893574208021164,99
1674110679.31935692,264826739,0,24.669567108154297,24.83860206604004,1.8916629552841187,40.04445266723633,0.9916282892227173,0.0,0.0893574208021164,99
1674110679.41944575,264926828,0,24.689226150512695,24.862506866455078,1.9391967058181763,40.09836959838867,0.9929594993591309,0.0,0.0893574208021164,99
1674110679.51939988,265026782,0,24.65597152709961,24.821304321289062,1.8502330780029297,40.14974594116211,0.9942262172698975,0.0,0.0893574208021164,99
1674110679.61938190,265126764,0,24.64783477783203,24.812509536743164,1.8428677320480347,40.200931549072266,0.9954878091812134,0.0,0.0893574208021164,99
1674110679.71936584,265226748,0,24.67646026611328,24.847522735595703,1.9143728017807007,40.25410461425781,0.9967999458312988,0.0,0.0893574208021164,99
1674110679.81936789,265326750,0,24.68718147277832,24.859834671020508,1.9321722984313965,40.30778121948242,0.9981250762939453,0.0,0.0893574208021164,99
1674110679.91937089,265426753,0,24.689193725585938,24.86193084716797,1.9330931901931763,40.36148452758789,0.9994509816169739,0.0,0.0893574208021164,99
1674110680.01930881,265526691,0,24.634143829345703,24.795827865600586,1.8094167709350586,40.411720275878906,1.0006884336471558,0.0,0.0893574208021164,99
1674110680.11931777,265626700,0,24.64879035949707,24.83689308166504,2.1049506664276123,40.47019958496094,1.0021299123764038,0.0,0.08936186879873276,99
1674110680.21937776,265726760,0,24.562721252441406,24.93160057067871,4.217880725860596,40.58744430541992,1.0050097703933716,0.0,0.08745630085468292,99
1674110680.31938791,265826770,0,24.09564971923828,24.928064346313477,11.616084098815918,40.91017150878906,1.0127861499786377,0.0,0.07166050374507904,99
1674110680.41931176,265926694,0,24.328163146972656,24.875425338745117,7.6792802810668945,41.12334060668945,1.0179721117019653,0.0,0.07126467674970627,99
1674110680.51938987,266026772,0,24.37708854675293,24.859895706176758,6.7935991287231445,41.31221389770508,1.0225762128829956,0.0,0.07106785476207733,99
1674110680.61934686,266126729,0,24.316389083862305,24.81163215637207,6.94213342666626,41.50497817993164,1.0272635221481323,0.0,0.07133876532316208,99
1674110680.71936774,266226750,0,24.33218765258789,24.862611770629883,7.459547519683838,41.71223831176758,1.0323066711425781,0.0,0.07110674679279327,99
1674110680.81937575,266326758,0,24.258852005004883,24.866249084472656,8.570792198181152,41.950374603271484,1.038083553314209,0.0,0.07086822390556335,99
1674110680.91936588,266426748,0,24.22361946105957,24.874893188476562,9.2278413772583,42.206695556640625,1.0442925691604614,0.0,0.07057700306177139,99
1674110681.01938677,266526769,0,24.194034576416016,24.828744888305664,8.970974922180176,42.455963134765625,1.0503233671188354,0.0,0.07075164467096329,99
1674110681.11934590,266626728,0,24.187450408935547,24.820981979370117,8.925691604614258,42.70381546020508,1.0563182830810547,0.0,0.07097848504781723,99
1674110681.21940994,266726792,0,24.17622947692871,24.864990234375,9.732672691345215,42.974361419677734,1.062859058380127,0.0,0.07076791673898697,99
1674110681.31936479,266826747,0,24.157655715942383,24.861427307128906,9.966523170471191,43.25110626220703,1.0695445537567139,0.0,0.07061351090669632,99
1674110681.41937685,266926759,0,24.131900787353516,24.86322593688965,10.379594802856445,43.539485931396484,1.0765037536621094,0.0,0.07045793533325195,99
1674110681.51939678,267026779,0,24.061248779296875,24.809152603149414,10.559124946594238,43.8328742980957,1.0835630893707275,0.0,0.07083015888929367,99
1674110681.61930490,267126687,0,24.05856704711914,24.846282958984375,11.123800277709961,44.1416130065918,1.0909909009933472,0.0,0.07081357389688492,99
1674110681.71934175,267226724,0,24.050716400146484,24.86852264404297,11.585975646972656,44.46358871459961,1.0987346172332764,0.0,0.07058587670326233,99
1674110681.81934381,267326726,0,23.976041793823242,24.854095458984375,12.450788497924805,44.809478759765625,1.1070276498794556,0.0,0.07052195817232132,99
1674110681.91939187,267426774,0,23.897342681884766,24.89080047607422,14.15524959564209,45.202903747558594,1.1164294481277466,0.0,0.07018298655748367,99
1674110682.01951075,267526893,0,23.913108825683594,24.845504760742188,13.275671005249023,45.57213592529297,1.1252589225769043,0.0,0.07023337483406067,99
1674110682.11939096,267626773,0,23.889684677124023,24.80476951599121,12.962370872497559,45.93177032470703,1.1338504552841187,0.0,0.07059555500745773,99
1674110682.21937275,267726755,0,23.932193756103516,24.840749740600586,12.86109733581543,46.28902053833008,1.1424002647399902,0.0,0.07064376771450043,99
1674110682.31939983,267826782,0,23.91878890991211,24.848739624023438,13.167374610900879,46.6549072265625,1.1511518955230713,0.0,0.0706254094839096,99
1674110682.41938090,267926763,0,23.94655418395996,24.86988067626953,13.107223510742188,47.01895523071289,1.15986967086792,0.0,0.07044412940740585,99
1674110682.51937485,268026757,0,23.839040756225586,24.802082061767578,13.600700378417969,47.396759033203125,1.1688761711120605,0.0,0.07080825418233871,99
1674110682.61938787,268126770,0,23.701560974121094,24.782304763793945,15.165221214294434,47.81809997558594,1.1788625717163086,0.0,0.07126463204622269,99
1674110682.71934175,268226724,0,23.730953216552734,24.799036026000977,14.926460266113281,48.232566833496094,1.1886982917785645,0.0,0.07155637443065643,99
1674110682.81934190,268326724,0,23.735143661499023,24.827346801757812,15.251012802124023,48.65624237060547,1.1987543106079102,0.0,0.0716150626540184,99
1674110682.91939783,268426780,0,23.593950271606445,24.82169532775879,17.123477935791016,49.13219451904297,1.2099839448928833,0.0,0.07169948518276215,99
1674110683.01940894,268526791,0,23.437036514282227,24.777481079101562,18.6085147857666,49.649200439453125,1.222101092338562,0.0,0.07203391939401627,99
1674110683.11929893,268626681,0,23.544837951660156,24.8217716217041,17.717613220214844,50.14085388183594,1.2336770296096802,0.0,0.07207147777080536,99
1674110683.21937180,268726754,0,23.54656219482422,24.8299617767334,17.810911178588867,50.63587188720703,1.2453330755233765,0.0,0.07205690443515778,99
1674110683.31936479,268826747,0,23.499361038208008,24.768749237060547,17.531333923339844,51.12297821044922,1.2567797899246216,0.0,0.0724068358540535,99
1674110683.41935778,268926740,0,23.433591842651367,24.734426498413086,17.836687088012695,51.618446350097656,1.268390417098999,0.0,0.07293029129505157,99
1674110683.51939273,269026775,0,23.369731903076172,24.70560646057129,18.155237197875977,52.122982025146484,1.2801812887191772,0.0,0.07358066737651825,99
1674110683.61931181,269126694,0,23.30953598022461,24.66831398010254,18.263639450073242,52.62993621826172,1.2919981479644775,0.0,0.07439802587032318,99
1674110683.71936584,269226748,0,23.26911163330078,24.730222702026367,19.543909072875977,53.173160552978516,1.3046385049819946,0.0,0.07476042956113815,99
1674110683.81937075,269326753,0,23.313919067382812,24.713912963867188,18.621400833129883,53.69049072265625,1.316699504852295,0.0,0.0751820057630539,99
1674110683.91942096,269426803,0,23.380935668945312,24.723783493041992,17.78359603881836,54.184661865234375,1.3282537460327148,0.0,0.07551044225692749,99
1674110684.01938176,269526764,0,23.273515701293945,24.669103622436523,18.333847045898438,54.693878173828125,1.3401050567626953,0.0,0.07612088322639465,99
1674110684.11942482,269626807,0,23.242496490478516,24.680435180664062,18.767789840698242,55.215362548828125,1.352225661277771,0.0,0.07661739736795425,99
1674110684.21938586,269726768,0,23.22392463684082,24.741365432739258,19.777145385742188,55.764678955078125,1.3649829626083374,0.0,0.07672698050737381,99
1674110684.31939578,269826778,0,23.21415901184082,24.77971649169922,20.433887481689453,56.33238220214844,1.3781617879867554,0.0,0.07661572843790054,99
1674110684.41937876,269926761,0,23.132780075073242,24.79413414001465,21.73233413696289,56.936004638671875,1.3921252489089966,0.0,0.07644620537757874,99
1674110684.51938581,270026768,0,22.909135818481445,24.828433990478516,25.200349807739258,57.63612747192383,1.408164381980896,0.0,0.07616157084703445,99
1674110684.61938977,270126772,0,22.95939826965332,24.793132781982422,24.1088809967041,58.30589294433594,1.423541784286499,0.0,0.07606052607297897,99
1674110684.71932578,270226708,0,23.029863357543945,24.84990119934082,24.036457061767578,58.97320556640625,1.438909888267517,0.0,0.07571989297866821,99
1674110684.81936574,270326748,0,23.033788681030273,24.804027557373047,23.41224479675293,59.62385940551758,1.4538968801498413,0.0,0.0756116732954979,99
1674110684.91936493,270426747,0,23.097740173339844,24.8623104095459,23.446924209594727,60.27520751953125,1.468941569328308,0.0,0.07525806128978729,99
1674110685.01941395,270526796,0,23.11947250366211,24.881698608398438,23.543285369873047,60.9295539855957,1.4840697050094604,0.0,0.07485044002532959,99
1674110685.11933374,270626716,0,23.04498863220215,24.787721633911133,23.270767211914062,61.5754280090332,1.4989538192749023,0.0,0.07488939166069031,99
1674110685.21933484,270726717,0,23.030628204345703,24.775314331054688,23.26892852783203,62.221805572509766,1.5138403177261353,0.0,0.0749792531132698,99
1674110685.31937885,270826761,0,22.916263580322266,24.86323356628418,26.06918716430664,62.946449279785156,1.5304464101791382,0.0,0.07468469440937042,99
1674110685.41938782,270926770,0,22.989652633666992,24.92867088317871,26.708843231201172,63.68849563598633,1.5475057363510132,0.0,0.07259836792945862,99
1674110685.51937985,271026762,0,22.884628295898438,24.851877212524414,27.205698013305664,64.44419860839844,1.5647997856140137,0.0,0.07231016457080841,99
1674110685.61937475,271126757,0,22.674867630004883,24.92658805847168,32.45533752441406,65.34565734863281,1.585240125656128,0.0,0.0693790391087532,99
1674110685.71943974,271226822,0,22.68022918701172,24.866670608520508,31.694562911987305,66.226806640625,1.605224847793579,0.0,0.0689847320318222,99
1674110685.81933880,271326721,0,22.704736709594727,24.84099769592285,31.088457107543945,67.0895767211914,1.6248139142990112,0.0,0.06871556490659714,99
1674110685.91938376,271426766,0,22.728288650512695,24.802980422973633,30.242977142333984,67.93009948730469,1.643917441368103,0.0,0.06860075145959854,99
1674110686.01938176,271526764,0,22.785062789916992,24.886484146118164,30.807344436645508,68.78591918945312,1.6634173393249512,0.0,0.06821168959140778,99
1674110686.11938596,271626768,0,22.707321166992188,24.771739959716797,30.249114990234375,69.62627410888672,1.6824995279312134,0.0,0.06824725866317749,99
1674110686.21930385,271726686,0,22.795740127563477,24.837129592895508,29.994976043701172,70.45885467529297,1.7014787197113037,0.0,0.06805773079395294,99
1674110686.31930685,271826689,0,23.21147918701172,24.745229721069336,22.57505226135254,71.08600616455078,1.7160358428955078,0.0,0.06794004887342453,99
1674110686.41934085,271926723,0,23.10894203186035,24.803678512573242,24.916000366210938,71.77841186523438,1.7320364713668823,0.0,0.06801799684762955,99
1674110686.51933575,272026718,0,23.005544662475586,24.723255157470703,25.317102432250977,72.481689453125,1.748215675354004,0.0,0.0678478479385376,99
1674110686.61939096,272126773,0,22.94609260559082,24.635971069335938,25.047348022460938,73.17788696289062,1.764190673828125,0.0,0.06746736913919449,99
1674110686.71931195,272226694,0,22.98697280883789,24.709138870239258,25.557397842407227,73.88731384277344,1.7804981470108032,0.0,0.06738422065973282,99
1674110686.81935596,272326738,0,22.945327758789062,24.662425994873047,25.48221206665039,74.5954360961914,1.7967462539672852,0.0,0.06738422065973282,99
1674110686.91938877,272426771,0,22.966676712036133,24.669288635253906,25.321706771850586,75.29917907714844,1.8129090070724487,0.0,0.0672391951084137,99
1674110687.01937389,272526756,0,22.934558868408203,24.63405418395996,25.275365829467773,76.00122833251953,1.829010248184204,0.0,0.0672391951084137,99
1674110687.11937785,272626760,0,23.172513961791992,24.56712532043457,20.856782913208008,76.58065032958984,1.8424370288848877,0.0,0.06686608493328094,99
1674110687.21938276,272726765,0,23.190702438354492,24.6220645904541,21.44754409790039,77.1764907836914,1.856255054473877,0.0,0.06673785299062729,99
1674110687.31943679,272826819,0,23.22258186340332,24.680166244506836,21.817956924438477,77.78292083740234,1.870337963104248,0.0,0.0668066069483757,99
1674110687.41934276,272926725,0,22.99587631225586,24.590373992919922,23.867361068725586,78.4453353881836,1.885570764541626,0.0,0.0668066069483757,99
1674110687.51941490,273026797,0,22.937379837036133,24.924318313598633,30.16318702697754,79.28387451171875,1.9048045873641968,0.0,0.06587297469377518,99
1674110687.61936283,273126745,0,23.205827713012695,24.756067276000977,23.452754974365234,79.93505096435547,1.9199156761169434,0.0,0.06610054522752762,99
1674110687.71937776,273226760,0,23.016267776489258,24.619047164916992,24.247596740722656,80.60874938964844,1.9354217052459717,0.0,0.06610054522752762,98
1674110687.81936789,273326750,0,23.264802932739258,24.77431869506836,22.74537467956543,81.24055480957031,1.950120449066162,0.0,0.0663657933473587,98
1674110687.91932487,273426707,0,23.23624038696289,24.688045501708984,21.89004135131836,81.84839630126953,1.9642444849014282,0.0,0.06632259488105774,98
1674110688.01952195,273526904,0,23.186874389648438,24.685075759887695,22.603900909423828,82.47756958007812,1.9788330793380737,0.0,0.06628064066171646,98
1674110688.11934996,273626732,0,23.162939071655273,24.614816665649414,21.983064651489258,83.08721160888672,1.992954134941101,0.0,0.06604529172182083,98
1674110688.21935487,273726737,0,23.197690963745117,24.673295974731445,22.34703254699707,83.70803833007812,2.0073559284210205,0.0,0.06603136658668518,98
1674110688.31933475,273826717,0,23.19529914855957,24.682266235351562,22.51398277282715,84.33335876464844,2.021860361099243,0.0,0.06604639440774918,98
1674110688.41944575,273926828,0,23.186874389648438,24.67583656311035,22.546510696411133,84.96038818359375,2.0363993644714355,0.0,0.0660395473241806,98
1674110688.51938081,274026763,0,23.076677322387695,24.671409606933594,24.140493392944336,85.63057708740234,2.0518651008605957,0.0,0.06606043875217438,98
1674110688.61936378,274126746,0,23.01540756225586,24.657814025878906,24.838048934936523,86.3204574584961,2.0677430629730225,0.0,0.06612459570169449,98
1674110688.71935487,274226737,0,22.914138793945312,24.693696975708008,26.93768310546875,87.0687255859375,2.0848889350891113,0.0,0.06606203317642212,98
1674110688.81937695,274326759,0,22.869789123535156,24.719675064086914,28.063451766967773,87.84850311279297,2.10272216796875,0.0,0.0659179612994194,98
1674110688.91934395,274426726,0,22.780561447143555,24.702373504638672,29.186359405517578,88.6590347290039,2.1211864948272705,0.0,0.06584624201059341,98
1674110689.01938677,274526769,0,22.670082092285156,24.69985580444336,30.852458953857422,89.51616668701172,2.140617847442627,0.0,0.06578967720270157,98
1674110689.11937475,274626757,0,22.704736709594727,24.632810592651367,29.22840118408203,90.32833099365234,2.159057855606079,0.0,0.06596575677394867,98
1674110689.21937585,274726758,0,22.734800338745117,24.694032669067383,29.722187042236328,91.15402221679688,2.1778297424316406,0.0,0.0659182071685791,98
1674110689.31938887,274826771,0,22.750978469848633,24.677547454833984,29.221036911010742,91.96588897705078,2.196300506591797,0.0,0.06593087315559387,98
1674110689.41937184,274926754,0,22.75643539428711,24.680959701538086,29.190038681030273,92.77640533447266,2.214745044708252,0.0,0.06593085080385208,98
1674110689.51940680,275026789,0,22.703493118286133,24.62897491455078,29.126821517944336,93.5858154296875,2.233121395111084,0.0,0.06610679626464844,98
1674110689.61937380,275126756,0,22.719045639038086,24.647693634033203,29.131938934326172,94.39509582519531,2.251507520675659,0.0,0.06620390713214874,98
1674110689.71937895,275226761,0,22.66012191772461,24.583961486816406,28.926424026489258,95.19871520996094,2.2697174549102783,0.0,0.06650805473327637,98
1674110689.81931090,275326693,0,22.6959285736084,24.61819076538086,28.8325138092041,95.99913024902344,2.2878835201263428,0.0,0.06666992604732513,98
1674110689.91932774,275426710,0,22.730680465698242,24.688716888427734,29.409160614013672,96.8162612915039,2.30645751953125,0.0,0.06657910346984863,98
1674110690.01938796,275526770,0,22.690853118896484,24.631793975830078,29.104421615600586,97.6252670288086,2.324814558029175,0.0,0.06668886542320251,98
1674110690.11936879,275626751,0,22.652559280395508,24.599647521972656,29.10533905029297,98.43366241455078,2.3431267738342285,0.0,0.06689800322055817,98
1674110690.21939778,275726780,0,22.6763973236084,24.62645149230957,29.105953216552734,99.24246215820312,2.3614673614501953,0.0,0.06699849665164948,98
1674110690.31939483,275826777,0,22.718713760375977,24.678810119628906,29.29315757751465,100.05619812011719,2.3799545764923096,0.0,0.06691312789916992,98
1674110690.41940284,275926785,0,22.718618392944336,24.675920486450195,29.281288146972656,100.86969757080078,2.3984360694885254,0.0,0.06684483587741852,98
1674110690.51937890,276026761,0,22.688173294067383,24.620647430419922,28.90985107421875,101.67262268066406,2.4166529178619385,0.0,0.06684483587741852,98
1674110690.61937475,276126757,0,22.687503814697266,24.618131637573242,28.882230758666992,102.47493743896484,2.4348554611206055,0.0,0.06684483587741852,98
1674110690.71938396,276226766,0,22.639156341552734,24.548696517944336,28.566749572753906,103.26858520507812,2.4528229236602783,0.0,0.06684483587741852,98
1674110690.81939173,276326774,0,22.65945053100586,24.603853225708008,29.05040740966797,104.07567596435547,2.471111297607422,0.0,0.06693203002214432,98
1674110690.91937280,276426755,0,22.684345245361328,24.610383987426758,28.77604866027832,104.8743896484375,2.489229440689087,0.0,0.06693203002214432,98
1674110691.01930475,276526687,0,22.66146469116211,24.590728759765625,28.824230194091797,105.67510986328125,2.5073750019073486,0.0,0.06693203002214432,98
1674110691.11942482,276626807,0,22.656484603881836,24.57868194580078,28.718660354614258,106.47386932373047,2.5254721641540527,0.0,0.06693203002214432,98
1674110691.21938777,276726770,0,22.6356143951416,24.548137664794922,28.574115753173828,107.26737213134766,2.543433666229248,0.0,0.06693203002214432,98
1674110691.31938696,276826769,0,22.666812896728516,24.589628219604492,28.727867126464844,108.06541442871094,2.5615227222442627,0.0,0.06693203002214432,98
1674110691.41933894,276926721,0,22.69535255432129,24.615697860717773,28.671398162841797,108.86153411865234,2.5795907974243164,0.0,0.06697770208120346,98
1674110691.51943874,277026821,0,22.702247619628906,24.543832778930664,27.5650634765625,109.62805938720703,2.5969924926757812,0.0,0.06680867820978165,98
1674110691.61939573,277126778,0,22.821727752685547,24.495182037353516,25.14984893798828,110.32642364501953,2.6129302978515625,0.0,0.06653931736946106,98
1674110691.71937895,277226761,0,22.88893699645996,24.401500701904297,22.896059036254883,110.96236419677734,2.627486228942871,0.0,0.06606222689151764,98
1674110691.81939292,277326775,0,23.16820526123047,24.627986907958984,22.001476287841797,111.57365417480469,2.641648530960083,0.0,0.06634928286075592,98
1674110691.91941977,277426802,0,23.255517959594727,24.476057052612305,18.456911087036133,112.08653259277344,2.6535756587982178,0.0,0.06612910330295563,98
1674110692.01946282,277526845,0,23.12674903869629,24.530006408691406,21.223819732666016,112.67637634277344,2.6672167778015137,0.0,0.0661170557141304,98
1674110692.11939788,277626780,0,22.980302810668945,24.519868850708008,23.29900360107422,113.32320404052734,2.6820809841156006,0.0,0.06607865542173386,98
1674110692.21941090,277726793,0,23.037330627441406,24.585693359375,23.37572479248047,113.97267150878906,2.697042942047119,0.0,0.06623809039592743,98
1674110692.31937981,277826762,0,22.999225616455078,24.500713348388672,22.709468841552734,114.60334777832031,2.7115478515625,0.0,0.06611723452806473,98
1674110692.41939592,277926778,0,22.95346450805664,24.54358673095703,24.062541961669922,115.27188873291016,2.726893186569214,0.0,0.06608288735151291,98
1674110692.51939583,278026778,0,22.800952911376953,24.442548751831055,24.726957321166992,115.95860290527344,2.742550849914551,0.0,0.06638891249895096,98
1674110692.61938977,278126772,0,22.736618041992188,24.4530086517334,25.759946823120117,116.67423248291016,2.758821964263916,0.0,0.06663017719984055,98
1674110692.71942973,278226812,0,22.787933349609375,24.63414764404297,27.87226104736328,117.44902038574219,2.776477813720703,0.0,0.06623838096857071,98
1674110692.81939888,278326781,0,22.751073837280273,24.561086654663086,27.369882583618164,118.20912170410156,2.7937707901000977,0.0,0.0661315843462944,98
1674110692.91944075,278426823,0,22.814069747924805,24.651945114135742,27.961565017700195,118.98600769042969,2.811494827270508,0.0,0.06572860479354858,98
1674110693.01939893,278526781,0,22.675537109375,24.49957275390625,27.688196182250977,119.75507354736328,2.8289337158203125,0.0,0.06587774306535721,98
1674110693.11945391,278626836,0,22.83350372314453,24.53150749206543,25.784189224243164,120.47175598144531,2.8452980518341064,0.0,0.06585444509983063,98
1674110693.21939087,278726773,0,22.73776626586914,24.50838851928711,26.84663963317871,121.21708679199219,2.8622450828552246,0.0,0.06595324724912643,98
1674110693.31939983,278826782,0,22.723215103149414,24.487491607666016,26.685827255249023,121.95848846435547,2.87909197807312,0.0,0.06611289083957672,98
1674110693.41941476,278926797,0,22.730968475341797,24.56831932067871,27.844640731811523,122.73213195800781,2.8966774940490723,0.0,0.065985769033432,98
1674110693.51945281,279026835,0,22.73259735107422,24.56598472595215,27.829910278320312,123.50553894042969,2.914259195327759,0.0,0.06587833911180496,98
1674110693.61939287,279126775,0,22.733362197875977,24.538532257080078,27.403640747070312,124.26634979248047,2.9315550327301025,0.0,0.06587333977222443,98
1674110693.71940494,279226787,0,22.64911460876465,24.458829879760742,27.36313247680664,125.02659606933594,2.9487738609313965,0.0,0.06613698601722717,98
1674110693.81943178,279326814,0,22.62128448486328,24.459257125854492,27.690584182739258,125.79605102539062,2.966179847717285,0.0,0.06637536734342575,98
1674110693.91938782,279426770,0,22.67955780029297,24.5285701751709,27.863975524902344,126.56976318359375,2.983727216720581,0.0,0.0663585439324379,98
1674110694.01959276,279526975,0,22.619050979614258,24.421142578125,27.15690040588379,127.32572937011719,3.000826358795166,0.0,0.0663585439324379,98
1674110694.11940289,279626785,0,22.666152954101562,24.4940185546875,27.52731704711914,128.0889892578125,3.0181264877319336,0.0,0.06640186160802841,98
1674110694.21938276,279726765,0,22.66012191772461,24.43074607849121,26.665267944335938,128.82960510253906,3.0349087715148926,0.0,0.06640186160802841,98
1674110694.31939483,279826777,0,22.72541618347168,24.489831924438477,26.575654983520508,129.56797790527344,3.0516884326934814,0.0,0.0663921907544136,98
1674110694.41939783,279926780,0,22.80813217163086,24.545663833618164,26.111024856567383,130.29330444335938,3.0682318210601807,0.0,0.06654395908117294,98
1674110694.51939082,280026773,0,22.7572021484375,24.44148063659668,25.379709243774414,130.9983673095703,3.0842769145965576,0.0,0.06636319309473038,98
1674110694.61940885,280126791,0,22.698728561401367,24.38323402404785,25.383119583129883,131.7035675048828,3.1002840995788574,0.0,0.06636319309473038,98
1674110694.71948981,280226872,0,22.719287872314453,24.426639556884766,25.778051376342773,132.42031860351562,3.116568088531494,0.0,0.06623278558254242,98
1674110694.81938887,280326771,0,22.72704315185547,24.443199157714844,25.93180274963379,133.13998413085938,3.1329238414764404,0.0,0.06617960333824158,98
1674110694.91940880,280426791,0,22.756052017211914,24.49156379699707,26.1859073638916,133.86758422851562,3.1494810581207275,0.0,0.06627653539180756,98
1674110695.01944995,280526832,0,22.721874237060547,24.419187545776367,25.609569549560547,134.57931518554688,3.1656527519226074,0.0,0.06627653539180756,98
1674110695.11944675,280626829,0,22.686643600463867,24.37858772277832,25.528549194335938,135.28848266601562,3.181741237640381,0.0,0.06627653539180756,98
1674110695.21939278,280726775,0,22.698129653930664,24.40622329711914,25.772220611572266,136.00404357910156,3.1979830265045166,0.0,0.06627653539180756,98
1674110695.31939673,280826779,0,22.687313079833984,24.405698776245117,25.927505493164062,136.72434997558594,3.214324712753296,0.0,0.06627653539180756,98
1674110695.41939378,280926776,0,22.720439910888672,24.464147567749023,26.30958366394043,137.45521545410156,3.2309300899505615,0.0,0.06627653539180756,98
1674110695.51942277,281026805,0,22.672771453857422,24.43240737915039,26.542476654052734,138.19277954101562,3.247652769088745,0.0,0.06629511713981628,98
1674110695.61942196,281126804,0,22.696311950683594,24.399900436401367,25.697032928466797,138.90663146972656,3.263854503631592,0.0,0.06629511713981628,98
1674110695.71938777,281226770,0,22.719192504882812,24.430326461791992,25.81180763244629,139.62344360351562,3.280139923095703,0.0,0.06629270315170288,98
1674110695.81944180,281326824,0,22.715843200683594,24.43340301513672,25.906023025512695,140.343505859375,3.296496868133545,0.0,0.06629960983991623,98
1674110695.91938591,281426768,0,22.702821731567383,24.42351531982422,25.95328712463379,141.0640869140625,3.3128559589385986,0.0,0.06629960983991623,98
1674110696.01940680,281526789,0,22.63475227355957,24.382049560546875,26.290555953979492,141.79458618164062,3.32939076423645,0.0,0.06646104156970978,98
1674110696.11936474,281626747,0,22.633602142333984,24.404043197631836,26.609718322753906,142.5332794189453,3.3461101055145264,0.0,0.0665336325764656,98
1674110696.21943188,281726814,0,22.661081314086914,24.413715362548828,26.328916549682617,143.26539611816406,3.3627004623413086,0.0,0.06656691431999207,98
1674110696.31940174,281826784,0,22.695068359375,24.43203353881836,26.083097457885742,143.98976135253906,3.3791401386260986,0.0,0.06659349799156189,98
1674110696.41937876,281926761,0,22.67766571044922,24.426334381103516,26.260822296142578,144.7191162109375,3.3956801891326904,0.0,0.06658851355314255,98
1674110696.51946783,282026850,0,22.650070190429688,24.432008743286133,26.769916534423828,145.46343994140625,3.41253924369812,0.0,0.06656493246555328,98
1674110696.61944580,282126828,0,22.651124954223633,24.436702728271484,26.839580535888672,146.20887756347656,3.429424285888672,0.0,0.06652778387069702,98
1674110696.71943092,282226813,0,22.649686813354492,24.41911506652832,26.586702346801758,146.94735717773438,3.446150541305542,0.0,0.06655314564704895,98
1674110696.81939578,282326778,0,22.68376922607422,24.481464385986328,27.011436462402344,147.69747924804688,3.4631659984588623,0.0,0.06655314564704895,98
1674110696.91939783,282426780,0,22.67055892944336,24.486492156982422,27.35637855529785,148.4574432373047,3.4803948402404785,0.0,0.06638062745332718,98
1674110697.01940989,282526792,0,22.63484764099121,24.366544723510742,26.08739471435547,149.18223571777344,3.496800422668457,0.0,0.06638062745332718,98
1674110697.11939692,282626779,0,22.649877548217773,24.380475997924805,26.070823669433594,149.90640258789062,3.513202667236328,0.0,0.06638062745332718,98
1674110697.21938682,282726769,0,22.610755920410156,24.380416870117188,26.606243133544922,150.64544677734375,3.5299131870269775,0.0,0.06651297211647034,98
1674110697.31940293,282826785,0,22.61924171447754,24.3992862701416,26.739532470703125,151.3883819580078,3.546717882156372,0.0,0.0665697529911995,98
1674110697.41946983,282926852,0,22.621349334716797,24.394582748413086,26.610332489013672,152.12803649902344,3.5634498596191406,0.0,0.06663704663515091,98
1674110697.51939273,283026775,0,22.554237365722656,24.321643829345703,26.522871017456055,152.86434936523438,3.58005690574646,0.0,0.06663704663515091,98
1674110697.61939192,283126774,0,22.60775375366211,24.3719482421875,26.474689483642578,153.5998077392578,3.5966837406158447,0.0,0.06663704663515091,98
1674110697.71940494,283226787,0,22.672760009765625,24.4304141998291,26.334749221801758,154.33148193359375,3.6132729053497314,0.0,0.06674276292324066,98
1674110697.81939387,283326776,0,22.65926170349121,24.400291442871094,26.08739471435547,155.05612182617188,3.629692554473877,0.0,0.06673834472894669,98
1674110697.91942191,283426804,0,22.679174423217773,24.408008575439453,25.897432327270508,155.77560424804688,3.646009683609009,0.0,0.0667569562792778,98
1674110698.01938987,283526772,0,22.66436767578125,24.343420028686523,25.216035842895508,156.4759979248047,3.66188383102417,0.0,0.06658665835857391,98
1674110698.11939573,283626778,0,22.655527114868164,24.32651138305664,25.162738800048828,157.1750030517578,3.677720308303833,0.0,0.06640706211328506,98
1674110698.21944785,283726830,0,22.68386459350586,24.38206672668457,25.564762115478516,157.88563537597656,3.693840265274048,0.0,0.06642742455005646,98
1674110698.31943583,283826818,0,22.6630916595459,24.382219314575195,25.87349510192871,158.60430908203125,3.710127830505371,0.0,0.0664435550570488,98
1674110698.41935873,283926741,0,22.72292709350586,24.415157318115234,25.427892684936523,159.31016540527344,3.7261667251586914,0.0,0.06655013561248779,98
1674110698.51940393,284026786,0,22.697172164916992,24.392854690551758,25.47269630432129,160.0181121826172,3.7422351837158203,0.0,0.06656865030527115,97
1674110698.61939192,284126774,0,22.65361213684082,24.3480281829834,25.45366668701172,160.72512817382812,3.758251428604126,0.0,0.06656865030527115,97
1674110698.71938777,284226770,0,22.681663513183594,24.392318725585938,25.68536949157715,161.4386444091797,3.77443528175354,0.0,0.06660034507513046,97
1674110698.81939793,284326780,0,22.64288902282715,24.38749122619629,26.200023651123047,162.1665496826172,3.790917158126831,0.0,0.06658779829740524,97
1674110698.91938496,284426767,0,22.6738338470459,24.382518768310547,25.66238784790039,162.87936401367188,3.807079315185547,0.0,0.06658327579498291,97
1674110699.01940084,284526783,0,22.609764099121094,24.317916870117188,25.654375076293945,163.5921630859375,3.823195457458496,0.0,0.06658327579498291,97
1674110699.11940885,284626791,0,22.62335968017578,24.337846755981445,25.74951171875,164.3075408935547,3.8393795490264893,0.0,0.06658327579498291,97
1674110699.21938896,284726771,0,22.63705062866211,24.376901626586914,26.143556594848633,165.03366088867188,3.8558168411254883,0.0,0.06654992699623108,97
1674110699.31935287,284826735,0,22.576927185058594,24.331113815307617,26.310197830200195,165.76429748535156,3.872312545776367,0.0,0.06667325645685196,97
1674110699.41940594,284926788,0,22.61771011352539,24.368885040283203,26.270915985107422,166.49449157714844,3.8888278007507324,0.0,0.06665828824043274,97
1674110699.51949096,285026873,0,22.581523895263672,24.35279655456543,26.55632209777832,167.23269653320312,3.9054975509643555,0.0,0.06669870764017105,97
1674110699.61938381,285126766,0,22.556726455688477,24.34360122680664,26.76316261291504,167.9755096435547,3.922252893447876,0.0,0.06676623225212097,97
1674110699.71944594,285226828,0,22.514986038208008,24.285795211791992,26.42159652709961,168.70999145507812,3.9387898445129395,0.0,0.06702125817537308,97
1674110699.81940079,285326783,0,22.561607360839844,24.344449996948242,26.587486267089844,169.44825744628906,3.955446243286133,0.0,0.06705572456121445,97
1674110699.91943288,285426815,0,22.5814266204834,24.36028289794922,26.536680221557617,170.18568420410156,3.9720983505249023,0.0,0.06703384220600128,97
1674110700.01951694,285526899,0,22.554616928100586,24.330224990844727,26.456274032592773,170.92124938964844,3.9886889457702637,0.0,0.06711483001708984,97
1674110700.11942077,285626803,0,22.5450439453125,24.327838897705078,26.531156539916992,171.65757751464844,4.005289554595947,0.0,0.0671963021159172,97
1674110700.21938682,285726769,0,22.532407760620117,24.283714294433594,26.062538146972656,172.38134765625,4.021597862243652,0.0,0.0671963021159172,97
1674110700.31939292,285826775,0,22.57415008544922,24.364349365234375,26.641328811645508,173.12147521972656,4.038305759429932,0.0,0.0671963021159172,97
1674110700.41948080,285926863,0,22.554523468017578,24.338909149169922,26.54926300048828,173.8596649169922,4.05495548248291,0.0,0.06721033900976181,97
1674110700.51956081,286026943,0,22.545429229736328,24.371429443359375,27.207538604736328,174.6160888671875,4.072009563446045,0.0,0.0671137347817421,97
1674110700.61950374,286126886,0,22.622774124145508,24.45425796508789,27.289241790771484,175.37376403808594,4.0891499519348145,0.0,0.0671137347817421,97
1674110700.71945286,286226835,0,22.606510162353516,24.422788619995117,27.06268882751465,176.12518310546875,4.106136798858643,0.0,0.0671137347817421,97
1674110700.81941986,286326802,0,22.55873680114746,24.384784698486328,27.223806381225586,176.88121032714844,4.123191833496094,0.0,0.06707542389631271,97
1674110700.91948485,286426867,0,22.603923797607422,24.45444679260254,27.588695526123047,177.6481170654297,4.140527248382568,0.0,0.06707542389631271,97
1674110701.01955986,286526942,0,22.604021072387695,24.40938949584961,26.890830993652344,178.3957061767578,4.157425880432129,0.0,0.06713692098855972,97
1674110701.11945486,286626837,0,22.50895118713379,24.296743392944336,26.629053115844727,179.1345977783203,4.174057483673096,0.0,0.06713692098855972,97
1674110701.21957874,286726961,0,22.541025161743164,24.35373306274414,26.969087600708008,179.884033203125,4.190950870513916,0.0,0.06721429526805878,97
1674110701.31950092,286826883,0,22.513355255126953,24.317811965942383,26.846332550048828,180.6300048828125,4.207745552062988,0.0,0.06721429526805878,97
1674110701.41947174,286926854,0,22.537567138671875,24.34284782409668,26.858572006225586,181.37583923339844,4.224555015563965,0.0,0.06721429526805878,97
1674110701.51948285,287026865,0,22.49813461303711,24.293764114379883,26.714981079101562,182.11814880371094,4.241255283355713,0.0,0.06721429526805878,97
1674110701.61946988,287126852,0,22.469127655029297,24.25143051147461,26.516733169555664,182.85467529296875,4.2578043937683105,0.0,0.06721429526805878,97
1674110701.71944284,287226825,0,22.505123138427734,24.29396629333496,26.614015579223633,183.5938262939453,4.274438858032227,0.0,0.06721429526805878,97
1674110701.81945896,287326841,0,22.50665283203125,24.3154239654541,26.894821166992188,184.34107971191406,4.291256904602051,0.0,0.06725350767374039,97
1674110701.91949177,287426874,0,22.512399673461914,24.308746337890625,26.710071563720703,185.0833282470703,4.307966709136963,0.0,0.06725350767374039,97
1674110702.01948977,287526872,0,22.48836898803711,24.285396575927734,26.720199584960938,185.8256072998047,4.32465934753418,0.0,0.06725350767374039,97
1674110702.11950278,287626885,0,22.45667839050293,24.251249313354492,26.683679580688477,186.5669708251953,4.341308116912842,0.0,0.06725350767374039,97
1674110702.21943784,287726820,0,22.533100128173828,24.32523536682129,26.62567710876465,187.30613708496094,4.357964038848877,0.0,0.06730850785970688,97
1674110702.31946492,287826847,0,22.505313873291016,24.30643653869629,26.753955841064453,188.04957580566406,4.374695301055908,0.0,0.06732171028852463,97
1674110702.41947293,287926855,0,22.55146026611328,24.348588943481445,26.65114974975586,188.79000854492188,4.391393184661865,0.0,0.06743156909942627,97
1674110702.51951694,288026899,0,22.525800704956055,24.317506790161133,26.57227897644043,189.52850341796875,4.408028602600098,0.0,0.06742764264345169,97
1674110702.61949778,288126880,0,22.51690101623535,24.296667098999023,26.395206451416016,190.26162719726562,4.424536228179932,0.0,0.06742764264345169,97
1674110702.71942878,288226811,0,22.45677375793457,24.248210906982422,26.56829071044922,190.9991912841797,4.441099166870117,0.0,0.06742764264345169,97
1674110702.81960273,288326985,0,22.51948356628418,24.338380813598633,26.97553253173828,191.74986267089844,4.458003997802734,0.0,0.06742764264345169,97
1674110702.91950679,288426889,0,22.548110961914062,24.353185653686523,26.770530700683594,192.4928436279297,4.474756717681885,0.0,0.06742764264345169,97
1674110703.01947379,288526856,0,22.53786277770996,24.30554962158203,26.228561401367188,193.2212371826172,4.491173267364502,0.0,0.06739546358585358,97
1674110703.11943483,288626817,0,22.548843383789062,24.332040786743164,26.438817977905273,193.95541381835938,4.507728099822998,0.0,0.06744617968797684,97
1674110703.21947479,288726857,0,22.51871681213379,24.28932762145996,26.252193450927734,194.68499755859375,4.5241570472717285,0.0,0.06744617968797684,97
1674110703.31943989,288826822,0,22.56122398376465,24.33690071105957,26.30129623413086,195.4154052734375,4.540635585784912,0.0,0.0675128772854805,97
1674110703.41946888,288926851,0,22.519962310791016,24.3063907623291,26.4605712890625,196.15069580078125,4.557194232940674,0.0,0.0675128772854805,97
1674110703.51944184,289026824,0,22.501197814941406,24.277206420898438,26.30620765686035,196.88128662109375,4.573633193969727,0.0,0.0675128772854805,97
1674110703.61948895,289126871,0,22.463571548461914,24.230297088623047,26.168718338012695,197.6085968017578,4.58997106552124,0.0,0.0675128772854805,97
1674110703.71952176,289226904,0,22.49315643310547,24.292797088623047,26.650842666625977,198.3491973876953,4.606629371643066,0.0,0.06752658635377884,97
1674110703.81953573,289326918,0,22.513164520263672,24.296092987060547,26.403799057006836,199.082275390625,4.623133182525635,0.0,0.06752541661262512,97
1674110703.91946983,289426852,0,22.533100128173828,24.2847900390625,25.953933715820312,199.8032989501953,4.639379978179932,0.0,0.06749226152896881,97
1674110704.01945996,289526842,0,22.530302047729492,24.30519676208496,26.285032272338867,200.53343200683594,4.655829906463623,0.0,0.06752490252256393,97
1674110704.11950994,289626892,0,22.466733932495117,24.262489318847656,26.54926300048828,201.27133178710938,4.672408103942871,0.0,0.06763859838247299,97
1674110704.21949577,289726878,0,22.49411392211914,24.2669734954834,26.210763931274414,201.99937438964844,4.688784599304199,0.0,0.06763859838247299,97
1674110704.31948495,289826867,0,22.523122787475586,24.31937599182129,26.55662727355957,202.73678588867188,4.705393314361572,0.0,0.06763859838247299,97
1674110704.41951895,289926901,0,22.54025650024414,24.32581901550293,26.39858055114746,203.47064208984375,4.7219343185424805,0.0,0.06763859838247299,97
1674110704.51949978,290026882,0,22.469890594482422,24.252195358276367,26.350399017333984,204.2025146484375,4.73837947845459,0.0,0.06763859838247299,97
1674110704.61948895,290126871,0,22.471710205078125,24.25575828552246,26.376176834106445,204.93515014648438,4.754843235015869,0.0,0.06763859838247299,97
1674110704.71946573,290226848,0,22.485496520996094,24.278087615966797,26.492795944213867,205.67095947265625,4.771388053894043,0.0,0.06766335666179657,97
1674110704.81948280,290326865,0,22.482038497924805,24.29000473022461,26.726951599121094,206.41355895996094,4.788083076477051,0.0,0.06764581799507141,97
1674110704.91946578,290426848,0,22.47553825378418,24.261457443237305,26.401033401489258,207.1468505859375,4.804563999176025,0.0,0.06764581799507141,97
1674110705.01944494,290526827,0,22.45476531982422,24.250904083251953,26.512128829956055,207.88320922851562,4.821098804473877,0.0,0.0677478089928627,97
1674110705.11946177,290626844,0,22.418672561645508,24.228473663330078,26.647775650024414,208.6236114501953,4.837697505950928,0.0,0.06791567802429199,97
1674110705.21949387,290726876,0,22.449979782104492,24.26885986328125,26.774824142456055,209.36764526367188,4.854401111602783,0.0,0.06793244183063507,97
1674110705.31947780,290826860,0,22.46730613708496,24.297164916992188,26.968164443969727,210.11669921875,4.871230602264404,0.0,0.06785254925489426,97
1674110705.41943383,290926816,0,22.447586059570312,24.27263069152832,26.893285751342773,210.8634796142578,4.887993812561035,0.0,0.06786248087882996,97
1674110705.51953793,291026920,0,22.42633056640625,24.250185012817383,26.84234046936035,211.60972595214844,4.90472936630249,0.0,0.0679468885064125,97
1674110705.61950278,291126885,0,22.518098831176758,24.337888717651367,26.782533645629883,212.35369873046875,4.921482086181641,0.0,0.0679468885064125,97
1674110705.71956778,291226950,0,22.488080978393555,24.29266929626465,26.5489559173584,213.09156799316406,4.938075542449951,0.0,0.0679721012711525,97
1674110705.81941986,291326802,0,22.57271385192871,24.386301040649414,26.569517135620117,213.82872009277344,4.954714775085449,0.0,0.06825817376375198,97
1674110705.91949677,291426879,0,22.635517120361328,24.44982147216797,26.424667358398438,214.5633544921875,4.971343517303467,0.0,0.06865952908992767,97
1674110706.01962376,291527006,0,22.556438446044922,24.354511260986328,26.17393684387207,215.29139709472656,4.987765789031982,0.0,0.06869705021381378,97
1674110706.11943984,291626822,0,22.59147834777832,24.386642456054688,26.085859298706055,216.0147247314453,5.0041069984436035,0.0,0.06881754845380783,97
1674110706.21946573,291726848,0,22.550119400024414,24.342140197753906,26.05302619934082,216.73867797851562,5.020431995391846,0.0,0.06878358870744705,97
1674110706.31949186,291826874,0,22.52034568786621,24.332229614257812,26.34180450439453,217.47052001953125,5.0369133949279785,0.0,0.06878358870744705,97
1674110706.41950893,291926891,0,22.55490493774414,24.354822158813477,26.16057014465332,218.19749450683594,5.053310394287109,0.0,0.06880266219377518,97
1674110706.51945686,292026839,0,22.467880249023438,24.238544464111328,25.735395431518555,218.91204833984375,5.06936502456665,0.0,0.06880266219377518,97
1674110706.61947775,292126860,0,22.473817825317383,24.243066787719727,25.714832305908203,219.62655639648438,5.085422515869141,0.0,0.06880266219377518,97
1674110706.71950674,292226889,0,22.48674201965332,24.2784366607666,26.04105567932129,220.35018920898438,5.101694583892822,0.0,0.06880266219377518,97
1674110706.81948280,292326865,0,22.549449920654297,24.324804306030273,25.787872314453125,221.06640625,5.117845058441162,0.0,0.06884454935789108,97
1674110706.91944194,292426824,0,22.498516082763672,24.300567626953125,26.15920639038086,221.79281616210938,5.134188175201416,0.0,0.06888784468173981,97
1674110707.01943493,292526817,0,22.5144100189209,24.303205490112305,25.966787338256836,222.5141143798828,5.15042781829834,0.0,0.06888784468173981,97
1674110707.11949182,292626874,0,22.447010040283203,24.23508644104004,25.95635414123535,223.235595703125,5.166623115539551,0.0,0.06888784468173981,97
1674110707.21954584,292726928,0,22.505313873291016,24.303369522094727,26.10120391845703,223.96107482910156,5.182950496673584,0.0,0.06888784468173981,97
1674110707.31952596,292826908,0,22.463211059570312,24.250980377197266,25.951885223388672,224.68186950683594,5.199141979217529,0.0,0.06888784468173981,97
1674110707.41945076,292926833,0,22.52130126953125,24.32633399963379,26.202476501464844,225.40911865234375,5.21552038192749,0.0,0.06888784468173981,97
1674110707.51950788,293026890,0,22.429584503173828,24.22028350830078,25.99440574645996,226.1317596435547,5.231729030609131,0.0,0.06888784468173981,97
1674110707.61949277,293126875,0,22.47917938232422,24.281679153442383,26.162582397460938,226.8584442138672,5.2480645179748535,0.0,0.06889607012271881,97
1674110707.71944594,293226828,0,22.40622329711914,24.226482391357422,26.34671401977539,227.5900115966797,5.264455795288086,0.0,0.06908863037824631,97
1674110707.81946683,293326849,0,22.45916748046875,24.3055362701416,26.759788513183594,228.33355712890625,5.281155109405518,0.0,0.06899790465831757,97
1674110707.91946983,293426852,0,22.477359771728516,24.291648864746094,26.29485321044922,229.06405639648438,5.297574520111084,0.0,0.06899790465831757,97
1674110708.01945281,293526835,0,22.46223258972168,24.25733757019043,26.016809463500977,229.78668212890625,5.313806056976318,0.0,0.06899790465831757,97
1674110708.11955595,293626938,0,22.41789436340332,24.247013092041016,26.469165802001953,230.5227508544922,5.3303070068359375,0.0,0.06910376250743866,97
1674110708.21948886,293726871,0,22.454191207885742,24.28118324279785,26.445533752441406,231.2569122314453,5.346792221069336,0.0,0.06908510625362396,97
1674110708.31946087,293826843,0,22.467594146728516,24.266979217529297,26.055784225463867,231.9805450439453,5.36305046081543,0.0,0.06905896961688995,97
1674110708.41952181,293926904,0,22.481189727783203,24.32472038269043,26.69503402709961,232.7225799560547,5.379732131958008,0.0,0.06905896961688995,97
1674110708.51943493,294026817,0,22.397418975830078,24.25342559814453,26.837736129760742,233.4674835205078,5.396416187286377,0.0,0.06915659457445145,97
1674110708.61949492,294126877,0,22.446626663208008,24.287919998168945,26.635498046875,234.20785522460938,5.4130353927612305,0.0,0.06912930309772491,97
1674110708.71947193,294226854,0,22.433225631713867,24.254789352416992,26.350093841552734,234.939697265625,5.429452896118164,0.0,0.06912930309772491,97
1674110708.81946588,294326848,0,22.4199161529541,24.26807403564453,26.72418785095215,235.6820526123047,5.446096420288086,0.0,0.06915675103664398,97
1674110708.91945696,294426839,0,22.444063186645508,24.28559112548828,26.6413631439209,236.42201232910156,5.462704181671143,0.0,0.06912285834550858,97
1674110709.01951981,294526902,0,22.426713943481445,24.237882614135742,26.202171325683594,237.15036010742188,5.479038715362549,0.0,0.06912285834550858,97
1674110709.11951995,294626902,0,22.460222244262695,24.263229370117188,26.091386795043945,237.875244140625,5.495319843292236,0.0,0.06910353899002075,97
1674110709.21948791,294726870,0,22.38564109802246,24.203937530517578,26.312650680541992,238.60597229003906,5.5116777420043945,0.0,0.06910353899002075,97
1674110709.31949091,294826873,0,22.417713165283203,24.244964599609375,26.425893783569336,239.33998107910156,5.528132915496826,0.0,0.06914625316858292,97
1674110709.41948676,294926869,0,22.449787139892578,24.285696029663086,26.551103591918945,240.07762145996094,5.544692516326904,0.0,0.06914625316858292,96
1674110709.51947284,295026855,0,22.37472915649414,24.20113182067871,26.413619995117188,240.81126403808594,5.561107635498047,0.0,0.06914625316858292,96
1674110709.61947989,295126862,0,22.391767501831055,24.207496643066406,26.25925064086914,241.54086303710938,5.577445030212402,0.0,0.06914625316858292,96
1674110709.71942973,295226812,0,22.510677337646484,24.359975814819336,26.7447509765625,242.28346252441406,5.594161510467529,0.0,0.06914625316858292,96
1674110709.81946492,295326847,0,22.452680587768555,24.270898818969727,26.287078857421875,243.01397705078125,5.6105637550354,0.0,0.06916774809360504,96
1674110709.91950989,295426892,0,22.507516860961914,24.32630729675293,26.229177474975586,243.74295043945312,5.626971244812012,0.0,0.06934226304292679,96
1674110710.01953173,295526914,0,22.459360122680664,24.25635528564453,25.939167022705078,244.4636993408203,5.643158912658691,0.0,0.06927726417779922,96
1674110710.11944294,295626825,0,22.434659957885742,24.245134353637695,26.13373565673828,245.1890411376953,5.6594319343566895,0.0,0.06927726417779922,96
1674110710.21946883,295726851,0,22.410724639892578,24.227937698364258,26.231019973754883,245.9179229736328,5.675766468048096,0.0,0.06927726417779922,96
1674110710.31949687,295826879,0,22.40986442565918,24.247346878051758,26.504457473754883,246.6544189453125,5.6922712326049805,0.0,0.06932727992534637,96
1674110710.41957092,295926953,0,22.465200424194336,24.3002986907959,26.47008514404297,247.3903045654297,5.708803176879883,0.0,0.06932727992534637,96
1674110710.51948285,296026865,0,22.461273193359375,24.277254104614258,26.183757781982422,248.11705017089844,5.72512674331665,0.0,0.06935527175664902,96
1674110710.61949086,296126873,0,22.43102264404297,24.244577407836914,26.148771286010742,248.84352111816406,5.741422176361084,0.0,0.06935527175664902,96
1674110710.71949673,296226879,0,22.53948211669922,24.376630783081055,26.488941192626953,249.57937622070312,5.758008003234863,0.0,0.06935527175664902,96
1674110710.81947494,296326857,0,22.524749755859375,24.353906631469727,26.37372398376465,250.31192016601562,5.774508476257324,0.0,0.06935527175664902,96
1674110710.91950774,296426890,0,22.500242233276367,24.31346321105957,26.124834060668945,251.0379180908203,5.790843486785889,0.0,0.06940599530935287,96
1674110711.01946878,296526851,0,22.452945709228516,24.249893188476562,25.89037322998047,251.75686645507812,5.806985855102539,0.0,0.06940599530935287,96
1674110711.11948395,296626866,0,22.428245544433594,24.247600555419922,26.21321678161621,252.4851837158203,5.823320388793945,0.0,0.06940599530935287,96
1674110711.21947193,296726854,0,22.362472534179688,24.21491050720215,26.600820541381836,253.22401428222656,5.839842319488525,0.0,0.06963834166526794,96
1674110711.31946588,296826848,0,22.48520851135254,24.337730407714844,26.602046966552734,253.96298217773438,5.8564581871032715,0.0,0.06963834166526794,96
1674110711.41951394,296926896,0,22.43035125732422,24.250282287597656,26.13404083251953,254.68939208984375,5.872751712799072,0.0,0.06963834166526794,96
1674110711.51954579,297026928,0,22.461509704589844,24.277585983276367,26.082826614379883,255.41419982910156,5.889031887054443,0.0,0.0696273073554039,96
1674110711.61945987,297126842,0,22.462329864501953,24.264249801635742,25.89681625366211,256.13299560546875,5.905177593231201,0.0,0.06958074122667313,96
1674110711.71945095,297226833,0,22.420299530029297,24.193754196166992,25.487733840942383,256.8409729003906,5.921051025390625,0.0,0.06958074122667313,96
1674110711.81948781,297326870,0,22.53432273864746,24.323253631591797,25.64670181274414,257.5537109375,5.937111854553223,0.0,0.06975283473730087,96
1674110711.91949892,297426881,0,22.4948787689209,24.293956756591797,25.77406120300293,258.2698059082031,5.953219890594482,0.0,0.06980188935995102,96
1674110712.01952386,297526906,0,22.50081443786621,24.304054260253906,25.80904769897461,258.9869689941406,5.969356536865234,0.0,0.0698685497045517,96
1674110712.11952782,297626910,0,22.45227813720703,24.250823974609375,25.741838455200195,259.70208740234375,5.98541259765625,0.0,0.0698685497045517,96
1674110712.21949196,297726874,0,22.443851470947266,24.23819351196289,25.68168830871582,260.415283203125,6.0014190673828125,0.0,0.0698685497045517,96
1674110712.31956577,297826948,0,22.593297958374023,24.40923309326172,25.84710121154785,261.13385009765625,6.017653942108154,0.0,0.07025685161352158,96
1674110712.41947293,297926855,0,22.5216121673584,24.36275863647461,26.205923080444336,261.8611755371094,6.034034252166748,0.0,0.07025685161352158,96
1674110712.51947188,298026854,0,22.474966049194336,24.326927185058594,26.376176834106445,262.5939025878906,6.050502300262451,0.0,0.0702134296298027,96
1674110712.61947680,298126859,0,22.46079444885254,24.307369232177734,26.289634704589844,263.3242492675781,6.066906452178955,0.0,0.07023967802524567,96
1674110712.71949482,298226877,0,22.46079444885254,24.322420120239258,26.51396942138672,264.0609436035156,6.083453178405762,0.0,0.07021299004554749,96
1674110712.81944180,298326824,0,22.434659957885742,24.306581497192383,26.649614334106445,264.8008728027344,6.100053310394287,0.0,0.07024195790290833,96
1674110712.91948986,298426872,0,22.45821189880371,24.35141372680664,27.000389099121094,265.5513000488281,6.116906642913818,0.0,0.07011758536100388,96
1674110713.01947880,298526861,0,22.435619354248047,24.329387664794922,27.023405075073242,266.3019104003906,6.133747100830078,0.0,0.07007883489131927,96
1674110713.11944079,298626823,0,22.395980834960938,24.265092849731445,26.602968215942383,267.0406494140625,6.150291919708252,0.0,0.07025953382253647,96
1674110713.21945691,298726839,0,22.468210220336914,24.35832405090332,26.901878356933594,267.7881164550781,6.167086124420166,0.0,0.07025953382253647,96
