timestamp,TimeUS,ThI,ABst,ThO,ThH,DAlt,Alt,BAlt,DSAlt,SAlt,TAlt,DCRt,CRt
1674110673.72379494,259231177,0.0,0.0,0.0,0.15495307743549347,0.0,-0.04611505940556526,-1.83,nan,0.0,0.0038849394768476486,0,-1
1674110673.82190084,259329283,0.0,0.0,0.0,0.15495307743549347,0.0,-0.030028123408555984,-1.82,nan,0.0,0.019971875473856926,0,13
1674110673.92191195,259429294,0.0,0.0,0.0,0.15495307743549347,0.0,-0.01506306603550911,-1.67,nan,0.0,0.03493693470954895,0,13
1674110674.02188683,259529269,0.0,0.0,0.0,0.15495307743549347,0.0,-0.00087704136967659,-1.78,nan,0.0,0.04912295937538147,0,13
1674110674.12186790,259629250,0.0,0.0,0.0,0.15495307743549347,0.0,0.008330564945936203,-1.73,nan,0.0,0.05833056569099426,0,13
1674110674.22190475,259729287,0.0,0.0,0.0,0.15495307743549347,0.0,0.01826534792780876,-1.8800000000000001,nan,0.0,0.06826534867286682,0,13
1674110674.32186890,259829251,0.0,0.0,0.0,0.15495307743549347,0.0,0.025052407756447792,-1.8900000000000001,nan,0.0,0.075052410364151,0,12
1674110674.42188573,259929268,0.0,0.0,0.0,0.15495307743549347,0.0,0.0325537733733654,-1.79,nan,0.0,0.08255377411842346,0,12
1674110674.52189088,260029273,0.0,0.0,0.0,0.15495307743549347,0.0,0.03756437823176384,-1.56,nan,0.0,0.0875643789768219,0,12
1674110674.62185478,260129237,0.0,0.0,0.0,0.15495307743549347,0.0,0.044343214482069016,-2.0100000000000002,nan,0.0,0.09434321522712708,0,11
1674110674.72187781,260229260,0.0,0.0,0.0,0.15495307743549347,0.0,0.047562938183546066,-1.92,nan,0.0,0.09756293892860413,0,11
1674110674.82187891,260329261,0.0,0.0,0.0,0.15495307743549347,0.0,0.05213020369410515,-1.81,nan,0.0,0.1023571789264679,0,11
1674110674.92189789,260429280,0.0,0.0,0.0,0.15495307743549347,0.0,0.05576775595545769,-1.71,nan,0.0,0.1053490936756134,0,11
1674110675.02190685,260529289,0.0,0.0,0.0,0.15495307743549347,0.0,0.06101236864924431,-1.75,nan,0.0,0.11059370636940002,0,10
1674110675.12189674,260629279,0.0,0.0,0.0,0.15495307743549347,0.0,0.06359146535396576,-1.93,nan,0.0,0.11317279934883118,0,10
1674110675.22187281,260729255,0.0,0.0,0.0,0.15495307743549347,0.0,0.06742845475673676,-1.93,nan,0.0,0.1167999804019928,0,10
1674110675.32189679,260829279,0.0,0.0,0.0,0.15495307743549347,0.0,0.06849800050258636,-1.78,nan,0.0,0.11786952614784241,0,9
1674110675.42190385,260929286,0.0,0.0,0.0,0.15495307743549347,0.0,0.07104037702083588,-1.87,nan,0.0,0.11999419331550598,0,9
1674110675.52197075,261029353,0.0,0.0,0.0,0.15495307743549347,0.0,0.06990669667720795,-1.72,nan,0.0,0.11886051297187805,0,9
1674110675.62189984,261129282,0.0,0.0,0.0,0.15495307743549347,0.0,0.07110927999019623,-1.99,nan,0.0,0.12006309628486633,0,8
1674110675.72189093,261229273,0.0,0.0,0.0,0.15495307743549347,0.0,0.07021747529506683,-1.9000000000000001,nan,0.0,0.11917129158973694,0,8
1674110675.82186580,261329248,0.0,0.0,0.0,0.15495307743549347,0.0,0.07094167172908783,-1.96,nan,0.0,0.11989548802375793,0,7
1674110675.92189884,261429281,0.0,0.0,0.0,0.15495307743549347,0.0,0.07082746922969818,-1.8900000000000001,nan,0.0,0.11978128552436829,0,7
1674110676.02191591,261529298,0.0,0.0,0.0,0.15495307743549347,0.0,0.07249127328395844,-2.07,nan,0.0,0.12144508957862854,0,7
1674110676.12188578,261629268,0.0,0.0,0.0,0.15495307743549347,0.0,0.07077716290950775,-1.94,nan,0.0,0.11973097920417786,0,6
1674110676.22191787,261729300,0.0,0.0,0.0,0.15495307743549347,0.0,0.07047067582607269,-2.05,nan,0.0,0.1194244921207428,0,6
1674110676.32188177,261829264,0.0,0.0,0.0,0.15495307743549347,0.0,0.06946276128292084,-1.78,nan,0.0,0.11841657757759094,0,6
1674110676.42188478,261929267,0.0,0.0,0.0,0.15495307743549347,0.0,0.06987558305263519,-1.74,nan,0.0,0.1188293993473053,0,6
1674110676.52188778,262029270,0.0,0.0,0.0,0.15495307743549347,0.0,0.06950686872005463,-1.84,nan,0.0,0.11847880482673645,0,5
1674110676.62190986,262129292,0.0,0.0,0.0,0.15495307743549347,0.0,0.07044611871242523,-1.94,nan,0.0,0.11941805481910706,0,5
1674110676.72187495,262229257,0.0,0.0,0.0,0.15495307743549347,0.0,0.06917892396450043,-2.02,nan,0.0,0.11815086007118225,0,4
1674110676.82189083,262329273,0.0,0.0,0.0,0.15495307743549347,0.0,0.06851612031459808,-1.62,nan,0.0,0.11727824807167053,0,4
1674110676.92192888,262429311,0.0,0.0,0.0,0.15495307743549347,0.0,0.0668705552816391,-1.83,nan,0.0,0.11563268303871155,0,4
1674110677.02196288,262529345,0.0,0.0,0.0,0.15495307743549347,0.0,0.06674288213253021,-1.94,nan,0.0,0.11565664410591125,0,4
1674110677.12195587,262629338,0.0,0.0,0.0,0.15495307743549347,0.0,0.06473515927791595,-1.84,nan,0.0,0.113648921251297,0,3
1674110677.22188091,262729263,0.0,0.0,0.0,0.15495307743549347,0.0,0.0638946145772934,-1.71,nan,0.0,0.11280837655067444,0,3
1674110677.32187080,262829253,0.0,0.0,0.0,0.15495307743549347,0.0,0.06288348138332367,-2.0,nan,0.0,0.11179724335670471,0,3
1674110677.42188573,262929268,0.0,0.0,0.0,0.15495307743549347,0.0,0.06255446374416351,-2.23,nan,0.0,0.11146822571754456,0,3
1674110677.52188277,263029265,0.0,0.0,0.0,0.15495307743549347,0.0,0.06016216799616814,-1.84,nan,0.0,0.10907593369483948,0,3
1674110677.62185383,263129236,0.0,0.0,0.0,0.15495307743549347,0.0,0.05837009474635124,-1.81,nan,0.0,0.10728386044502258,0,2
1674110677.72186184,263229244,0.0,0.0,0.0,0.15495307743549347,0.0,0.056273799389600754,-1.72,nan,0.0,0.1051875650882721,0,1
1674110677.82195783,263329340,0.0,0.0,0.0,0.15495307743549347,0.0,0.05557892844080925,-1.81,nan,0.0,0.10449269413948059,0,1
1674110677.92188692,263429269,0.0,0.0,0.0,0.15495307743549347,0.0,0.05416546389460564,-1.85,nan,0.0,0.10323086380958557,0,1
1674110678.02190685,263529289,0.0,0.0,0.0,0.15495307743549347,0.0,0.053611259907484055,-2.23,nan,0.0,0.10267665982246399,0,1
1674110678.12185287,263629235,0.0,0.0,0.0,0.15495307743549347,0.0,0.05155692622065544,-1.99,nan,0.0,0.10062232613563538,0,1
1674110678.22193289,263729315,0.0,0.0,0.0,0.15495307743549347,0.0,0.04949353262782097,-1.6500000000000001,nan,0.0,0.0985589325428009,0,1
1674110678.32188082,263829263,0.0,0.0,0.0,0.15495307743549347,0.0,0.04955218359827995,-1.97,nan,0.0,0.09861758351325989,0,0
1674110678.42189384,263929276,0.0,0.0,0.0,0.15495307743549347,0.0,0.04967425391077995,-2.06,nan,0.0,0.09873965382575989,0,0
1674110678.52192283,264029305,0.0,0.0,0.0,0.15495307743549347,0.0,0.04791317507624626,-2.04,nan,0.0,0.09712925553321838,0,0
1674110678.62189889,264129281,0.0,0.0,0.0,0.15495307743549347,0.0,0.04566727206110954,-2.04,nan,0.0,0.09488335251808167,0,0
1674110678.72192478,264229307,0.0,0.0,0.0,0.15495307743549347,0.0,0.04199228808283806,-1.94,nan,0.0,0.09120836853981018,0,0
1674110678.82190990,264329292,0.0,0.0,0.0,0.15495307743549347,0.0,0.03849397227168083,-1.94,nan,0.0,0.0875193178653717,0,0
1674110678.92190576,264429288,0.0,0.0,0.0,0.15495307743549347,0.0,0.03370557352900505,-1.94,nan,0.0,0.08273091912269592,0,0
1674110679.02187896,264529261,0.0,0.0,0.0,0.15495307743549347,0.0,0.0296617541462183,-1.87,nan,0.0,0.07868710160255432,0,0
1674110679.12188292,264629265,0.0,0.0,0.0,0.15495307743549347,0.0,0.02530823089182377,-1.94,nan,0.0,0.07475128769874573,0,0
1674110679.22187877,264729261,0.0,0.0,0.0,0.15495307743549347,0.0,0.021650057286024094,-2.02,nan,0.0,0.0710931122303009,0,0
1674110679.32192373,264829306,0.0,0.0,0.0,0.15495307743549347,0.0,0.01773260161280632,-2.11,nan,0.0,0.06717565655708313,0,-1
1674110679.42190289,264929285,0.0,0.0,0.0,0.15495307743549347,0.0,0.013931374065577984,-2.0100000000000002,nan,0.0,0.06337442994117737,0,-1
1674110679.52189779,265029280,0.0,0.0,0.0,0.15495307743549347,0.0,0.012340049259364605,-1.6400000000000001,nan,0.0,0.06136539578437805,0,-1
1674110679.62189984,265129282,0.0,0.0,0.0,0.15495307743549347,0.0,0.012015084736049175,-1.99,nan,0.0,0.06104043126106262,0,-1
1674110679.72191286,265229295,0.0,0.0,0.0,0.15495307743549347,0.0,0.014137367717921734,-1.82,nan,0.0,0.06316271424293518,0,-1
1674110679.82190681,265329289,0.0,0.0,0.0,0.15495307743549347,0.0,0.015382985584437847,-1.8,nan,0.0,0.0644083321094513,0,-1
1674110679.92191577,265429298,0.0,0.0,0.0,0.15495307743549347,0.0,0.016758780926465988,-1.95,nan,0.0,0.06578412652015686,0,-1
1674110680.02188396,265529266,0.0,0.0,0.0,0.15495307743549347,0.0,0.01780746504664421,-1.9100000000000001,nan,0.0,0.06683281064033508,0,-1
1674110680.12189388,265629276,0.0,0.0,0.0,0.15495307743549347,0.0,0.021694162860512733,-2.0100000000000002,nan,0.0,0.07071951031684875,0,-1
1674110680.22191191,265729294,0.0010749276261776686,7.953494787216187e-07,0.0010757201816886663,0.15495307743549347,0.0,0.023314932361245155,-2.08,nan,0.0,0.07213142514228821,0,-1
1674110680.32187390,265829256,0.0036288120318204165,2.6032794266939163e-06,0.0034555208403617144,0.15495307743549347,0.0,0.021673420444130898,-1.8800000000000001,nan,0.0,0.07048991322517395,0,-1
1674110680.42190075,265929283,0.0046155620366334915,3.2689422369003296e-06,0.004618857521563768,0.15495307743549347,0.0,0.020443778485059738,-1.99,nan,0.0,0.06926026940345764,0,-2
1674110680.52191687,266029299,0.00701886136084795,4.873145371675491e-06,0.007023894228041172,0.15495307743549347,0.0,0.023915747180581093,-1.75,nan,0.0,0.0723135769367218,0,-2
1674110680.62189388,266129276,0.009838433004915714,6.8908557295799255e-06,0.009845355525612831,0.15495307743549347,0.0,0.026601294055581093,-2.22,nan,0.0,0.0749991238117218,0,-1
1674110680.72189593,266229278,0.015650451183319092,1.0875985026359558e-05,0.015661370009183884,0.15495307743549347,0.0,0.030017713084816933,-2.34,nan,0.0,0.07841554284095764,0,-2
1674110680.82188892,266329271,0.022063905373215675,1.5221536159515381e-05,0.022078892216086388,0.15495307743549347,0.0,0.03004155494272709,-2.15,nan,0.0,0.0784393846988678,0,-2
1674110680.92192483,266429307,0.023022938519716263,1.5620142221450806e-05,0.023038307204842567,0.15495307743549347,0.0,0.029940346255898476,-2.0,nan,0.0,0.07833817601203918,0,0
1674110681.02190185,266529284,0.025655051693320274,1.7469748854637146e-05,0.025672074407339096,0.15495307743549347,0.0,0.028608301654458046,-1.67,nan,0.0,0.07700613141059875,0,-1
1674110681.12189174,266629274,0.0325562059879303,2.117827534675598e-05,0.03257787600159645,0.15495307743549347,0.0,0.029531696811318398,-2.07,nan,0.0,0.0780811607837677,0,-2
1674110681.22186184,266729244,0.033060234040021896,2.1629035472869873e-05,0.033082060515880585,0.15495307743549347,0.0,0.029475072398781776,-2.1,nan,0.0,0.07781568169593811,0,-2
1674110681.32187390,266829256,0.03786199912428856,2.4106353521347046e-05,0.03788616508245468,0.15495307743549347,0.0,0.029574016109108925,-2.1,nan,0.0,0.07791462540626526,0,-1
1674110681.42191195,266929294,0.03842591866850853,2.4374574422836304e-05,0.038449835032224655,0.15495307743549347,0.0,0.028138378635048866,-2.0,nan,0.0,0.0764789879322052,0,-1
1674110681.52191091,267029293,0.041340358555316925,2.5354325771331787e-05,0.04136621206998825,0.15495307743549347,0.0,0.027595380321145058,-2.23,nan,0.0,0.07593598961830139,0,-1
1674110681.62192488,267129307,0.04867029935121536,2.9124319553375244e-05,0.04869949072599411,0.15495307743549347,0.0,0.025530794635415077,-1.9100000000000001,nan,0.0,0.07387140393257141,0,-2
1674110681.72194886,267229331,0.05468408390879631,3.106147050857544e-05,0.0547158420085907,0.15495307743549347,0.0,0.02510068751871586,-2.04,nan,0.0,0.07344129681587219,0,-2
1674110681.82188773,267329270,0.0662054643034935,3.6463141441345215e-05,0.066241554915905,0.15495307743549347,0.0,0.02380702830851078,-2.22,nan,0.0,0.07214763760566711,0,-1
1674110681.92191076,267429293,0.06663258373737335,3.380328416824341e-05,0.0666666179895401,0.15495307743549347,0.0,0.022962788119912148,-2.06,nan,0.0,0.07088473439216614,0,-2
1674110682.02191091,267529293,0.06663258373737335,3.244727849960327e-05,0.06666485965251923,0.15495307743549347,0.0,0.020449619740247726,-2.2,nan,0.0,0.06837156414985657,0,-2
1674110682.12188888,267629271,0.0662054643034935,2.8692185878753662e-05,0.06666023284196854,0.15495307743549347,0.0,0.015573005191981792,-2.15,nan,0.0,0.06349495053291321,0,-2
1674110682.22187591,267729258,0.06663258373737335,2.551823854446411e-05,0.06665944308042526,0.15495307743549347,0.0,0.009585123509168625,-2.12,nan,0.0,0.057507067918777466,0,-1
1674110682.32190895,267829291,0.06663258373737335,2.154707908630371e-05,0.06665398925542831,0.15495307743549347,0.0,0.0027968697249889374,-2.1,nan,0.0,0.05050995945930481,0,-3
1674110682.42186594,267929248,0.06663258373737335,1.5422701835632324e-05,0.06664764136075974,0.15495307743549347,0.0,-0.003057021414861083,-2.04,nan,0.0,0.044656068086624146,0,-2
1674110682.52190089,268029283,0.07374948263168335,1.2032687664031982e-05,0.07376134395599365,0.15495307743549347,0.0,-0.006791132967919111,-2.24,nan,0.0,0.040921956300735474,0,-3
1674110682.62188077,268129263,0.07374948263168335,8.977949619293213e-06,0.07375869899988174,0.15495307743549347,0.0,-0.011899847537279129,-2.0100000000000002,nan,0.0,0.03581324219703674,0,-2
1674110682.72189093,268229273,0.07374948263168335,7.338821887969971e-06,0.07375652343034744,0.15495307743549347,0.0,-0.01668204739689827,-2.0,nan,0.0,0.030821233987808228,0,-2
1674110682.82185674,268329239,0.07467725872993469,5.7220458984375e-06,0.07468268275260925,0.15495307743549347,0.0,-0.020806927233934402,-2.06,nan,0.0,0.026696352288126945,0,-1
1674110682.92189479,268429277,0.08806803077459335,4.850327968597412e-06,0.08807339519262314,0.15495307743549347,0.0,-0.024263042956590652,-2.15,nan,0.0,0.022822527214884758,0,-1
1674110683.02189779,268529280,0.08965832740068436,3.2708048820495605e-06,0.0896608829498291,0.15495307743549347,0.0,-0.027961749583482742,-2.06,nan,0.0,0.019123820587992668,0,-1
1674110683.12189984,268629282,0.09019309282302856,7.204711437225342e-06,0.09020032733678818,0.15495307743549347,0.0,-0.03140785172581673,-1.8800000000000001,nan,0.0,0.015677718445658684,0,0
1674110683.22195077,268729333,0.09019309282302856,1.7195940017700195e-05,0.09021095186471939,0.15495307743549347,0.0,-0.034410733729600906,-2.04,nan,0.0,0.012465981766581535,0,-2
1674110683.32194185,268829324,0.09019309282302856,1.7657876014709473e-05,0.09021076560020447,0.15495307743549347,0.0,-0.03778030350804329,-2.16,nan,0.0,0.009096411988139153,0,-4
1674110683.42191291,268929295,0.08965832740068436,6.884336471557617e-06,0.08966504782438278,0.15495307743549347,0.0,-0.04464401677250862,-2.19,nan,0.0,0.0022326987236738205,0,-7
1674110683.52191377,269029296,0.08965832740068436,2.7567148208618164e-07,0.08965867757797241,0.15495307743549347,0.0,-0.05313875153660774,-1.98,nan,0.0,-0.006053181365132332,0,-7
1674110683.62189174,269129274,0.08965832740068436,1.268833875656128e-05,0.08967090398073196,0.15495307743549347,0.0,-0.061617035418748856,-2.34,nan,0.0,-0.014531465247273445,0,-8
1674110683.72188473,269229267,0.08965832740068436,3.475695848464966e-05,0.08969275653362274,0.15495307743549347,0.0,-0.06793512403964996,-1.96,nan,0.0,-0.020849553868174553,0,-5
1674110683.82189083,269329273,0.08965832740068436,3.4436583518981934e-05,0.08969370275735855,0.15495307743549347,0.0,-0.07184018194675446,-2.0300000000000002,nan,0.0,-0.024754611775279045,0,-2
1674110683.92188191,269429264,0.08965832740068436,4.179030656814575e-05,0.0896996483206749,0.15495307743549347,0.0,-0.07507170736789703,-2.32,nan,0.0,-0.02775820903480053,0,-5
1674110684.02190280,269529285,0.09019309282302856,5.0455331802368164e-05,0.09024085104465485,0.15495307743549347,0.0,-0.08015741407871246,-2.05,nan,0.0,-0.03284391760826111,0,-4
1674110684.12190676,269629289,0.0907302275300026,4.944950342178345e-05,0.09078153967857361,0.15495307743549347,0.0,-0.08117558062076569,-1.97,nan,0.0,-0.03386208415031433,0,-3
1674110684.22188687,269729269,0.09567110985517502,6.158649921417236e-05,0.09573402255773544,0.15495307743549347,0.0,-0.08270169794559479,-2.29,nan,0.0,-0.03538820147514343,0,-4
1674110684.32189989,269829282,0.10080721974372864,6.846338510513306e-05,0.10087266564369202,0.15495307743549347,0.0,-0.08258630335330963,-2.21,nan,0.0,-0.035272806882858276,0,-6
1674110684.42192984,269929312,0.11678217351436615,8.211284875869751e-05,0.11686395108699799,0.15495307743549347,0.0,-0.0852527767419815,-2.19,nan,0.0,-0.03793928027153015,0,-5
1674110684.52189684,270029279,0.11808309704065323,8.293986320495605e-05,0.11816445738077164,0.15495307743549347,0.0,-0.08743096888065338,-2.1,nan,0.0,-0.040117472410202026,0,-5
1674110684.62192488,270129307,0.12005427479743958,7.522106170654297e-05,0.1201295554637909,0.15495307743549347,0.0,-0.09054888784885406,-2.1,nan,0.0,-0.04323539137840271,0,-3
1674110684.72188473,270229267,0.12138164788484573,4.5999884605407715e-05,0.12142709642648697,0.15495307743549347,0.0,-0.0897386223077774,-2.32,nan,0.0,-0.04242512583732605,0,-1
1674110684.82191396,270329296,0.12138164788484573,8.07642936706543e-06,0.12139095366001129,0.15495307743549347,0.0,-0.08952941000461578,-2.1,nan,0.0,-0.04221591353416443,0,0
1674110684.92195082,270429333,0.12138164788484573,3.777444362640381e-06,0.12138533592224121,0.15495307743549347,0.0,-0.08885563910007477,-1.99,nan,0.0,-0.041978925466537476,0,0
1674110685.02192283,270529305,0.12138164788484573,2.076476812362671e-05,0.12140404433012009,0.15495307743549347,0.0,-0.089471235871315,-2.09,nan,0.0,-0.043013185262680054,0,-1
1674110685.12187481,270629257,0.12138164788484573,2.7611851692199707e-05,0.12141183018684387,0.15495307743549347,0.0,-0.0908067375421524,-1.73,nan,0.0,-0.044348686933517456,0,-3
1674110685.22191596,270729298,0.12204933911561966,1.411139965057373e-05,0.12206396460533142,0.15495307743549347,0.0,-0.09369947016239166,-1.75,nan,0.0,-0.04745122790336609,0,-8
1674110685.32188988,270829272,0.13309982419013977,0.00017511844635009766,0.13328005373477936,0.15495307743549347,0.0,-0.09744705259799957,-1.92,nan,0.0,-0.051198810338974,0,-10
1674110685.42189574,270929278,0.1388893574476242,0.00018836557865142822,0.1390794813632965,0.15495307743549347,0.0,-0.10039247572422028,-1.8,nan,0.0,-0.0541442334651947,0,-7
1674110685.52191091,271029293,0.15101265907287598,0.00022265315055847168,0.15123756229877472,0.15495307743549347,0.0,-0.09777773916721344,-1.72,nan,0.0,-0.05130156874656677,0,0
1674110685.62189484,271129277,0.15645043551921844,0.00016404688358306885,0.15661419928073883,0.15495307743549347,0.0,-0.08496202528476715,-1.78,nan,0.0,-0.03848585486412048,0,10
1674110685.72188592,271229268,0.15720303356647491,0.00011168420314788818,0.15732519328594208,0.15495307743549347,0.0,-0.05724884942173958,-2.12,nan,0.0,-0.010621042922139168,0,26
1674110685.82188678,271329269,0.15645043551921844,4.5165419578552246e-05,0.15649853646755219,0.15495307743549347,0.0,-0.01705922558903694,-2.08,nan,0.0,0.029778391122817993,0,42
1674110685.92190981,271429292,0.15645043551921844,3.032386302947998e-05,0.15647917985916138,0.15495307743549347,0.0,0.03248594328761101,-1.6,nan,0.0,0.07947519421577454,0,56
1674110686.02190495,271529287,0.1557004451751709,1.5422701835632324e-05,0.15571630001068115,0.15495307743549347,0.0,0.0985245481133461,-1.9100000000000001,nan,0.0,0.14608314633369446,0,69
1674110686.12190175,271629284,0.1557004451751709,1.4901161193847656e-08,0.15570059418678284,0.15495307743549347,0.0,0.17646846175193787,-1.82,nan,0.0,0.2244648039340973,0,83
1674110686.22188783,271729270,0.13097460567951202,1.9222497940063477e-06,0.1309773325920105,0.15495307743549347,0.0,0.26660796999931335,-1.49,nan,0.0,0.3150210678577423,0,95
1674110686.32194495,271829327,0.13097460567951202,3.293156623840332e-06,0.13097819685935974,0.15495307743549347,0.0,0.36815890669822693,-1.55,nan,0.0,0.4165720045566559,0,100
1674110686.42196679,271929349,0.13027170300483704,1.087784767150879e-06,0.13027323782444,0.15495307743549347,0.0,0.4725639224052429,-1.49,nan,0.0,0.5209589004516602,0,101
1674110686.52189994,272029282,0.13027170300483704,1.8328428268432617e-06,0.13027425110340118,0.15495307743549347,0.0,0.5790661573410034,-1.17,nan,0.0,0.6276699900627136,0,100
1674110686.62188578,272129268,0.13027170300483704,3.6656856536865234e-06,0.13027478754520416,0.15495307743549347,0.0,0.6844358444213867,-1.25,nan,0.0,0.7331550717353821,0,100
1674110686.72188783,272229270,0.13027170300483704,4.1425228118896484e-06,0.13027560710906982,0.15495307743549347,0.0,0.7875334620475769,-0.9400000000000001,nan,0.0,0.8359313607215881,0,97
1674110686.82190990,272329292,0.13027170300483704,1.341104507446289e-06,0.13027316331863403,0.15495307743549347,0.0,0.8909000754356384,-1.05,nan,0.0,0.9391863942146301,0,96
1674110686.92189693,272429279,0.13027170300483704,1.9371509552001953e-06,0.13027340173721313,0.15495307743549347,0.0,0.9958875775337219,-0.79,nan,0.0,1.04385244846344,0,93
1674110687.02189994,272529282,0.12138164788484573,1.8775463104248047e-06,0.1213829517364502,0.15495307743549347,0.0,1.0980212688446045,-0.32,nan,0.0,1.1459336280822754,0,91
1674110687.12186980,272629252,0.11421173065900803,2.8759241104125977e-06,0.11421362310647964,0.15495307743549347,0.0,1.2019708156585693,-0.27,nan,0.0,1.2493349313735962,0,86
1674110687.22187686,272729259,0.11357563734054565,3.3527612686157227e-07,0.1135757565498352,0.15495307743549347,0.0,1.301292061805725,-0.24,nan,0.0,1.348166823387146,0,77
1674110687.32188296,272829265,0.11357563734054565,3.725290298461914e-08,0.11357592046260834,0.15495307743549347,0.0,1.3946614265441895,-0.39,nan,0.0,1.4413330554962158,0,68
1674110687.42186284,272929245,0.11357563734054565,2.1085143089294434e-06,0.11357828974723816,0.15495307743549347,0.0,1.4747703075408936,-0.14,nan,0.0,1.5205923318862915,0,59
1674110687.52194285,273029325,0.11357563734054565,0.0003255382180213928,0.11391787230968475,0.15495307743549347,0.0,1.5448414087295532,-0.04,nan,0.0,1.589949131011963,0,51
1674110687.62190390,273129286,0.11357563734054565,0.0004968270659446716,0.11406880617141724,0.15495307743549347,0.0,1.6074117422103882,-0.24,nan,0.0,1.6516706943511963,0,45
1674110687.72189975,273229282,0.11357563734054565,0.00022830069065093994,0.11380872875452042,0.15495307743549347,0.0,1.6590306758880615,-0.1,nan,0.0,1.7028614282608032,0,36
1674110687.82189584,273329278,0.11357563734054565,0.0002685263752937317,0.11384143680334091,0.15495307743549347,0.0,1.7007197141647339,0.17,nan,0.0,1.743853211402893,0,27
1674110687.92193794,273429320,0.11357563734054565,0.00015272200107574463,0.11373995989561081,0.15495307743549347,0.0,1.735750436782837,0.13,nan,0.0,1.7782478332519531,0,19
1674110688.02196693,273529349,0.11357563734054565,1.9595026969909668e-05,0.11359730362892151,0.15495307743549347,0.0,1.7614997625350952,0.18,nan,0.0,1.8034192323684692,0,9
1674110688.12185478,273629237,0.11357563734054565,6.891787052154541e-06,0.11358300596475601,0.15495307743549347,0.0,1.7790374755859375,0.2,nan,0.0,1.8202617168426514,0,0
1674110688.22190475,273729287,0.11294213682413101,3.4868717193603516e-06,0.11294593662023544,0.15495307743549347,0.0,1.7869874238967896,0.07,nan,0.0,1.8277872800827026,0,-9
1674110688.32187891,273829261,0.11357563734054565,8.948147296905518e-06,0.1135840192437172,0.15495307743549347,0.0,1.7863739728927612,0.49,nan,0.0,1.8263280391693115,0,-19
1674110688.42188787,273929270,0.11357563734054565,4.423409700393677e-05,0.11361964046955109,0.15495307743549347,0.0,1.7773760557174683,0.3,nan,0.0,1.816754937171936,0,-27
1674110688.52190876,274029291,0.12138164788484573,0.00013376027345657349,0.12150918692350388,0.15495307743549347,0.0,1.7617133855819702,0.3,nan,0.0,1.800594449043274,0,-38
1674110688.62191391,274129296,0.12138164788484573,0.0001403316855430603,0.12152034044265747,0.15495307743549347,0.0,1.7377091646194458,0.32,nan,0.0,1.7755955457687378,0,-43
1674110688.72191882,274229301,0.1295715570449829,9.66191291809082e-05,0.12967069447040558,0.15495307743549347,0.0,1.7091562747955322,0.04,nan,0.0,1.7466202974319458,0,-45
1674110688.82191896,274329301,0.13669732213020325,7.402896881103516e-05,0.13677291572093964,0.15495307743549347,0.0,1.6773072481155396,0.14,nan,0.0,1.7141255140304565,0,-45
1674110688.92188883,274429271,0.1441030651330948,6.598234176635742e-05,0.1441676765680313,0.15495307743549347,0.0,1.6470588445663452,0.0,nan,0.0,1.683517575263977,0,-41
1674110689.02187777,274529260,0.1441030651330948,2.346932888031006e-05,0.1441272348165512,0.15495307743549347,0.0,1.6209275722503662,-0.06,nan,0.0,1.6568169593811035,0,-33
1674110689.12192678,274629309,0.1441030651330948,2.816319465637207e-06,0.14410580694675446,0.15495307743549347,0.0,1.6005157232284546,-0.24,nan,0.0,1.6357613801956177,0,-26
1674110689.22186780,274729250,0.1441030651330948,5.200505256652832e-05,0.14415234327316284,0.15495307743549347,0.0,1.585757851600647,0.0,nan,0.0,1.6202863454818726,0,-16
1674110689.32186794,274829250,0.1441030651330948,0.00010408461093902588,0.14421097934246063,0.15495307743549347,0.0,1.5790568590164185,-0.34,nan,0.0,1.6129435300827026,0,-11
1674110689.42188978,274929272,0.1441030651330948,0.00017699599266052246,0.14427237212657928,0.15495307743549347,0.0,1.5777355432510376,-0.01,nan,0.0,1.6110433340072632,0,-2
1674110689.52197194,275029354,0.1441030651330948,0.00035019218921661377,0.1444457769393921,0.15495307743549347,0.0,1.583570122718811,-0.21,nan,0.0,1.6163133382797241,0,2
1674110689.62190294,275129285,0.1441030651330948,0.0004862844944000244,0.1445857137441635,0.15495307743549347,0.0,1.5953158140182495,0.18,nan,0.0,1.6280590295791626,0,11
1674110689.72191095,275229293,0.1441030651330948,0.0006831735372543335,0.14479289948940277,0.15495307743549347,0.0,1.6134610176086426,0.52,nan,0.0,1.6458542346954346,0,15
1674110689.82191086,275329293,0.1441030651330948,0.0009000301361083984,0.14499059319496155,0.15495307743549347,0.0,1.642674207687378,-0.14,nan,0.0,1.675296425819397,0,22
1674110689.92188883,275429271,0.1441030651330948,0.0011466145515441895,0.14524394273757935,0.15495307743549347,0.0,1.6779426336288452,0.17,nan,0.0,1.7105809450149536,0,28
1674110690.02187991,275529262,0.1441030651330948,0.001148313283920288,0.14525410532951355,0.15495307743549347,0.0,1.7192001342773438,-0.21,nan,0.0,1.7522199153900146,0,34
1674110690.12188196,275629264,0.1441030651330948,0.0011050552129745483,0.14520397782325745,0.15495307743549347,0.0,1.763558268547058,0.42,nan,0.0,1.7972476482391357,0,39
1674110690.22190475,275729287,0.1441030651330948,0.0007347911596298218,0.14485180377960205,0.15495307743549347,0.0,1.816053867340088,-0.1,nan,0.0,1.850489854812622,0,47
1674110690.32191682,275829299,0.1441030651330948,0.00048647820949554443,0.14459651708602905,0.15495307743549347,0.0,1.875105857849121,0.29,nan,0.0,1.9109418392181396,0,57
1674110690.42194176,275929324,0.1441030651330948,0.00039267539978027344,0.1444903463125229,0.15495307743549347,0.0,1.9413628578186035,0.43,nan,0.0,1.978171706199646,0,64
1674110690.52187586,276029258,0.1441030651330948,0.00035899877548217773,0.14445795118808746,0.15495307743549347,0.0,2.0161185264587402,0.08,nan,0.0,2.0545427799224854,0,69
1674110690.62190390,276129286,0.1441030651330948,0.00031159818172454834,0.14442668855190277,0.15495307743549347,0.0,2.0958566665649414,0.14,nan,0.0,2.135470151901245,0,75
1674110690.72191191,276229294,0.1441030651330948,0.00020776689052581787,0.14431758224964142,0.15495307743549347,0.0,2.17966628074646,0.45,nan,0.0,2.220823049545288,0,83
1674110690.82189894,276329281,0.1441030651330948,0.0001662522554397583,0.14426793158054352,0.15495307743549347,0.0,2.269298553466797,0.21,nan,0.0,2.3121488094329834,0,88
1674110690.92188883,276429271,0.1441030651330948,6.246566772460938e-05,0.1441662460565567,0.15495307743549347,0.0,2.3647024631500244,0.4,nan,0.0,2.4091739654541016,0,94
1674110691.02192593,276529308,0.1441030651330948,1.722574234008789e-05,0.14412108063697815,0.15495307743549347,0.0,2.463665723800659,0.72,nan,0.0,2.5097594261169434,0,98
1674110691.12195086,276629333,0.1441030651330948,5.27501106262207e-06,0.14410868287086487,0.15495307743549347,0.0,2.56844425201416,0.76,nan,0.0,2.6158645153045654,0,105
1674110691.22187996,276729262,0.1441030651330948,2.2351741790771484e-06,0.144105464220047,0.15495307743549347,0.0,2.6777260303497314,0.75,nan,0.0,2.726977586746216,0,106
1674110691.32191896,276829301,0.1441030651330948,1.3262033462524414e-06,0.14410404860973358,0.15495307743549347,0.0,2.79167103767395,0.74,nan,0.0,2.8422536849975586,0,111
1674110691.42197585,276929358,0.14187093079090118,2.980232238769531e-07,0.14367718994617462,0.15495307743549347,2.9065911769866943,2.9071807861328125,1.01,nan,0.0,2.959022283554077,113,114
1674110691.52193689,277029319,0.13097679615020752,2.9802322387695312e-08,0.13798293471336365,0.15495307743549347,3.020251750946045,3.0237388610839844,0.86,nan,0.0,3.076695442199707,112,115
1674110691.62191081,277129293,0.1201055571436882,3.5762786865234375e-07,0.1289271116256714,0.15495307743549347,3.1303563117980957,3.140490770339966,1.05,nan,0.0,3.1943435668945312,105,116
1674110691.72190380,277229286,0.10911346971988678,2.2917985916137695e-05,0.1179790273308754,0.15495307743549347,3.2319042682647705,3.255017042160034,1.27,nan,0.0,3.309842586517334,93,111
1674110691.82191682,277329299,0.0990147590637207,0.00025175511837005615,0.10662887245416641,0.15495307743549347,3.319936752319336,3.3615736961364746,1.46,nan,0.0,3.416944980621338,75,101
1674110691.92195892,277429341,0.10941146314144135,0.0004187151789665222,0.10582762211561203,0.15495307743549347,3.392366886138916,3.460285186767578,1.28,nan,0.0,3.516200065612793,58,86
1674110692.02191186,277529294,0.11521837115287781,0.00036825239658355713,0.11131489276885986,0.15495307743549347,3.4516384601593018,3.5404787063598633,1.6,nan,0.0,3.5967252254486084,44,68
1674110692.12190676,277629289,0.11540587246417999,0.00028298795223236084,0.11430374532938004,0.15495307743549347,3.500141143798828,3.605211019515991,1.52,nan,0.0,3.6615750789642334,33,54
1674110692.22198486,277729367,0.11547026038169861,0.00021699070930480957,0.11483146250247955,0.15495307743549347,3.53983211517334,3.654773473739624,1.6400000000000001,nan,0.0,3.711259365081787,24,42
1674110692.32194686,277829329,0.11991078406572342,0.00016717612743377686,0.11729119718074799,0.15495307743549347,3.5723116397857666,3.692084312438965,1.8800000000000001,nan,0.0,3.748835325241089,17,31
1674110692.42200375,277929386,0.12327930331230164,0.00018844753503799438,0.12080707401037216,0.15495307743549347,3.5988900661468506,3.7185428142547607,1.82,nan,0.0,3.774768352508545,12,20
1674110692.52193880,278029321,0.1254640370607376,0.0002476423978805542,0.1239781379699707,0.15495307743549347,3.6206395626068115,3.7361159324645996,1.61,nan,0.0,3.7921812534332275,8,13
1674110692.62197876,278129361,0.12864506244659424,0.0004835575819015503,0.12658187747001648,0.15495307743549347,3.6384377479553223,3.745009660720825,1.76,nan,0.0,3.800769805908203,5,6
1674110692.72196293,278229345,0.12918390333652496,0.0009223967790603638,0.12980100512504578,0.15495307743549347,3.6530020236968994,3.7465662956237793,2.0300000000000002,nan,0.0,3.801882266998291,3,0
1674110692.82191491,278329297,0.13099123537540436,0.0012160241603851318,0.13099123537540436,0.15495307743549347,3.6649203300476074,3.7452352046966553,1.87,nan,0.0,3.799816608428955,2,-2
1674110692.92190886,278429291,0.13167452812194824,0.0016347169876098633,0.13271676003932953,0.15495307743549347,3.6746742725372314,3.742466926574707,2.07,nan,0.0,3.7963180541992188,2,-2
1674110693.02190089,278529283,0.12886293232440948,0.001413971185684204,0.13070112466812134,0.15495307743549347,3.6826555728912354,3.7405574321746826,2.06,nan,0.0,3.793461322784424,1,-2
1674110693.12194490,278629327,0.13260814547538757,0.0014178454875946045,0.13202477991580963,0.15495307743549347,3.6891863346099854,3.7397758960723877,1.95,nan,0.0,3.791806221008301,0,-3
1674110693.22192478,278729307,0.13134613633155823,0.0013794749975204468,0.13299064338207245,0.15495307743549347,3.694530963897705,3.738314151763916,2.22,nan,0.0,3.7893269062042236,0,-5
1674110693.32193685,278829319,0.13618475198745728,0.0013815760612487793,0.13496039807796478,0.15495307743549347,3.698904275894165,3.7352776527404785,2.0100000000000002,nan,0.0,3.7854177951812744,0,-5
1674110693.42194676,278929329,0.13500192761421204,0.0013792812824249268,0.1366477757692337,0.15495307743549347,3.7024831771850586,3.732717275619507,2.18,nan,0.0,3.7815489768981934,0,-7
1674110693.52193284,279029315,0.13484682142734528,0.0013654232025146484,0.1366102695465088,0.15495307743549347,3.705411911010742,3.7309064865112305,1.84,nan,0.0,3.7790117263793945,0,-4
1674110693.62191486,279129297,0.1371968388557434,0.001360565423965454,0.13707566261291504,0.15495307743549347,3.7078099250793457,3.7296316623687744,2.0,nan,0.0,3.7762832641601562,0,-5
1674110693.72190785,279229290,0.13851232826709747,0.0012547075748443604,0.13913685083389282,0.15495307743549347,3.709770679473877,3.7290444374084473,1.68,nan,0.0,3.77453351020813,0,-7
1674110693.82197976,279329362,0.1374136209487915,0.001098349690437317,0.1383148580789566,0.15495307743549347,3.7113759517669678,3.726976156234741,1.84,nan,0.0,3.7710120677948,0,-6
1674110693.92192674,279429309,0.13706067204475403,0.0010350793600082397,0.1386011391878128,0.15495307743549347,3.71268892288208,3.724841594696045,1.79,nan,0.0,3.767570734024048,0,-5
1674110694.02197576,279529358,0.1368412971496582,0.0009112954139709473,0.13801530003547668,0.15495307743549347,3.713763952255249,3.7220661640167236,1.95,nan,0.0,3.7632687091827393,0,-4
1674110694.12193775,279629320,0.1330660581588745,0.0008417069911956787,0.13703489303588867,0.15495307743549347,3.714643716812134,3.7197117805480957,2.25,nan,0.0,3.7596094608306885,0,-3
1674110694.22195888,279729341,0.13339991867542267,0.0007944554090499878,0.135234072804451,0.15495307743549347,3.7153637409210205,3.7213401794433594,2.0,nan,0.0,3.7597129344940186,0,-1
1674110694.32193089,279829313,0.1300579309463501,0.0007601380348205566,0.1329561322927475,0.15495307743549347,3.7159533500671387,3.7264654636383057,2.4,nan,0.0,3.7636795043945312,0,0
1674110694.42191386,279929296,0.12670166790485382,0.0008091777563095093,0.13019603490829468,0.15495307743549347,3.716435432434082,3.735558032989502,2.31,nan,0.0,3.7711050510406494,-1,2
1674110694.52192593,280029308,0.12813960015773773,0.00090007483959198,0.12871529161930084,0.15495307743549347,3.716829776763916,3.7492308616638184,2.24,nan,0.0,3.7831826210021973,-2,3
1674110694.62189889,280129281,0.12800192832946777,0.0009187161922454834,0.12922757863998413,0.15495307743549347,3.7171525955200195,3.763098955154419,2.63,nan,0.0,3.795604705810547,-4,0
1674110694.72190881,280229291,0.12783831357955933,0.000928044319152832,0.12912046909332275,0.15495307743549347,3.717417001724243,3.778561592102051,2.18,nan,0.0,3.8095529079437256,-5,0
1674110694.82190585,280329288,0.1293039470911026,0.0009050071239471436,0.1297406256198883,0.15495307743549347,3.71763277053833,3.792572498321533,2.49,nan,0.0,3.822338342666626,-7,-1
1674110694.92195392,280429336,0.12891529500484467,0.0007656514644622803,0.1293802261352539,0.15495307743549347,3.7178096771240234,3.803417205810547,2.2600000000000002,nan,0.0,3.8312368392944336,-8,-3
1674110695.02194691,280529329,0.12869317829608917,0.0005776435136795044,0.12932437658309937,0.15495307743549347,3.717954635620117,3.8130388259887695,2.24,nan,0.0,3.839569091796875,-9,-2
1674110695.12189889,280629281,0.12808749079704285,0.0005328059196472168,0.12890875339508057,0.15495307743549347,3.7180731296539307,3.8202950954437256,2.0100000000000002,nan,0.0,3.8451743125915527,-10,-6
1674110695.22191787,280729300,0.12943734228610992,0.0004587024450302124,0.12943315505981445,0.15495307743549347,3.718169689178467,3.8235738277435303,2.25,nan,0.0,3.847095012664795,-10,-7
1674110695.32192373,280829306,0.12893430888652802,0.00039884448051452637,0.1297510415315628,0.15495307743549347,3.7182490825653076,3.8221194744110107,2.4,nan,0.0,3.843924045562744,-10,-8
1674110695.42198396,280929366,0.1310950219631195,0.0003604888916015625,0.13044674694538116,0.15495307743549347,3.7183141708374023,3.8216371536254883,2.6,nan,0.0,3.8420886993408203,-10,-8
1674110695.52190185,281029284,0.12850189208984375,0.0002627074718475342,0.13053026795387268,0.15495307743549347,3.718366861343384,3.8235185146331787,2.02,nan,0.0,3.8428409099578857,-10,-9
1674110695.62191081,281129293,0.12855494022369385,0.0002028346061706543,0.12884259223937988,0.15495307743549347,3.7184104919433594,3.8258605003356934,2.23,nan,0.0,3.8441240787506104,-10,-8
1674110695.72193480,281229317,0.12922215461730957,0.00017011165618896484,0.12875878810882568,0.15495307743549347,3.718447208404541,3.8261821269989014,2.06,nan,0.0,3.8433215618133545,-10,-9
1674110695.82198977,281329372,0.1274683177471161,0.00014093518257141113,0.12853701412677765,0.15495307743549347,3.7184746265411377,3.825078248977661,2.04,nan,0.0,3.8408730030059814,-10,-9
1674110695.92192793,281429310,0.1305907666683197,0.00011835992336273193,0.1292342245578766,0.15495307743549347,3.718498945236206,3.8212873935699463,2.35,nan,0.0,3.8361778259277344,-10,-10
1674110696.02195883,281529341,0.1318892389535904,9.122490882873535e-05,0.1312820017337799,0.15495307743549347,3.7185211181640625,3.8172192573547363,2.1,nan,0.0,3.8308441638946533,-9,-10
1674110696.12190795,281629290,0.13107003271579742,5.1081180572509766e-05,0.13145843148231506,0.15495307743549347,3.7185332775115967,3.8138582706451416,1.92,nan,0.0,3.8264341354370117,-9,-12
1674110696.22189879,281729281,0.12878450751304626,5.796551704406738e-06,0.13070788979530334,0.15495307743549347,3.718545436859131,3.8088552951812744,2.25,nan,0.0,3.8206024169921875,-9,-10
1674110696.32190490,281829287,0.13031354546546936,1.2516975402832031e-06,0.1294081062078476,0.15495307743549347,3.718557596206665,3.803323268890381,2.21,nan,0.0,3.8138010501861572,-8,-9
1674110696.42191482,281929297,0.1331378072500229,1.341104507446289e-07,0.1315307915210724,0.15495307743549347,3.718569755554199,3.7992186546325684,1.86,nan,0.0,3.808493137359619,-8,-10
1674110696.52189994,282029282,0.1307981163263321,6.854534149169922e-07,0.13104228675365448,0.15495307743549347,3.7185821533203125,3.793341636657715,2.49,nan,0.0,3.8016326427459717,-7,-8
1674110696.62191987,282129302,0.13108354806900024,0.0001297593116760254,0.13060761988162994,0.15495307743549347,3.71858549118042,3.789860963821411,2.41,nan,0.0,3.7971670627593994,-7,-7
1674110696.72193575,282229318,0.1319371461868286,0.0006429702043533325,0.13078226149082184,0.15495307743549347,3.71858549118042,3.789307117462158,1.99,nan,0.0,3.7952635288238525,-7,-8
1674110696.82191396,282329296,0.13431492447853088,0.0009976476430892944,0.1331789791584015,0.15495307743549347,3.71858549118042,3.78818941116333,2.16,nan,0.0,3.793163537979126,-6,-8
1674110696.92195582,282429338,0.12991909682750702,0.0010501593351364136,0.13326364755630493,0.15495307743549347,3.71858549118042,3.7848100662231445,1.72,nan,0.0,3.789234161376953,-6,-7
1674110697.02191377,282529296,0.12799416482448578,0.0011024326086044312,0.13073843717575073,0.15495307743549347,3.71858549118042,3.781031608581543,2.32,nan,0.0,3.7848405838012695,-6,-7
1674110697.12189484,282629277,0.13270843029022217,0.001203387975692749,0.13147154450416565,0.15495307743549347,3.71858549118042,3.777214527130127,1.95,nan,0.0,3.780916690826416,-5,-7
1674110697.22194886,282729331,0.13100802898406982,0.001151159405708313,0.13259094953536987,0.15495307743549347,3.71858549118042,3.7740561962127686,1.78,nan,0.0,3.77801775932312,-5,-6
1674110697.32195377,282829336,0.13198748230934143,0.001062139868736267,0.13265497982501984,0.15495307743549347,3.71858549118042,3.7684431076049805,1.84,nan,0.0,3.772374153137207,-4,-6
1674110697.42198491,282929367,0.13255295157432556,0.0010181218385696411,0.1328338384628296,0.15495307743549347,3.71858549118042,3.7619893550872803,2.08,nan,0.0,3.766181468963623,-4,-6
1674110697.52190995,283029292,0.1307830512523651,0.0009585022926330566,0.13269102573394775,0.15495307743549347,3.71858549118042,3.7559585571289062,2.0,nan,0.0,3.760929822921753,-3,-5
1674110697.62193274,283129315,0.12991124391555786,0.000709041953086853,0.13186269998550415,0.15495307743549347,3.71858549118042,3.752324342727661,1.81,nan,0.0,3.75813889503479,-3,-5
1674110697.72189474,283229277,0.12964211404323578,0.0005627274513244629,0.1308738738298416,0.15495307743549347,3.71858549118042,3.7494847774505615,2.31,nan,0.0,3.7563061714172363,-3,-2
1674110697.82194591,283329328,0.130043163895607,0.000376284122467041,0.1299751251935959,0.15495307743549347,3.71858549118042,3.749642848968506,2.13,nan,0.0,3.757749080657959,-3,-3
1674110697.92191291,283429295,0.12744851410388947,0.00021699070930480957,0.12914486229419708,0.15495307743549347,3.71858549118042,3.7537684440612793,2.29,nan,0.0,3.763084888458252,-3,-1
1674110698.02191186,283529294,0.12646867334842682,0.0001335740089416504,0.1279287189245224,0.15495307743549347,3.71858549118042,3.7600724697113037,2.6,nan,0.0,3.7711026668548584,-4,0
1674110698.12198186,283629364,0.12772539258003235,9.366869926452637e-05,0.1280265897512436,0.15495307743549347,3.71858549118042,3.7688710689544678,2.29,nan,0.0,3.7811102867126465,-5,-2
1674110698.22188973,283729272,0.12854725122451782,5.7756900787353516e-05,0.12814761698246002,0.15495307743549347,3.71858549118042,3.7790989875793457,2.3000000000000003,nan,0.0,3.792609691619873,-6,-4
1674110698.32191181,283829294,0.12616311013698578,5.666911602020264e-05,0.1275135576725006,0.15495307743549347,3.71858549118042,3.789090394973755,2.54,nan,0.0,3.804313898086548,-7,-2
1674110698.42192578,283929308,0.1276276409626007,5.7578086853027344e-05,0.12715259194374084,0.15495307743549347,3.71858549118042,3.7996184825897217,2.56,nan,0.0,3.816112995147705,-8,-2
1674110698.52200675,284029389,0.12628024816513062,9.347498416900635e-05,0.12664581835269928,0.15495307743549347,3.71858549118042,3.8112220764160156,2.13,nan,0.0,3.8291873931884766,-9,-3
1674110698.62190485,284129287,0.12813057005405426,0.00021451711654663086,0.1271970421075821,0.15495307743549347,3.71858549118042,3.8205456733703613,2.5100000000000002,nan,0.0,3.8402836322784424,-10,-5
1674110698.72192383,284229306,0.12956619262695312,0.0003148764371871948,0.12872767448425293,0.15495307743549347,3.71858549118042,3.826552629470825,2.3000000000000003,nan,0.0,3.8475608825683594,-10,-7
1674110698.82196474,284329347,0.1270851045846939,0.00035344064235687256,0.12894307076931,0.15495307743549347,3.71858549118042,3.8310132026672363,2.1,nan,0.0,3.8539927005767822,-11,-8
1674110698.92196488,284429347,0.12907995283603668,0.00037553906440734863,0.12894244492053986,0.15495307743549347,3.71858549118042,3.831077814102173,2.32,nan,0.0,3.855539321899414,-11,-10
1674110699.02192473,284529307,0.12973427772521973,0.00035361945629119873,0.12946650385856628,0.15495307743549347,3.71858549118042,3.8297481536865234,2.13,nan,0.0,3.856104612350464,-11,-11
1674110699.12190080,284629283,0.1306055784225464,0.00028699636459350586,0.1301857829093933,0.15495307743549347,3.71858549118042,3.8269524574279785,2.18,nan,0.0,3.8552143573760986,-10,-11
1674110699.22193074,284729313,0.13202612102031708,0.00025725364685058594,0.1311320960521698,0.15495307743549347,3.71858549118042,3.82279634475708,2.0300000000000002,nan,0.0,3.852888345718384,-10,-12
1674110699.32190990,284829292,0.1316956877708435,0.00019338726997375488,0.13138380646705627,0.15495307743549347,3.71858549118042,3.81571888923645,1.81,nan,0.0,3.847914695739746,-9,-11
1674110699.42196679,284929349,0.13271071016788483,0.0001983642578125,0.1319563239812851,0.15495307743549347,3.71858549118042,3.8063530921936035,2.21,nan,0.0,3.840301752090454,-8,-11
1674110699.52197385,285029356,0.1336568295955658,0.00025440752506256104,0.1329331398010254,0.15495307743549347,3.71858549118042,3.7947895526885986,1.93,nan,0.0,3.830688714981079,-7,-11
1674110699.62195277,285129335,0.1321968287229538,0.00022226572036743164,0.13328415155410767,0.15495307743549347,3.71858549118042,3.7846977710723877,2.2,nan,0.0,3.822772264480591,-6,-11
1674110699.72191095,285229293,0.13413120806217194,0.00011497735977172852,0.13343191146850586,0.15495307743549347,3.71858549118042,3.775831460952759,2.0,nan,0.0,3.8154296875,-5,-8
1674110699.82189894,285329281,0.13399404287338257,1.259148120880127e-05,0.13379217684268951,0.15495307743549347,3.71858549118042,3.769113063812256,2.24,nan,0.0,3.8108859062194824,-5,-9
1674110699.92189693,285429279,0.13344769179821014,2.9802322387695312e-06,0.1333460807800293,0.15495307743549347,3.71858549118042,3.764214277267456,2.24,nan,0.0,3.8075711727142334,-4,-8
1674110700.02193975,285529322,0.13399061560630798,1.0281801223754883e-06,0.1338752657175064,0.15495307743549347,3.71858549118042,3.762510061264038,2.18,nan,0.0,3.8076634407043457,-4,-7
1674110700.12200093,285629383,0.1321856826543808,4.3213367462158203e-07,0.13361325860023499,0.15495307743549347,3.71858549118042,3.7601826190948486,1.8900000000000001,nan,0.0,3.807131052017212,-4,-7
1674110700.22199178,285729374,0.13415543735027313,2.8312206268310547e-07,0.13318747282028198,0.15495307743549347,3.71858549118042,3.7584428787231445,2.05,nan,0.0,3.8068246841430664,-3,-5
1674110700.32196283,285829345,0.13367781043052673,2.086162567138672e-07,0.13371922075748444,0.15495307743549347,3.71858549118042,3.7550761699676514,1.7,nan,0.0,3.80523943901062,-3,-5
1674110700.42205596,285929438,0.13288305699825287,3.8743019104003906e-07,0.13310463726520538,0.15495307743549347,3.71858549118042,3.7512664794921875,1.99,nan,0.0,3.802924871444702,-3,-4
1674110700.52212691,286029509,0.13472038507461548,4.900991916656494e-05,0.13312552869319916,0.15495307743549347,3.71858549118042,3.745795249938965,1.94,nan,0.0,3.798872709274292,-2,-3
1674110700.62201095,286129393,0.135407954454422,0.00019088387489318848,0.13457076251506805,0.15495307743549347,3.71858549118042,3.741215467453003,1.5,nan,0.0,3.7957873344421387,-2,-4
1674110700.72200394,286229386,0.135783851146698,0.00030240416526794434,0.1354857087135315,0.15495307743549347,3.71858549118042,3.733790874481201,1.81,nan,0.0,3.789421319961548,-1,-4
1674110700.82204175,286329424,0.13703382015228271,0.0003092736005783081,0.13645678758621216,0.15495307743549347,3.71858549118042,3.7256245613098145,1.52,nan,0.0,3.782301425933838,0,-4
1674110700.92198491,286429367,0.13551534712314606,0.0002991706132888794,0.13634781539440155,0.15495307743549347,3.71858549118042,3.7169618606567383,1.56,nan,0.0,3.7744863033294678,0,-3
1674110701.02197194,286529354,0.1344347447156906,0.00029593706130981445,0.13578109443187714,0.15495307743549347,3.71858549118042,3.707864999771118,1.73,nan,0.0,3.766299247741699,1,-2
1674110701.12200594,286629388,0.13640621304512024,0.00026647746562957764,0.1358896791934967,0.15495307743549347,3.71858549118042,3.698413372039795,1.58,nan,0.0,3.757270097732544,2,-1
1674110701.22205091,286729433,0.13630037009716034,0.00026917457580566406,0.13590483367443085,0.15495307743549347,3.71858549118042,3.6907615661621094,1.93,nan,0.0,3.7500314712524414,2,-1
1674110701.32201791,286829400,0.1360958218574524,0.0002685338258743286,0.13614608347415924,0.15495307743549347,3.71858549118042,3.68595552444458,1.6500000000000001,nan,0.0,3.7458603382110596,3,0
1674110701.42201996,286929402,0.1353486180305481,0.00028890371322631836,0.1360357403755188,0.15495307743549347,3.71858549118042,3.683366060256958,1.6600000000000001,nan,0.0,3.7433338165283203,3,0
1674110701.52203584,287029418,0.13480836153030396,0.00029565393924713135,0.1357482373714447,0.15495307743549347,3.71858549118042,3.681558132171631,1.79,nan,0.0,3.741800546646118,3,2
1674110701.62207174,287129454,0.13644205033779144,0.0003024935722351074,0.13596659898757935,0.15495307743549347,3.71858549118042,3.680884599685669,1.5,nan,0.0,3.7411909103393555,3,2
1674110701.72205687,287229439,0.13533559441566467,0.00030206143856048584,0.13565610349178314,0.15495307743549347,3.71858549118042,3.679645299911499,1.49,nan,0.0,3.74037504196167,3,1
1674110701.82202196,287329404,0.13595521450042725,0.0002981722354888916,0.13583938777446747,0.15495307743549347,3.71858549118042,3.6771581172943115,1.94,nan,0.0,3.737877607345581,4,3
1674110701.92205095,287429433,0.1350582242012024,0.00028993189334869385,0.1357712298631668,0.15495307743549347,3.71858549118042,3.676225423812866,1.43,nan,0.0,3.7369449138641357,4,3
1674110702.02203178,287529414,0.13561999797821045,0.00029231607913970947,0.13624204695224762,0.15484024584293365,3.71858549118042,3.675687074661255,1.41,nan,0.0,3.736257791519165,4,1
1674110702.12201595,287629398,0.1353401392698288,0.000280722975730896,0.13591451942920685,0.15465444326400757,3.71858549118042,3.6727116107940674,1.87,nan,0.0,3.7337067127227783,4,4
1674110702.22198391,287729366,0.13529857993125916,0.0002927333116531372,0.1354297697544098,0.15446530282497406,3.71858549118042,3.6712846755981445,1.52,nan,0.0,3.7322795391082764,4,3
1674110702.32199192,287829374,0.1345168650150299,0.0002751201391220093,0.13511569797992706,0.15427498519420624,3.71858549118042,3.6719765663146973,1.53,nan,0.0,3.732971429824829,4,3
1674110702.42199874,287929381,0.13439515233039856,0.0002725571393966675,0.13527284562587738,0.15408484637737274,3.71858549118042,3.6717007160186768,1.53,nan,0.0,3.7324724197387695,4,3
1674110702.52195787,288029340,0.13425429165363312,0.00026391446590423584,0.13486671447753906,0.15389588475227356,3.71858549118042,3.6713430881500244,1.5,nan,0.0,3.732114791870117,4,4
1674110702.62198091,288129363,0.13589201867580414,0.00026866793632507324,0.1351817399263382,0.1537068635225296,3.71858549118042,3.6698787212371826,1.79,nan,0.0,3.7306504249572754,4,4
1674110702.72198796,288229370,0.13631966710090637,0.000254899263381958,0.1356876641511917,0.1535249650478363,3.71858549118042,3.668062925338745,1.6500000000000001,nan,0.0,3.728834629058838,5,3
1674110702.82202291,288329405,0.13423849642276764,0.000239446759223938,0.13534389436244965,0.1533469259738922,3.71858549118042,3.6684679985046387,1.79,nan,0.0,3.7292397022247314,5,3
1674110702.92210293,288429485,0.13304007053375244,0.00022195279598236084,0.1344391405582428,0.153164342045784,3.71858549118042,3.670738935470581,1.8,nan,0.0,3.731734037399292,4,3
1674110703.02207875,288529461,0.13365942239761353,0.00021320581436157227,0.13382774591445923,0.15297439694404602,3.71858549118042,3.674304723739624,1.7,nan,0.0,3.735299825668335,4,6
1674110703.12199283,288629375,0.13389405608177185,0.00019653141498565674,0.13366669416427612,0.1527826339006424,3.71858549118042,3.677981376647949,1.44,nan,0.0,3.739124298095703,4,5
1674110703.22214293,288729525,0.13282500207424164,0.00018510222434997559,0.1335919052362442,0.15259310603141785,3.71858549118042,3.680065155029297,1.76,nan,0.0,3.7414309978485107,3,3
1674110703.32202888,288829411,0.13439972698688507,0.00017216801643371582,0.13366718590259552,0.1524031013250351,3.71858549118042,3.6816768646240234,1.72,nan,0.0,3.7431905269622803,3,3
1674110703.42200089,288929383,0.13419780135154724,0.00014682114124298096,0.134043887257576,0.15221953392028809,3.71858549118042,3.683309555053711,1.85,nan,0.0,3.744971990585327,3,3
1674110703.52205181,289029434,0.13354827463626862,0.00014138221740722656,0.13382408022880554,0.15203817188739777,3.71858549118042,3.6855809688568115,1.67,nan,0.0,3.747392416000366,3,2
1674110703.62206292,289129445,0.1343608796596527,0.0001367628574371338,0.13438023626804352,0.15185922384262085,3.71858549118042,3.6876797676086426,1.72,nan,0.0,3.749713182449341,3,2
1674110703.72198677,289229369,0.13374657928943634,0.00012902915477752686,0.13437049090862274,0.15168587863445282,3.71858549118042,3.6889150142669678,1.78,nan,0.0,3.7510972023010254,2,3
1674110703.82197785,289329360,0.13266782462596893,0.00012566149234771729,0.13347125053405762,0.15150900185108185,3.71858549118042,3.6908938884735107,1.6,nan,0.0,3.753298282623291,2,2
1674110703.92202187,289429404,0.13335183262825012,0.00012052059173583984,0.13287940621376038,0.1513252556324005,3.71858549118042,3.692772150039673,1.79,nan,0.0,3.755176544189453,2,0
1674110704.02201796,289529400,0.13475054502487183,0.00011710822582244873,0.134064182639122,0.15114757418632507,3.71858549118042,3.6946117877960205,1.61,nan,0.0,3.75716495513916,2,2
1674110704.12198186,289629364,0.1340131163597107,0.00011752545833587646,0.1341535896062851,0.15097908675670624,3.71858549118042,3.696070671081543,1.69,nan,0.0,3.758772850036621,2,1
1674110704.22197390,289729356,0.13378232717514038,0.00011277198791503906,0.13393646478652954,0.1508103609085083,3.71858549118042,3.6969106197357178,1.6,nan,0.0,3.759612560272217,2,0
1674110704.32201076,289829393,0.13335473835468292,0.00011178851127624512,0.1338413953781128,0.15064233541488647,3.71858549118042,3.6969969272613525,1.53,nan,0.0,3.759847640991211,2,1
1674110704.42202091,289929403,0.13407059013843536,0.00012010335922241211,0.13372623920440674,0.15047383308410645,3.71858549118042,3.696208953857422,1.76,nan,0.0,3.7590599060058594,2,1
1674110704.52201295,290029395,0.13461719453334808,0.00011533498764038086,0.13404035568237305,0.15030910074710846,3.71858549118042,3.6953790187835693,1.7,nan,0.0,3.7584519386291504,2,1
1674110704.62196875,290129351,0.13377749919891357,0.00011612474918365479,0.13420377671718597,0.15014873445034027,3.71858549118042,3.6948375701904297,1.56,nan,0.0,3.7579104900360107,2,0
1674110704.72202086,290229403,0.13456472754478455,0.00011688470840454102,0.13417695462703705,0.14998938143253326,3.71858549118042,3.6950182914733887,1.75,nan,0.0,3.758239984512329,2,1
1674110704.82208395,290329466,0.13462594151496887,0.00010539591312408447,0.13452263176441193,0.14983418583869934,3.71858549118042,3.6946120262145996,1.6400000000000001,nan,0.0,3.75783371925354,2,1
1674110704.92200494,290429387,0.13468442857265472,0.00011205673217773438,0.13460971415042877,0.14968180656433105,3.71858549118042,3.694148063659668,1.68,nan,0.0,3.75759220123291,2,0
1674110705.02213979,290529522,0.1366465538740158,0.00011248886585235596,0.13567572832107544,0.1495356261730194,3.71858549118042,3.6926732063293457,1.68,nan,0.0,3.756117343902588,2,0
1674110705.12200189,290629384,0.1359606236219406,0.00011752545833587646,0.13615782558918,0.14940142631530762,3.71858549118042,3.6904304027557373,1.71,nan,0.0,3.7538745403289795,2,0
1674110705.22202396,290729406,0.13699515163898468,0.00011901557445526123,0.1365271657705307,0.14927080273628235,3.71858549118042,3.68743896484375,1.56,nan,0.0,3.7512433528900146,3,0
1674110705.32196093,290829343,0.13658802211284637,0.00011962652206420898,0.13681356608867645,0.1491461843252182,3.71858549118042,3.683452606201172,1.73,nan,0.0,3.7472572326660156,3,0
1674110705.42199683,290929379,0.13607197999954224,0.00012777745723724365,0.13636261224746704,0.14902159571647644,3.71858549118042,3.6798908710479736,1.7,nan,0.0,3.7438442707061768,3,0
1674110705.52198577,291029368,0.13502687215805054,0.00011719763278961182,0.13627946376800537,0.14889714121818542,3.71858549118042,3.677605152130127,1.71,nan,0.0,3.7418434619903564,4,0
1674110705.62197089,291129353,0.13361307978630066,0.00012709200382232666,0.13506385684013367,0.14876551926136017,3.71858549118042,3.676781415939331,1.86,nan,0.0,3.7410199642181396,4,1
1674110705.72201586,291229398,0.13339798152446747,0.00012545287609100342,0.13401465117931366,0.14862363040447235,3.71858549118042,3.6782121658325195,1.93,nan,0.0,3.742673635482788,4,3
1674110705.82201791,291329400,0.13211113214492798,0.0001188516616821289,0.13296398520469666,0.14847438037395477,3.71858549118042,3.682255506515503,1.82,nan,0.0,3.7471394538879395,3,4
1674110705.92216873,291429551,0.13223904371261597,0.00012603402137756348,0.13270318508148193,0.1483186036348343,3.71858549118042,3.687814235687256,1.76,nan,0.0,3.7526984214782715,3,4
1674110706.02202487,291529407,0.13134385645389557,0.0001280754804611206,0.13206620514392853,0.14815999567508698,3.71858549118042,3.6932554244995117,2.09,nan,0.0,3.7577171325683594,2,3
1674110706.12196088,291629343,0.13140824437141418,0.00013256072998046875,0.13205616176128387,0.1479996144771576,3.71858549118042,3.6996960639953613,2.04,nan,0.0,3.76415753364563,1,3
1674110706.22195482,291729337,0.13275928795337677,0.00014474987983703613,0.13183173537254333,0.1478378027677536,3.71858549118042,3.7075812816619873,1.78,nan,0.0,3.772042989730835,1,4
1674110706.32206893,291829451,0.13178572058677673,0.00014175474643707275,0.1321176439523697,0.14768116176128387,3.71858549118042,3.7141530513763428,1.99,nan,0.0,3.7786145210266113,0,2
1674110706.42205477,291929437,0.13138075172901154,0.00014169514179229736,0.1315588504076004,0.1475234031677246,3.71858549118042,3.720410108566284,2.15,nan,0.0,3.7848715782165527,0,2
1674110706.52198076,292029363,0.13094107806682587,0.00013116002082824707,0.13116614520549774,0.14736270904541016,3.71858549118042,3.728184461593628,2.1,nan,0.0,3.792720317840576,0,1
1674110706.62207294,292129455,0.13190430402755737,0.00013053417205810547,0.13175615668296814,0.1472041755914688,3.71858549118042,3.736292600631714,1.87,nan,0.0,3.800828695297241,-1,0
1674110706.72202682,292229409,0.1301707774400711,0.0001188516616821289,0.13078464567661285,0.14704769849777222,3.71858549118042,3.7430436611175537,1.94,nan,0.0,3.807579755783081,-2,0
1674110706.82197976,292329362,0.13128447532653809,0.00012712180614471436,0.13120126724243164,0.14688585698604584,3.71858549118042,3.7480905055999756,2.07,nan,0.0,3.812626361846924,-2,0
1674110706.92197585,292429358,0.13052672147750854,0.00012728571891784668,0.13114266097545624,0.14672990143299103,3.71858549118042,3.752690315246582,1.97,nan,0.0,3.816865921020508,-3,-2
1674110707.02199984,292529382,0.13257017731666565,0.00013299286365509033,0.13141782581806183,0.14657439291477203,3.71858549118042,3.757164478302002,2.33,nan,0.0,3.8213398456573486,-3,-2
1674110707.12205195,292629434,0.13154231011867523,0.00013424456119537354,0.13194046914577484,0.14642712473869324,3.71858549118042,3.762869119644165,1.98,nan,0.0,3.8270444869995117,-4,-2
1674110707.22198176,292729364,0.13079416751861572,0.0001341700553894043,0.13152457773685455,0.14628095924854279,3.71858549118042,3.768937587738037,1.92,nan,0.0,3.833113193511963,-5,-5
1674110707.32198095,292829363,0.13115519285202026,0.00012695789337158203,0.13120132684707642,0.1461333930492401,3.71858549118042,3.773682117462158,1.99,nan,0.0,3.837857723236084,-5,-3
1674110707.42200994,292929392,0.13239917159080505,0.00012671947479248047,0.13184978067874908,0.1459866613149643,3.71858549118042,3.775829315185547,1.83,nan,0.0,3.8400046825408936,-5,-5
1674110707.52212095,293029503,0.131768137216568,0.0001235753297805786,0.13177527487277985,0.14584605395793915,3.71858549118042,3.775569438934326,2.11,nan,0.0,3.83952260017395,-5,-5
1674110707.62193274,293129315,0.13363558053970337,0.00013190507888793945,0.13349725306034088,0.1457131803035736,3.71858549118042,3.7749056816101074,2.14,nan,0.0,3.8388588428497314,-5,-6
1674110707.72197890,293229361,0.1344248652458191,0.00013771653175354004,0.13365983963012695,0.1455928236246109,3.71858549118042,3.775216579437256,2.27,nan,0.0,3.83916974067688,-5,-7
1674110707.82200694,293329389,0.1336199790239334,0.00013071298599243164,0.1340121477842331,0.14547689259052277,3.71858549118042,3.776081085205078,1.81,nan,0.0,3.8400344848632812,-5,-7
1674110707.92202687,293429409,0.1312478631734848,0.00011542439460754395,0.13272802531719208,0.1453571915626526,3.71858549118042,3.776414394378662,2.04,nan,0.0,3.8406529426574707,-5,-6
1674110708.02202678,293529409,0.13478760421276093,0.00012011826038360596,0.1333635300397873,0.14523185789585114,3.71858549118042,3.7750563621520996,2.0,nan,0.0,3.839294672012329,-5,-7
1674110708.12201977,293629402,0.1343010663986206,0.00011752545833587646,0.13422344624996185,0.14511924982070923,3.71858549118042,3.7727608680725098,2.0300000000000002,nan,0.0,3.8369991779327393,-5,-6
1674110708.22205377,293729436,0.13126830756664276,0.00011324882507324219,0.13310697674751282,0.14500689506530762,3.71858549118042,3.7707018852233887,1.79,nan,0.0,3.834940195083618,-5,-6
1674110708.32202387,293829406,0.13393966853618622,0.00011585652828216553,0.13270317018032074,0.14488442242145538,3.71858549118042,3.7683284282684326,1.84,nan,0.0,3.832566738128662,-4,-5
1674110708.42202473,293929407,0.13564123213291168,0.00013290345668792725,0.13501757383346558,0.14477425813674927,3.71858549118042,3.764477252960205,2.07,nan,0.0,3.8287155628204346,-4,-7
1674110708.52198482,294029367,0.13416971266269684,0.00012956559658050537,0.13452424108982086,0.14467550814151764,3.71858549118042,3.7619264125823975,1.93,nan,0.0,3.826017141342163,-4,-6
