timestamp,TimeUS,ThI,ABst,ThO,ThH,DAlt,Alt,BAlt,DSAlt,SAlt,TAlt,DCRt,CRt
1674111221.14442801,58828724,0.0,0.0,0.0,0.13395263254642487,0.0,-0.24031409621238708,-2.5300000000000002,nan,0.0,0.009685883298516273,0,0
1674111221.24248004,58926776,0.0,0.0,0.0,0.13395263254642487,0.0,-0.21871528029441833,-2.41,nan,0.0,0.031284697353839874,0,15
1674111221.34248614,59026782,0.0,0.0,0.0,0.13395263254642487,0.0,-0.1988111436367035,-2.48,nan,0.0,0.05118883401155472,0,15
1674111221.44244123,59126737,0.0,0.0,0.0,0.13395263254642487,0.0,-0.18272481858730316,-2.8000000000000003,nan,0.0,0.06727517396211624,0,15
1674111221.54246616,59226762,0.0,0.0,0.0,0.13395263254642487,0.0,-0.16845737397670746,-2.62,nan,0.0,0.08154261857271194,0,15
1674111221.64256215,59326858,0.0,0.0,0.0,0.13395263254642487,0.0,-0.15754948556423187,-2.67,nan,0.0,0.09245050698518753,0,15
1674111221.74250722,59426803,0.0,0.0,0.0,0.13395263254642487,0.0,-0.14715205132961273,-2.87,nan,0.0,0.10263431817293167,0,14
1674111221.84245515,59526751,0.0,0.0,0.0,0.13395263254642487,0.0,-0.14042197167873383,-2.72,nan,0.0,0.1092156246304512,0,14
1674111221.94243813,59626734,0.0,0.0,0.0,0.13395263254642487,0.0,-0.13413654267787933,-2.57,nan,0.0,0.1155010536313057,0,14
1674111222.04250813,59726804,0.0,0.0,0.0,0.13395263254642487,0.0,-0.13008080422878265,-2.5,nan,0.0,0.11955679208040237,0,13
1674111222.14251113,59826807,0.0,0.0,0.0,0.13395263254642487,0.0,-0.12510715425014496,-2.45,nan,0.0,0.1241070106625557,0,13
1674111222.24250102,59926797,0.0,0.0,0.0,0.13395263254642487,0.0,-0.12381158769130707,-2.52,nan,0.0,0.1251775175333023,0,12
1674111222.34250212,60026798,0.0,0.0,0.0,0.13395263254642487,0.0,-0.12222062051296234,-2.63,nan,0.0,0.12676848471164703,0,12
1674111222.44248414,60126780,0.0,0.0,0.0,0.13395263254642487,0.0,-0.12458692491054535,-2.79,nan,0.0,0.12440218031406403,0,11
1674111222.54251313,60226809,0.0,0.0,0.0,0.13395263254642487,0.0,-0.12703333795070648,-2.75,nan,0.0,0.1219557598233223,0,10
1674111222.64247918,60326775,0.0,0.0,0.0,0.13395263254642487,0.0,-0.13188301026821136,-2.73,nan,0.0,0.11689437180757523,0,10
1674111222.74251509,60426811,0.0,0.0,0.0,0.13395263254642487,0.0,-0.135567769408226,-2.45,nan,0.0,0.11320961266756058,0,9
1674111222.84249902,60526795,0.0,0.0,0.0,0.13395263254642487,0.0,-0.13875757157802582,-2.54,nan,0.0,0.11001981049776077,0,9
1674111222.94249821,60626794,0.0,0.0,0.0,0.13395263254642487,0.0,-0.13958846032619476,-2.63,nan,0.0,0.10918892174959183,0,8
1674111223.04244614,60726742,0.0,0.0,0.0,0.13395263254642487,0.0,-0.14134250581264496,-2.82,nan,0.0,0.10722316056489944,0,8
1674111223.14246202,60826758,0.0,0.0,0.0,0.13395263254642487,0.0,-0.1423545926809311,-2.34,nan,0.0,0.10621107369661331,0,7
1674111223.24252319,60926819,0.0,0.0,0.0,0.13395263254642487,0.0,-0.14549003541469574,-2.48,nan,0.0,0.10292495042085648,0,7
1674111223.34251118,61026807,0.0,0.0,0.0,0.13395263254642487,0.0,-0.147298201918602,-2.63,nan,0.0,0.10111678391695023,0,6
1674111223.44250703,61126803,0.0,0.0,0.0,0.13395263254642487,0.0,-0.14869175851345062,-2.5100000000000002,nan,0.0,0.09972322732210159,0,6
1674111223.54247403,61226770,0.0,0.0,0.0,0.13395263254642487,0.0,-0.14826761186122894,-2.35,nan,0.0,0.10014737397432327,0,5
1674111223.64247799,61326774,0.0,0.0,0.0,0.13395263254642487,0.0,-0.1467507928609848,-2.54,nan,0.0,0.10166419297456741,0,5
1674111223.74247718,61426773,0.0,0.0,0.0,0.13395263254642487,0.0,-0.14375506341457367,-2.49,nan,0.0,0.10465992242097855,0,5
1674111223.84251118,61526807,0.0,0.0,0.0,0.13395263254642487,0.0,-0.14130054414272308,-2.31,nan,0.0,0.10669101029634476,0,5
1674111223.94247913,61626775,0.0,0.0,0.0,0.13395263254642487,0.0,-0.13748346269130707,-2.69,nan,0.0,0.1102830246090889,0,4
1674111224.04250717,61726803,0.0,0.0,0.0,0.13395263254642487,0.0,-0.1353529542684555,-2.74,nan,0.0,0.11241353303194046,0,4
1674111224.14249921,61826795,0.0,0.0,0.0,0.13395263254642487,0.0,-0.13363252580165863,-2.7600000000000002,nan,0.0,0.11392224580049515,0,4
1674111224.24248815,61926784,0.0,0.0,0.0,0.13395263254642487,0.0,-0.1307440847158432,-2.62,nan,0.0,0.11666000634431839,0,4
1674111224.34255815,62026854,0.0,0.0,0.0,0.13395263254642487,0.0,-0.12679706513881683,-2.54,nan,0.0,0.12060702592134476,0,3
1674111224.44250417,62126800,0.0,0.0,0.0,0.13395263254642487,0.0,-0.12305246293544769,-2.57,nan,0.0,0.12392820417881012,0,4
1674111224.54243803,62226734,0.0,0.0,0.0,0.13395263254642487,0.0,-0.11878548562526703,-2.5300000000000002,nan,0.0,0.12819518148899078,0,3
1674111224.64243507,62326731,0.0,0.0,0.0,0.13395263254642487,0.0,-0.11425291001796722,-2.49,nan,0.0,0.1325141340494156,0,3
1674111224.74247122,62426767,0.0,0.0,0.0,0.13395263254642487,0.0,-0.10984502732753754,-2.47,nan,0.0,0.13692201673984528,0,3
1674111224.84249902,62526795,0.0,0.0,0.0,0.13395263254642487,0.0,-0.10510407388210297,-2.54,nan,0.0,0.14166297018527985,0,3
1674111224.94243121,62626727,0.0,0.0,0.0,0.13395263254642487,0.0,-0.09992896020412445,-2.5100000000000002,nan,0.0,0.146689310669899,0,2
1674111225.04251814,62726814,0.0,0.0,0.0,0.13395263254642487,0.0,-0.09599147737026215,-2.38,nan,0.0,0.1506267935037613,0,2
1674111225.14250422,62826800,0.0,0.0,0.0,0.13395263254642487,0.0,-0.09167061746120453,-2.67,nan,0.0,0.15452422201633453,0,2
1674111225.24250507,62926801,0.0,0.0,0.0,0.13395263254642487,0.0,-0.08816538751125336,-2.48,nan,0.0,0.15780438482761383,0,2
1674111225.34249020,63026786,0.0,0.0,0.0,0.13395263254642487,0.0,-0.0845855325460434,-2.72,nan,0.0,0.1613842397928238,0,1
1674111225.44249320,63126789,0.0,0.0,0.0,0.13395263254642487,0.0,-0.08198939263820648,-2.35,nan,0.0,0.1639803797006607,0,2
1674111225.54249501,63226791,0.0,0.0,0.0,0.13395263254642487,0.0,-0.07873784005641937,-2.31,nan,0.0,0.16723193228244781,0,1
1674111225.64249420,63326790,0.0,0.0,0.0,0.13395263254642487,0.0,-0.0755539983510971,-2.41,nan,0.0,0.1700533777475357,0,1
1674111225.74249315,63426789,0.0,0.0,0.0,0.13395263254642487,0.0,-0.07184110581874847,-2.5100000000000002,nan,0.0,0.17376627027988434,0,1
1674111225.84249210,63526788,0.0,0.0,0.0,0.13395263254642487,0.0,-0.0665658563375473,-2.64,nan,0.0,0.1790415197610855,0,1
1674111225.94249010,63626786,0.0,0.0,0.0,0.13395263254642487,0.0,-0.06040393188595772,-2.7800000000000002,nan,0.0,0.18484103679656982,0,1
1674111226.04243207,63726728,0.0,0.0,0.0,0.13395263254642487,0.0,-0.05466877296566963,-2.65,nan,0.0,0.1905761957168579,0,1
1674111226.14251018,63826806,0.0,0.0,0.0,0.13395263254642487,0.0,-0.04869591072201729,-2.8000000000000003,nan,0.0,0.19654905796051025,0,1
1674111226.24244809,63926744,0.0,0.0,0.0,0.13395263254642487,0.0,-0.04541574791073799,-2.54,nan,0.0,0.1991788148880005,0,0
1674111226.34252119,64026817,0.0,0.0,0.0,0.13395263254642487,0.0,-0.04287182167172432,-2.87,nan,0.0,0.20172274112701416,0,1
1674111226.44249415,64126790,0.0,0.0,0.0,0.13395263254642487,0.0,-0.040228474885225296,-2.45,nan,0.0,0.20436608791351318,0,1
1674111226.54244518,64226741,0.0,0.0,0.0,0.13395263254642487,0.0,-0.03704630210995674,-2.5,nan,0.0,0.20733654499053955,0,1
1674111226.64252400,64326820,0.0,0.0,0.0,0.13395263254642487,0.0,-0.0334542877972126,-2.62,nan,0.0,0.21077978610992432,0,0
1674111226.74253416,64426830,0.0,0.0,0.0,0.13395263254642487,0.0,-0.030051814392209053,-2.37,nan,0.0,0.21418225765228271,0,0
1674111226.84248614,64526782,0.0,0.0,0.0,0.13395263254642487,0.0,-0.026335583999753,-2.44,nan,0.0,0.21789848804473877,0,0
1674111226.94251299,64626809,0.0,0.0,0.0,0.13395263254642487,0.0,-0.022393332794308662,-2.34,nan,0.0,0.22161567211151123,0,0
1674111227.04251218,64726808,0.0,0.0,0.0,0.13395263254642487,0.0,-0.017689336091279984,-2.48,nan,0.0,0.22631967067718506,0,0
1674111227.14249420,64826790,0.0,0.0,0.0,0.13395263254642487,0.0,-0.012826550751924515,-2.5300000000000002,nan,0.0,0.23060643672943115,0,0
1674111227.24248910,64926785,0.0,0.0,0.0,0.13395263254642487,0.0,-0.007771122734993696,-2.47,nan,0.0,0.23566186428070068,0,0
1674111227.34248519,65026781,0.0,0.0,0.0,0.13395263254642487,0.0,-0.002691615140065551,-2.5300000000000002,nan,0.0,0.24074137210845947,0,0
1674111227.44248509,65126781,0.0,0.0,0.0,0.13395263254642487,0.0,0.002499472349882126,-2.39,nan,0.0,0.2459324598312378,0,0
1674111227.54248810,65226784,0.0,0.0,0.0,0.13395263254642487,0.0,0.008312355726957321,-2.44,nan,0.0,0.251745343208313,0,0
1674111227.64249420,65326790,0.0,0.0,0.0,0.13395263254642487,0.0,0.01472605299204588,-2.57,nan,0.0,0.25779664516448975,0,0
1674111227.74245000,65426746,0.0,0.0,0.0,0.13395263254642487,0.0,0.020556818693876266,-2.36,nan,0.0,0.26362740993499756,0,0
1674111227.84254003,65526836,0.0,0.0,0.0,0.13395263254642487,0.0,0.028741251677274704,-2.59,nan,0.0,0.271811842918396,0,0
1674111227.94251418,65626810,0.0,0.0,0.0,0.13395263254642487,0.0,0.036871325224637985,-2.2600000000000002,nan,0.0,0.2793678045272827,0,0
1674111228.04249310,65726789,0.0,0.0,0.0,0.13395263254642487,0.0,0.042924292385578156,-2.49,nan,0.0,0.2854207754135132,0,0
1674111228.14250207,65826798,0.0,0.0,0.0,0.13395263254642487,0.0,0.0477532222867012,-2.46,nan,0.0,0.28981101512908936,0,0
1674111228.24249721,65926793,0.0,0.0,0.0,0.13395263254642487,0.0,0.05268348008394241,-2.37,nan,0.0,0.2945295572280884,0,0
1674111228.34250307,66026799,0.0,0.0,0.0,0.13395263254642487,0.0,0.05770457535982132,-2.48,nan,0.0,0.2995506525039673,0,0
1674111228.44250321,66126799,0.0,0.0,0.0,0.13395263254642487,0.0,0.0645679384469986,-2.33,nan,0.0,0.3062652349472046,0,0
1674111228.54250312,66226799,0.0,0.0,0.0,0.13395263254642487,0.0,0.07201065123081207,-2.58,nan,0.0,0.3132826089859009,0,0
1674111228.64247203,66326768,0.0,0.0,0.0,0.13395263254642487,0.0,0.07883180677890778,-2.27,nan,0.0,0.3201037645339966,0,0
1674111228.74248004,66426776,0.0,0.0,0.0,0.13395263254642487,0.0,0.08546032011508942,-2.34,nan,0.0,0.32652056217193604,0,0
1674111228.84252119,66526817,0.0,0.0,0.0,0.13395263254642487,0.0,0.09326566755771637,-2.63,nan,0.0,0.334325909614563,0,0
1674111228.94248700,66626783,0.0015012508956715465,2.262648195028305e-06,0.0015035128453746438,0.13395263254642487,0.0,0.09992803633213043,-2.23,nan,0.0,0.340337872505188,0,0
1674111229.04251218,66726808,0.0018228513654321432,2.7494970709085464e-06,0.0018255802569910884,0.13395263254642487,0.0,0.1065443903207779,-2.24,nan,0.0,0.34695422649383545,0,0
1674111229.14249921,66826795,0.0018228513654321432,2.742977812886238e-06,0.0018255823524668813,0.13395263254642487,0.0,0.11340631544589996,-2.34,nan,0.0,0.3538161516189575,0,0
1674111229.24243522,66926731,0.0030041816644370556,4.492001608014107e-06,0.0030086683109402657,0.13395263254642487,0.0,0.12211956083774567,-2.2800000000000002,nan,0.0,0.36216700077056885,0,0
1674111229.34250903,67026805,0.004019247833639383,5.998648703098297e-06,0.004025219473987818,0.13395263254642487,0.0,0.13113893568515778,-2.14,nan,0.0,0.37118637561798096,0,0
1674111229.44251108,67126807,0.006231718230992556,9.246636182069778e-06,0.006241013295948505,0.13395263254642487,0.0,0.138376846909523,-2.29,nan,0.0,0.377998948097229,0,0
1674111229.54252100,67226817,0.008791621774435043,1.3043172657489777e-05,0.008048721589148045,0.13395263254642487,0.0,0.1433657556772232,-2.33,nan,0.0,0.3829878568649292,0,0
1674111229.64244008,67326736,0.011649228632450104,1.7222948372364044e-05,0.011666594073176384,0.13395263254642487,0.0,0.1469823271036148,-2.57,nan,0.0,0.3863927125930786,0,0
1674111229.74252415,67426820,0.011926773935556412,1.7877668142318726e-05,0.011944562196731567,0.13395263254642487,0.0,0.1491948515176773,-2.54,nan,0.0,0.3884545564651489,0,0
1674111229.84262300,67526919,0.01514558494091034,2.2749416530132294e-05,0.015168151818215847,0.13395263254642487,0.0,0.15138401091098785,-2.5,nan,0.0,0.3904320001602173,0,0
1674111229.94252419,67626820,0.015482385642826557,2.2843480110168457e-05,0.015505336225032806,0.13395263254642487,0.0,0.1534048467874527,-2.37,nan,0.0,0.39245283603668213,0,0
1674111230.04247308,67726769,0.020171092823147774,3.0163675546646118e-05,0.020200803875923157,0.13395263254642487,0.0,0.15538085997104645,-2.33,nan,0.0,0.3940035104751587,0,0
1674111230.14248919,67826785,0.02508498728275299,3.736838698387146e-05,0.02512257546186447,0.13395263254642487,0.0,0.1577395349740982,-2.4,nan,0.0,0.39621150493621826,0,2
1674111230.24248219,67926778,0.025570815429091454,3.756396472454071e-05,0.025608757510781288,0.13395263254642487,0.0,0.15963114798069,-2.41,nan,0.0,0.39789140224456787,0,0
1674111230.34249902,68026795,0.02581624686717987,3.7554651498794556e-05,0.02585478127002716,0.13395263254642487,0.0,0.16118253767490387,-2.67,nan,0.0,0.39944279193878174,0,0
1674111230.44250822,68126804,0.026312200352549553,3.854930400848389e-05,0.026350874453783035,0.13395263254642487,0.0,0.1616150289773941,-2.61,nan,0.0,0.3994499444961548,0,0
1674111230.54250813,68226804,0.03108881041407585,4.5884400606155396e-05,0.031134072691202164,0.13395263254642487,0.0,0.1610056310892105,-2.79,nan,0.0,0.3988405466079712,0,-1
1674111230.64251208,68326808,0.0319412499666214,4.6525150537490845e-05,0.03198821842670441,0.13395263254642487,0.0,0.1587170511484146,-2.46,nan,0.0,0.3963268995285034,0,0
1674111230.74247813,68426774,0.03773186355829239,5.475059151649475e-05,0.03778707608580589,0.13395263254642487,0.0,0.1563655287027359,-2.56,nan,0.0,0.3937636613845825,0,0
1674111230.84252214,68526818,0.04872097820043564,6.945058703422546e-05,0.04879205673933029,0.13395263254642487,0.0,0.15389098227024078,-2.69,nan,0.0,0.3912891149520874,0,0
1674111230.94247413,68626770,0.04989168420433998,7.092952728271484e-05,0.049961548298597336,0.13395263254642487,0.0,0.15107358992099762,-2.19,nan,0.0,0.38832104206085205,0,-1
1674111231.04250813,68726804,0.05908830463886261,8.278712630271912e-05,0.059169892221689224,0.13395263254642487,0.0,0.14920367300510406,-2.14,nan,0.0,0.3860257863998413,0,-1
1674111231.14249802,68826794,0.07345569878816605,0.00010161846876144409,0.07355554401874542,0.13395263254642487,0.0,0.14948786795139313,-2.4,nan,0.0,0.38630998134613037,0,0
1674111231.24247217,68926768,0.09493021667003632,0.0001230686902999878,0.09505180269479752,0.13395263254642487,0.0,0.1503852754831314,-2.71,nan,0.0,0.38699567317962646,0,0
1674111231.34253001,69026826,0.0961678996682167,0.0001105964183807373,0.09628135710954666,0.13395263254642487,0.0,0.1499728113412857,-2.5,nan,0.0,0.3863562345504761,0,0
1674111231.44254017,69126836,0.09741666913032532,8.983910083770752e-05,0.09750533103942871,0.13395263254642487,0.0,0.14929427206516266,-2.37,nan,0.0,0.38546597957611084,0,-1
1674111231.54252315,69226819,0.09804525226354599,6.408244371414185e-05,0.09810984134674072,0.13395263254642487,0.0,0.14961732923984528,-2.5500000000000003,nan,0.0,0.3852130174636841,0,0
1674111231.64251614,69326812,0.09804525226354599,4.340708255767822e-05,0.0980878546833992,0.13395263254642487,0.0,0.1530410200357437,-2.5,nan,0.0,0.38848602771759033,0,0
1674111231.74250102,69426797,0.09804525226354599,3.0502676963806152e-05,0.09807540476322174,0.13395263254642487,0.0,0.15661920607089996,-2.14,nan,0.0,0.3917018175125122,0,0
1674111231.84249020,69526786,0.1084870845079422,2.1949410438537598e-05,0.10851098597049713,0.13395263254642487,0.0,0.16032303869724274,-2.42,nan,0.0,0.395405650138855,0,0
1674111231.94254303,69626839,0.11468508094549179,1.5623867511749268e-05,0.11470058560371399,0.13395263254642487,0.0,0.16434301435947418,-2.37,nan,0.0,0.39877521991729736,0,0
1674111232.04249215,69726788,0.1293228715658188,3.7401914596557617e-06,0.12932592630386353,0.13395263254642487,0.0,0.16861213743686676,-2.46,nan,0.0,0.40268003940582275,0,1
1674111232.14250302,69826799,0.1354231834411621,4.678964614868164e-06,0.13542799651622772,0.13395263254642487,0.0,0.172645702958107,-2.7,nan,0.0,0.4064866304397583,0,2
1674111232.24249721,69926793,0.13468651473522186,3.3348798751831055e-05,0.13471883535385132,0.13395263254642487,0.0,0.1764923483133316,-2.45,nan,0.0,0.40997087955474854,0,2
1674111232.34244013,70026736,0.12185288220643997,7.507205009460449e-05,0.12193109095096588,0.13395263254642487,0.0,0.18021787703037262,-2.39,nan,0.0,0.4130440950393677,0,0
1674111232.44254208,70126838,0.12185288220643997,8.91461968421936e-05,0.12193819135427475,0.13395263254642487,0.0,0.18397606909275055,-2.56,nan,0.0,0.4167279005050659,0,-2
1674111232.54250121,70226797,0.12185288220643997,5.303323268890381e-05,0.12191018462181091,0.13395263254642487,0.0,0.18450750410556793,-2.56,nan,0.0,0.4172593355178833,0,-5
1674111232.64252305,70326819,0.13468651473522186,1.52587890625e-05,0.13470473885536194,0.13395263254642487,0.0,0.18080128729343414,-2.44,nan,0.0,0.4135531187057495,0,-7
1674111232.74252915,70426825,0.13468651473522186,8.761882781982422e-06,0.13469500839710236,0.13395263254642487,0.0,0.17675818502902985,-2.17,nan,0.0,0.4095100164413452,0,-5
1674111232.84248209,70526778,0.136904776096344,1.1488795280456543e-05,0.13691382110118866,0.13395263254642487,0.0,0.17660297453403473,-2.33,nan,0.0,0.4093548059463501,0,-2
1674111232.94252014,70626816,0.1383974701166153,4.887580871582031e-06,0.13840459287166595,0.13395263254642487,0.0,0.17909230291843414,-2.12,nan,0.0,0.4118441343307495,0,-1
1674111233.04247403,70726770,0.13914798200130463,1.7434358596801758e-06,0.13914956152439117,0.13395263254642487,0.0,0.18574465811252594,-2.0100000000000002,nan,0.0,0.4182828664779663,0,0
1674111233.14247918,70826775,0.14065738022327423,1.195073127746582e-05,0.13991299271583557,0.13395263254642487,0.0,0.1945275217294693,-2.07,nan,0.0,0.4266403913497925,0,4
1674111233.24248815,70926784,0.14065738022327423,3.820657730102539e-05,0.14069058001041412,0.13395263254642487,0.0,0.20376361906528473,-1.67,nan,0.0,0.43523943424224854,0,0
1674111233.34258413,71026880,0.14837303757667542,4.547834396362305e-05,0.14841997623443604,0.13395263254642487,0.0,0.21276463568210602,-2.12,nan,0.0,0.44402873516082764,0,-1
1674111233.44249320,71126789,0.15074308216571808,4.1097402572631836e-05,0.1507803350687027,0.13395263254642487,0.0,0.22067631781101227,-2.2600000000000002,nan,0.0,0.4519404172897339,0,-1
1674111233.54249001,71226786,0.15074308216571808,3.248453140258789e-05,0.1507740467786789,0.13395263254642487,0.0,0.22688521444797516,-2.09,nan,0.0,0.4579375982284546,0,-1
1674111233.64249611,71326792,0.1523374319076538,4.366040229797363e-05,0.15237373113632202,0.13395263254642487,0.0,0.23585881292819977,-2.71,nan,0.0,0.466485857963562,0,0
1674111233.74252915,71426825,0.15556073188781738,4.811584949493408e-05,0.15560388565063477,0.13395263254642487,0.0,0.24421919882297516,-2.37,nan,0.0,0.4748462438583374,0,0
1674111233.84249806,71526794,0.1629832237958908,7.265806198120117e-05,0.16304998099803925,0.13395263254642487,0.0,0.25329816341400146,-1.79,nan,0.0,0.4837116003036499,0,4
1674111233.94243813,71626734,0.16382260620594025,4.774332046508789e-05,0.16386491060256958,0.13395263254642487,0.0,0.274788498878479,-1.32,nan,0.0,0.5047765970230103,0,9
1674111234.04248405,71726780,0.16466495394706726,3.254413604736328e-05,0.1638619750738144,0.13395263254642487,0.0,0.315146803855896,-1.51,nan,0.0,0.5449079275131226,0,15
1674111234.14250112,71826797,0.16466495394706726,3.860890865325928e-05,0.16470466554164886,0.13395263254642487,0.0,0.37202179431915283,-1.8800000000000001,nan,0.0,0.601420521736145,0,23
1674111234.24251914,71926815,0.16466495394706726,2.804398536682129e-05,0.16469107568264008,0.13395263254642487,0.0,0.43386638164520264,-2.14,nan,0.0,0.662612795829773,0,28
1674111234.34243011,72026726,0.16466495394706726,3.11434268951416e-06,0.16466960310935974,0.13395263254642487,0.0,0.49218642711639404,-2.05,nan,0.0,0.7205685377120972,0,31
1674111234.44253516,72126831,0.16382260620594025,1.1801719665527344e-05,0.16382984817028046,0.13395263254642487,0.0,0.5478979349136353,-2.59,nan,0.0,0.775978684425354,0,33
1674111234.54251909,72226815,0.1629832237958908,4.500150680541992e-06,0.16298750042915344,0.13395263254642487,0.0,0.5954936742782593,-1.86,nan,0.0,0.8229831457138062,0,38
1674111234.64246202,72326758,0.1629832237958908,1.3053417205810547e-05,0.16299816966056824,0.13395263254642487,0.0,0.6437441110610962,-2.27,nan,0.0,0.8708559274673462,0,40
1674111234.74252105,72426817,0.1629832237958908,5.155801773071289e-06,0.16298845410346985,0.13395263254642487,0.0,0.6905229687690735,-1.59,nan,0.0,0.9166792631149292,0,42
1674111234.84249020,72526786,0.1629832237958908,6.586313247680664e-06,0.16298937797546387,0.13395263254642487,0.0,0.7415527105331421,-1.79,nan,0.0,0.9673312902450562,0,42
1674111234.94249105,72626787,0.1629832237958908,6.407499313354492e-07,0.1629837304353714,0.13395263254642487,0.0,0.7957350611686707,-1.76,nan,0.0,1.0209834575653076,0,43
1674111235.04249620,72726792,0.1629832237958908,2.1845102310180664e-05,0.16300496459007263,0.13395263254642487,0.0,0.8502949476242065,-1.8800000000000001,nan,0.0,1.0752419233322144,0,48
1674111235.14249516,72826791,0.1629832237958908,3.88026237487793e-05,0.16301928460597992,0.13395263254642487,0.0,0.9052624106407166,-1.6,nan,0.0,1.1296029090881348,0,49
1674111235.24249411,72926790,0.15074308216571808,7.545948028564453e-05,0.15081661939620972,0.13395263254642487,0.0,0.9611727595329285,-1.81,nan,0.0,1.1848475933074951,0,50
1674111235.34255099,73026847,0.13764972984790802,9.700655937194824e-05,0.13774743676185608,0.13395263254642487,0.0,1.014972448348999,-1.74,nan,0.0,1.2384202480316162,0,46
1674111235.44249701,73126793,0.136904776096344,0.00013834238052368164,0.13703888654708862,0.13395263254642487,0.0,1.0595253705978394,-1.62,nan,0.0,1.2828073501586914,0,35
1674111235.54246116,73226757,0.136904776096344,0.0001315474510192871,0.1370360255241394,0.13395263254642487,0.0,1.0919451713562012,-1.48,nan,0.0,1.315274715423584,0,25
1674111235.64254403,73326840,0.13764972984790802,0.0002034902572631836,0.13785283267498016,0.13395263254642487,0.0,1.113054871559143,-1.68,nan,0.0,1.3366609811782837,0,13
1674111235.74250722,73426803,0.1383974701166153,0.0002002120018005371,0.1385989487171173,0.13395263254642487,0.0,1.1218421459197998,-1.27,nan,0.0,1.3459365367889404,0,3
1674111235.84252310,73526819,0.14680728316307068,0.0001834183931350708,0.14699119329452515,0.13395263254642487,0.0,1.1228690147399902,-1.59,nan,0.0,1.3474516868591309,0,-6
1674111235.94248915,73626785,0.14837303757667542,8.320808410644531e-05,0.14845548570156097,0.13395263254642487,0.0,1.1158922910690308,-1.44,nan,0.0,1.3408888578414917,0,-13
1674111236.04254222,73726838,0.1563737839460373,2.47955322265625e-05,0.15639889240264893,0.13395263254642487,0.0,1.1020840406417847,-1.33,nan,0.0,1.3277825117111206,0,-18
1674111236.14250422,73826800,0.16382260620594025,3.8743019104003906e-07,0.16382399201393127,0.13395263254642487,0.0,1.0868983268737793,-1.18,nan,0.0,1.3134360313415527,0,-18
1674111236.24251008,73926806,0.16978123784065247,2.86102294921875e-06,0.16978336870670319,0.13395263254642487,0.0,1.0757960081100464,-1.82,nan,0.0,1.3024595975875854,0,-16
1674111236.34250307,74026799,0.17151054739952087,1.7583370208740234e-06,0.17151248455047607,0.13395263254642487,0.0,1.0653899908065796,-1.79,nan,0.0,1.2933334112167358,0,-13
1674111236.44249916,74126795,0.17151054739952087,2.8312206268310547e-07,0.1715107560157776,0.13395263254642487,0.0,1.0551748275756836,-1.68,nan,0.0,1.283595085144043,0,-8
1674111236.54249001,74226786,0.17151054739952087,7.152557373046875e-07,0.17151185870170593,0.13395263254642487,0.0,1.0484000444412231,-1.72,nan,0.0,1.2777377367019653,0,-4
1674111236.64249706,74326793,0.17151054739952087,1.0892748832702637e-05,0.17152190208435059,0.13395263254642487,0.0,1.0468451976776123,-1.57,nan,0.0,1.2766597270965576,0,2
1674111236.74249220,74426788,0.17151054739952087,4.665553569793701e-05,0.171555757522583,0.13395263254642487,0.0,1.0507439374923706,-1.8,nan,0.0,1.2816133499145508,0,5
1674111236.84251809,74526814,0.17151054739952087,0.00014121830463409424,0.1716574728488922,0.13395263254642487,0.0,1.0578473806381226,-1.56,nan,0.0,1.2892698049545288,0,11
1674111236.94252920,74626825,0.17151054739952087,0.0002518296241760254,0.17176316678524017,0.13395263254642487,0.0,1.0693057775497437,-1.31,nan,0.0,1.3018592596054077,0,14
1674111237.04243422,74726730,0.17151054739952087,0.00026151537895202637,0.17177759110927582,0.13395263254642487,0.0,1.0879639387130737,-1.33,nan,0.0,1.321360468864441,0,18
1674111237.14247012,74826766,0.17151054739952087,0.00029377639293670654,0.17179183661937714,0.13395263254642487,0.0,1.1126837730407715,-1.3,nan,0.0,1.3473620414733887,0,20
1674111237.24250603,74926802,0.17151054739952087,0.0003956258296966553,0.17191416025161743,0.13395263254642487,0.0,1.142001986503601,-1.9100000000000001,nan,0.0,1.3779600858688354,0,27
1674111237.34250307,75026799,0.17151054739952087,0.00047147274017333984,0.17195919156074524,0.13395263254642487,0.0,1.1712937355041504,-1.4000000000000001,nan,0.0,1.4083218574523926,0,27
1674111237.44250607,75126802,0.17151054739952087,0.0004588216543197632,0.17195433378219604,0.13395263254642487,0.0,1.20409095287323,-1.4000000000000001,nan,0.0,1.4423989057540894,0,31
1674111237.54247308,75226769,0.17151054739952087,0.0004717409610748291,0.17197398841381073,0.13395263254642487,0.0,1.2416365146636963,-1.27,nan,0.0,1.4810240268707275,0,34
1674111237.64255214,75326848,0.17151054739952087,0.00048723816871643066,0.17198631167411804,0.13395263254642487,0.0,1.2822213172912598,-1.22,nan,0.0,1.52303946018219,0,37
1674111237.74247909,75426775,0.17151054739952087,0.0004932880401611328,0.17199459671974182,0.13395263254642487,0.0,1.3259979486465454,-1.06,nan,0.0,1.5683952569961548,0,40
1674111237.84252501,75526821,0.17151054739952087,0.0004943162202835083,0.17200647294521332,0.13395263254642487,0.0,1.373666524887085,-1.28,nan,0.0,1.6175153255462646,0,44
1674111237.94251418,75626810,0.17151054739952087,0.0005317330360412598,0.17203348875045776,0.13395263254642487,0.0,1.4231040477752686,-1.32,nan,0.0,1.6683299541473389,0,46
1674111238.04251122,75726807,0.17151054739952087,0.0005045831203460693,0.17201587557792664,0.13395263254642487,0.0,1.4740291833877563,-1.09,nan,0.0,1.7208439111709595,0,49
1674111238.14249110,75826787,0.17151054739952087,0.00032688677310943604,0.17183952033519745,0.13395263254642487,0.0,1.5282833576202393,-1.3900000000000001,nan,0.0,1.7760460376739502,0,54
1674111238.24250221,75926798,0.17151054739952087,0.00013342499732971191,0.17165307700634003,0.13395263254642487,0.0,1.5860689878463745,-1.06,nan,0.0,1.835418701171875,0,58
1674111238.34249020,76026786,0.17151054739952087,3.3855438232421875e-05,0.1715438961982727,0.13395263254642487,0.0,1.648336410522461,-0.87,nan,0.0,1.8992843627929688,0,62
1674111238.44250417,76126800,0.17151054739952087,7.152557373046875e-06,0.17151951789855957,0.13395263254642487,0.0,1.7170872688293457,-1.19,nan,0.0,1.969557285308838,0,66
1674111238.54250908,76226805,0.17151054739952087,3.6954879760742188e-06,0.17151424288749695,0.13395263254642487,0.0,1.7885347604751587,-0.76,nan,0.0,2.0425899028778076,0,71
1674111238.64250922,76326805,0.17151054739952087,8.791685104370117e-07,0.171511709690094,0.13395263254642487,0.0,1.8633768558502197,-0.9400000000000001,nan,0.0,2.1189539432525635,0,74
1674111238.74253511,76426831,0.17151054739952087,5.662441253662109e-07,0.17151111364364624,0.13395263254642487,0.0,1.9410587549209595,-0.8300000000000001,nan,0.0,2.198007106781006,0,78
1674111238.84249902,76526795,0.17151054739952087,1.1920928955078125e-07,0.17151087522506714,0.13395263254642487,0.0,2.022148847579956,-0.13,nan,0.0,2.2808940410614014,0,81
1674111238.94252110,76626817,0.17151054739952087,4.470348358154297e-08,0.17151087522506714,0.13395263254642487,0.0,2.1099624633789062,-0.28,nan,0.0,2.3701515197753906,0,84
1674111239.04248118,76726777,0.17151054739952087,7.748603820800781e-07,0.1715111881494522,0.13395263254642487,0.0,2.2031004428863525,-0.61,nan,0.0,2.4650843143463135,0,88
1674111239.14253116,76826827,0.16642558574676514,2.384185791015625e-07,0.17030289769172668,0.13395263254642487,2.2936723232269287,2.2967772483825684,0.13,nan,0.0,2.559983730316162,88,89
1674111239.24260902,76926905,0.15379662811756134,1.4901161193847656e-08,0.16228441894054413,0.13395263254642487,2.3808176517486572,2.393294095993042,0.04,nan,0.0,2.6582190990448,83,89
1674111239.34251118,77026807,0.14092575013637543,7.450580596923828e-08,0.15128649771213531,0.13395263254642487,2.4620518684387207,2.4913394451141357,0.29,nan,0.0,2.7576968669891357,73,88
1674111239.44249105,77126787,0.13210126757621765,6.258487701416016e-07,0.13927344977855682,0.13395263254642487,2.5324621200561523,2.5865395069122314,0.28,nan,0.0,2.8543295860290527,58,80
1674111239.54252315,77226819,0.1364109367132187,5.066394805908203e-07,0.1357227861881256,0.13395263254642487,2.590306043624878,2.6753859519958496,-0.11,nan,0.0,2.9445340633392334,43,71
1674111239.64253712,77326833,0.13886111974716187,1.7583370208740234e-06,0.13728442788124084,0.13395263254642487,2.6376399993896484,2.749504327774048,0.28,nan,0.0,3.0201475620269775,31,58
1674111239.74251318,77426809,0.13975264132022858,1.4007091522216797e-06,0.1389085203409195,0.13395263254642487,2.676375150680542,2.809178590774536,0.35000000000000003,nan,0.0,3.0816779136657715,21,46
1674111239.84253001,77526826,0.14233070611953735,2.4586915969848633e-06,0.14039799571037292,0.13395263254642487,2.708073139190674,2.856780529022217,0.43,nan,0.0,3.1307008266448975,13,34
1674111239.94251919,77626815,0.14536677300930023,1.8775463104248047e-06,0.143196240067482,0.13395263254642487,2.7340126037597656,2.8932082653045654,0.62,nan,0.0,3.168835401535034,7,23
1674111240.04252100,77726817,0.14991551637649536,2.16066837310791e-06,0.14668388664722443,0.13395263254642487,2.7552385330200195,2.9205892086029053,0.35000000000000003,nan,0.0,3.1978490352630615,2,14
1674111240.14249706,77826793,0.1523059904575348,8.493661880493164e-07,0.14975802600383759,0.13395263254642487,2.7726080417633057,2.938793182373047,0.38,nan,0.0,3.2176856994628906,0,7
1674111240.24246001,77926756,0.15484724938869476,1.2516975402832031e-06,0.15243417024612427,0.13395263254642487,2.7868218421936035,2.9483981132507324,0.42,nan,0.0,3.2289233207702637,-3,0
1674111240.34256101,78026857,0.158075749874115,4.470348358154297e-07,0.15572038292884827,0.13395263254642487,2.7984535694122314,2.9511687755584717,0.52,nan,0.0,3.2336108684539795,-4,-5
1674111240.44263506,78126931,0.15902450680732727,7.003545761108398e-07,0.1581106334924698,0.13395263254642487,2.807971715927124,2.949512004852295,0.53,nan,0.0,3.2335124015808105,-5,-8
1674111240.54267907,78226975,0.16131837666034698,8.538365364074707e-06,0.1594560593366623,0.13395263254642487,2.8157601356506348,2.9455807209014893,0.52,nan,0.0,3.231066942214966,-5,-11
1674111240.64261508,78326911,0.16244356334209442,0.0001930445432662964,0.1616004854440689,0.13395263254642487,2.8221349716186523,2.938894510269165,0.59,nan,0.0,3.2258646488189697,-5,-13
1674111240.74276805,78427064,0.1654862016439438,0.0003734081983566284,0.1633983701467514,0.13395263254642487,2.8273518085479736,2.9309499263763428,0.79,nan,0.0,3.2191922664642334,-5,-13
1674111240.84265614,78526952,0.16620032489299774,0.00041656196117401123,0.16521771252155304,0.13395263254642487,2.831620454788208,2.9236559867858887,0.33,nan,0.0,3.2127413749694824,-5,-14
1674111240.94265819,78626954,0.16737547516822815,0.00039270520210266113,0.1670418679714203,0.13395263254642487,2.835113525390625,2.915586233139038,0.66,nan,0.0,3.2059438228607178,-4,-14
1674111241.04266620,78726962,0.16792525351047516,0.00029186904430389404,0.16748538613319397,0.13395263254642487,2.8379714488983154,2.9081993103027344,0.6900000000000001,nan,0.0,3.1994059085845947,-4,-14
1674111241.14256001,78826856,0.16718769073486328,0.00022587180137634277,0.16750109195709229,0.13395263254642487,2.8403117656707764,2.903481960296631,0.79,nan,0.0,3.195748805999756,-4,-12
1674111241.24261022,78926906,0.16662746667861938,0.00022314488887786865,0.16764496266841888,0.13395263254642487,2.842226505279541,2.9022469520568848,0.37,nan,0.0,3.194939136505127,-4,-12
1674111241.34260917,79026905,0.1656416654586792,0.00016720592975616455,0.1664702147245407,0.13395263254642487,2.8437929153442383,2.902479410171509,0.3,nan,0.0,3.195662021636963,-4,-10
1674111241.44264913,79126945,0.16575291752815247,0.00014001131057739258,0.16612672805786133,0.13395263254642487,2.845074415206909,2.9005064964294434,0.46,nan,0.0,3.1941123008728027,-4,-10
1674111241.54259801,79226894,0.16566720604896545,0.00013053417205810547,0.1661500483751297,0.13395263254642487,2.846123695373535,2.8976125717163086,0.65,nan,0.0,3.1918554306030273,-4,-8
1674111241.64260507,79326901,0.16722291707992554,0.00011721253395080566,0.16632498800754547,0.13395263254642487,2.846982002258301,2.896043539047241,0.31,nan,0.0,3.1904983520507812,-4,-8
1674111241.74255919,79426855,0.16857577860355377,0.00011374056339263916,0.1674506962299347,0.13395263254642487,2.847683906555176,2.8942222595214844,0.2,nan,0.0,3.1888904571533203,-4,-6
1674111241.84262109,79526917,0.16838404536247253,0.00011959671974182129,0.1682462990283966,0.13395263254642487,2.8482589721679688,2.890101909637451,0.42,nan,0.0,3.1851935386657715,-3,-7
1674111241.94262910,79626925,0.16724281013011932,0.0001017451286315918,0.1678232103586197,0.13395263254642487,2.848729133605957,2.885751247406006,0.51,nan,0.0,3.1810548305511475,-3,-8
1674111242.04263306,79726929,0.16912928223609924,0.00012987852096557617,0.16872787475585938,0.13395263254642487,2.8491146564483643,2.883570909500122,0.24,nan,0.0,3.1792995929718018,-3,-9
1674111242.14270902,79827005,0.1692330241203308,0.00010609626770019531,0.16937817633152008,0.13395263254642487,2.8494293689727783,2.8819034099578857,0.33,nan,0.0,3.1778438091278076,-2,-7
1674111242.24257708,79926873,0.16876745223999023,9.308755397796631e-05,0.1690523773431778,0.13395263254642487,2.849687099456787,2.8792450428009033,0.53,nan,0.0,3.1753971576690674,-2,-6
1674111242.34274507,80027041,0.16910535097122192,9.140372276306152e-05,0.16897739470005035,0.13395263254642487,2.849898338317871,2.8777318000793457,0.33,nan,0.0,3.174309492111206,-2,-5
1674111242.44265604,80126952,0.16910456120967865,0.00011380016803741455,0.1691926121711731,0.13395263254642487,2.8500707149505615,2.8772175312042236,0.27,nan,0.0,3.173795223236084,-2,-5
1674111242.54257202,80226868,0.16912545263767242,0.00012381374835968018,0.16915898025035858,0.13395263254642487,2.850212335586548,2.8763744831085205,0.34,nan,0.0,3.1733086109161377,-2,-4
1674111242.64261603,80326912,0.16743648052215576,0.00012792646884918213,0.16860368847846985,0.13395263254642487,2.850327968597412,2.875102996826172,0.35000000000000003,nan,0.0,3.1724624633789062,-2,-4
1674111242.74260116,80426897,0.16611652076244354,0.00012843310832977295,0.16689521074295044,0.13395263254642487,2.850421667098999,2.874831438064575,0.61,nan,0.0,3.172257661819458,-2,-2
1674111242.84260011,80526896,0.166462242603302,0.00013306736946105957,0.16650719940662384,0.13395263254642487,2.850499391555786,2.877246379852295,0.51,nan,0.0,3.1748175621032715,-2,-2
1674111242.94259405,80626890,0.16475316882133484,0.00013518333435058594,0.16593775153160095,0.13395263254642487,2.8505630493164062,2.881850242614746,0.38,nan,0.0,3.1794214248657227,-3,-2
1674111243.04260921,80726905,0.16323018074035645,0.00015416741371154785,0.16466458141803741,0.13395263254642487,2.850614309310913,2.8861610889434814,0.28,nan,0.0,3.1841578483581543,-3,-1
1674111243.14261508,80826911,0.16207028925418854,0.00013147294521331787,0.1628679782152176,0.13395263254642487,2.850656270980835,2.8890793323516846,0.36,nan,0.0,3.1870758533477783,-3,0
1674111243.24262905,80926925,0.16373483836650848,0.0001227855682373047,0.16323322057724,0.13395263254642487,2.8506929874420166,2.892739772796631,0.31,nan,0.0,3.1907362937927246,-4,0
1674111243.34257722,81026873,0.1637347787618637,0.00011824071407318115,0.16400015354156494,0.13395263254642487,2.8507189750671387,2.8965840339660645,0.59,nan,0.0,3.1947922706604004,-4,-2
1674111243.44263816,81126934,0.1637558490037918,0.00011904537677764893,0.16393499076366425,0.13395263254642487,2.850743293762207,2.900912046432495,0.77,nan,0.0,3.199120283126831,-4,-2
1674111243.54263902,81226935,0.16080163419246674,0.00012914836406707764,0.16266053915023804,0.13395263254642487,2.8507637977600098,2.9080810546875,0.56,nan,0.0,3.206289291381836,-5,-2
1674111243.64257002,81326866,0.15967747569084167,0.00014215707778930664,0.161066934466362,0.13395263254642487,2.850775957107544,2.916278123855591,0.1,nan,0.0,3.2144863605499268,-6,-2
1674111243.74263906,81426935,0.16391924023628235,0.00013498961925506592,0.1619628369808197,0.13395263254642487,2.850788116455078,2.920938014984131,0.48,nan,0.0,3.219146251678467,-7,-2
1674111243.84271812,81527014,0.16573837399482727,0.00013522803783416748,0.16401463747024536,0.13395263254642487,2.8508005142211914,2.9221742153167725,0.32,nan,0.0,3.2203826904296875,-7,-5
1674111243.94263411,81626930,0.1647305190563202,0.00013560056686401367,0.1647844761610031,0.13395263254642487,2.8508126735687256,2.9215288162231445,0.34,nan,0.0,3.2197372913360596,-7,-5
1674111244.04267311,81726969,0.16519705951213837,0.00014691054821014404,0.16514477133750916,0.13395263254642487,2.8508248329162598,2.918836832046509,0.77,nan,0.0,3.21690034866333,-6,-6
1674111244.14267111,81826967,0.16605091094970703,0.00016069412231445312,0.16545291244983673,0.13395263254642487,2.8508267402648926,2.9174916744232178,0.61,nan,0.0,3.2154080867767334,-6,-6
1674111244.24263000,81926926,0.17011956870555878,0.00019089877605438232,0.16741712391376495,0.13395263254642487,2.8508267402648926,2.9180188179016113,0.73,nan,0.0,3.215578556060791,-6,-8
1674111244.34262204,82026918,0.16902658343315125,0.0001761019229888916,0.16894066333770752,0.13395263254642487,2.8508267402648926,2.919175624847412,0.58,nan,0.0,3.216735601425171,-6,-8
1674111244.44256520,82126861,0.16848592460155487,0.00018993020057678223,0.16865400969982147,0.13395263254642487,2.8508267402648926,2.9205446243286133,0.12,nan,0.0,3.2178852558135986,-6,-8
1674111244.54261112,82226907,0.16875137388706207,0.00019657611846923828,0.1686132401227951,0.13395263254642487,2.8508267402648926,2.9192745685577393,0.36,nan,0.0,3.2164700031280518,-6,-8
1674111244.64259601,82326892,0.16689948737621307,0.00021219253540039062,0.16820378601551056,0.13395263254642487,2.8508267402648926,2.9165008068084717,0.65,nan,0.0,3.213270902633667,-6,-8
1674111244.74260616,82426902,0.16595986485481262,0.00020200014114379883,0.167205810546875,0.13395263254642487,2.8508267402648926,2.9158132076263428,0.59,nan,0.0,3.2121541500091553,-6,-7
1674111244.84257102,82526867,0.16553449630737305,0.00018195807933807373,0.1662885695695877,0.13395263254642487,2.8508267402648926,2.9175987243652344,0.42,nan,0.0,3.213939905166626,-6,-5
1674111244.94259119,82626887,0.16528622806072235,0.00021439790725708008,0.16501384973526,0.13395263254642487,2.8508267402648926,2.9201180934906006,0.52,nan,0.0,3.216459035873413,-6,-6
1674111245.04264116,82726937,0.1668594777584076,0.00020375847816467285,0.16565975546836853,0.13395263254642487,2.8508267402648926,2.92183780670166,0.18,nan,0.0,3.218031883239746,-7,-5
1674111245.14263415,82826930,0.1675264984369278,0.00024110078811645508,0.16653941571712494,0.13395263254642487,2.8508267402648926,2.9210612773895264,0.09,nan,0.0,3.2172553539276123,-7,-6
1674111245.24257708,82926873,0.16657304763793945,0.00026300549507141113,0.16710664331912994,0.13395263254642487,2.8508267402648926,2.9170384407043457,0.37,nan,0.0,3.2134463787078857,-6,-6
1674111245.34259009,83026886,0.16398341953754425,0.00028048455715179443,0.16592705249786377,0.13395263254642487,2.8508267402648926,2.912593126296997,0.6,nan,0.0,3.209000825881958,-6,-6
1674111245.44270611,83127002,0.1642315834760666,0.0002673119306564331,0.16535478830337524,0.13395263254642487,2.8508267402648926,2.9103262424468994,0.41000000000000003,nan,0.0,3.2067339420318604,-5,-4
1674111245.54263520,83226931,0.16601544618606567,0.00021395087242126465,0.1654588133096695,0.13395263254642487,2.8508267402648926,2.909320592880249,0.66,nan,0.0,3.205728530883789,-5,-5
1674111245.64255810,83326854,0.16284751892089844,0.0002113133668899536,0.16504719853401184,0.13395263254642487,2.8508267402648926,2.9102296829223633,0.6,nan,0.0,3.2070610523223877,-5,-5
1674111245.74260902,83426905,0.16206571459770203,0.00022046267986297607,0.16350336372852325,0.13395263254642487,2.8508267402648926,2.914060592651367,0.35000000000000003,nan,0.0,3.2108917236328125,-6,-2
1674111245.84260917,83526905,0.16114675998687744,0.00025159120559692383,0.161298468708992,0.13395263254642487,2.8508267402648926,2.917656421661377,0.2,nan,0.0,3.2144877910614014,-6,-2
1674111245.94258022,83626876,0.16553199291229248,0.00024965405464172363,0.16313312947750092,0.13395263254642487,2.8508267402648926,2.9174652099609375,0.62,nan,0.0,3.214296340942383,-6,-3
1674111246.04259419,83726890,0.1669343113899231,0.000265270471572876,0.1651260107755661,0.13395263254642487,2.8508267402648926,2.915739059448242,0.3,nan,0.0,3.2125701904296875,-6,-7
1674111246.14260507,83826901,0.1687723845243454,0.0002629607915878296,0.16715335845947266,0.13395263254642487,2.8508267402648926,2.9128499031066895,0.23,nan,0.0,3.2096810340881348,-6,-7
1674111246.24261117,83926907,0.17038722336292267,0.0002788454294204712,0.16875465214252472,0.13395263254642487,2.8508267402648926,2.907480478286743,0.33,nan,0.0,3.2043116092681885,-5,-7
1674111246.34267402,84026970,0.1702050268650055,0.0003111511468887329,0.17010396718978882,0.13395263254642487,2.8508267402648926,2.900696277618408,0.5,nan,0.0,3.1975274085998535,-4,-9
1674111246.44259810,84126894,0.17244121432304382,0.00033436715602874756,0.17121486365795135,0.13395263254642487,2.8508267402648926,2.8933327198028564,0.25,nan,0.0,3.1903109550476074,-4,-7
1674111246.54259014,84226886,0.17466053366661072,0.0003169327974319458,0.17371805012226105,0.13395263254642487,2.8508267402648926,2.8848867416381836,0.58,nan,0.0,3.1818647384643555,-3,-10
1674111246.64263415,84326930,0.1715242564678192,0.00028824806213378906,0.17323903739452362,0.13395263254642487,2.8508267402648926,2.87823224067688,0.59,nan,0.0,3.175210475921631,-2,-8
1674111246.74265409,84426950,0.17033296823501587,0.00028783082962036133,0.17208139598369598,0.13395263254642487,2.8508267402648926,2.87555193901062,0.81,nan,0.0,3.172959089279175,-2,-7
1674111246.84267712,84526973,0.1695627123117447,0.0002756863832473755,0.17178110778331757,0.13395263254642487,2.8508267402648926,2.876579523086548,0.6,nan,0.0,3.1739866733551025,-2,-6
1674111246.94261312,84626909,0.16816116869449615,0.0002868473529815674,0.17011091113090515,0.13395263254642487,2.8508267402648926,2.8808109760284424,0.26,nan,0.0,3.17836332321167,-2,-3
1674111247.04264617,84726942,0.16858258843421936,0.0003019273281097412,0.1689721941947937,0.13395263254642487,2.8508267402648926,2.8856146335601807,0.21,nan,0.0,3.183380365371704,-3,-2
1674111247.14265704,84826953,0.17034438252449036,0.0003554224967956543,0.16936218738555908,0.13395263254642487,2.8508267402648926,2.8884499073028564,0.33,nan,0.0,3.186215877532959,-3,-4
1674111247.24264908,84926945,0.17048700153827667,0.0003219693899154663,0.17041851580142975,0.13395263254642487,2.8508267402648926,2.889086961746216,0.42,nan,0.0,3.18707013130188,-3,-3
1674111247.34270716,85027003,0.16916732490062714,0.00031691789627075195,0.17066214978694916,0.13395263254642487,2.8508267402648926,2.889190196990967,0.38,nan,0.0,3.18717360496521,-3,-3
1674111247.44261217,85126908,0.1700967401266098,0.00032563507556915283,0.16993345320224762,0.13395263254642487,2.8508267402648926,2.889190912246704,0.67,nan,0.0,3.187744379043579,-3,-3
1674111247.54259610,85226892,0.1696755290031433,0.0003465116024017334,0.1700735241174698,0.13395263254642487,2.8508267402648926,2.8904592990875244,0.61,nan,0.0,3.1890127658843994,-3,-3
1674111247.64260507,85326901,0.16760873794555664,0.0003612935543060303,0.16895365715026855,0.13395263254642487,2.8508267402648926,2.894355297088623,0.93,nan,0.0,3.193267583847046,-4,-1
1674111247.74263906,85426935,0.1650552898645401,0.00033587217330932617,0.16673871874809265,0.13395263254642487,2.8508267402648926,2.902250289916992,0.81,nan,0.0,3.201730728149414,-5,-1
1674111247.84259915,85526895,0.16179342567920685,0.00035680830478668213,0.16381242871284485,0.13395263254642487,2.8508267402648926,2.913851261138916,0.8300000000000001,nan,0.0,3.213331699371338,-6,-1
1674111247.94259810,85626894,0.16467803716659546,0.0003350675106048584,0.16435514390468597,0.13395263254642487,2.8508267402648926,2.9262077808380127,0.5,nan,0.0,3.225907802581787,-7,0
1674111248.04262400,85726920,0.16445770859718323,0.000362396240234375,0.1643398255109787,0.13395263254642487,2.8508267402648926,2.9372079372406006,0.72,nan,0.0,3.237264394760132,-8,-3
1674111248.14261007,85826906,0.16254153847694397,0.00034092366695404053,0.16369317471981049,0.13395263254642487,2.8508267402648926,2.9465205669403076,0.41000000000000003,nan,0.0,3.246577262878418,-9,-3
1674111248.24263716,85926933,0.16611164808273315,0.0003290921449661255,0.16446751356124878,0.13395263254642487,2.8508267402648926,2.952759265899658,0.46,nan,0.0,3.2528157234191895,-10,-3
1674111248.34260702,86026903,0.16141918301582336,0.00032998621463775635,0.16357584297657013,0.13395263254642487,2.8508267402648926,2.9554011821746826,0.52,nan,0.0,3.2556750774383545,-10,-7
1674111248.44258714,86126883,0.1586049646139145,0.00030122697353363037,0.16087837517261505,0.13395263254642487,2.8508267402648926,2.9572393894195557,0.5700000000000001,nan,0.0,3.2579386234283447,-10,-3
1674111248.54272699,86227023,0.1566513180732727,0.00030000507831573486,0.1570460945367813,0.13395263254642487,2.8508267402648926,2.960341453552246,0.72,nan,0.0,3.261185646057129,-10,-2
1674111248.64267612,86326972,0.16704602539539337,0.0003577917814254761,0.16220590472221375,0.13395263254642487,2.8508267402648926,2.9626948833465576,0.24,nan,0.0,3.263115644454956,-11,-5
1674111248.74263716,86426933,0.16554751992225647,0.000407293438911438,0.1655765175819397,0.13395263254642487,2.8508267402648926,2.96075701713562,0.19,nan,0.0,3.2611780166625977,-10,-9
1674111248.84262300,86526919,0.16751933097839355,0.0003594905138015747,0.16646547615528107,0.13395263254642487,2.8508267402648926,2.953580141067505,1.46,nan,0.0,3.2540011405944824,-10,-11
1674111248.94259310,86626889,0.1666284203529358,0.0002965778112411499,0.16768209636211395,0.13395263254642487,2.8508267402648926,2.9492127895355225,0.05,nan,0.0,3.2496337890625,-9,-11
1674111249.04260111,86726897,0.1649540811777115,0.0002893209457397461,0.16596567630767822,0.13395263254642487,2.8508267402648926,2.947098970413208,0.74,nan,0.0,3.2475197315216064,-9,-9
1674111249.14261317,86826909,0.1700979471206665,0.00026832520961761475,0.16737288236618042,0.13395263254642487,2.8508267402648926,2.94377064704895,0.55,nan,0.0,3.2439780235290527,-9,-10
1674111249.24261999,86926916,0.16563156247138977,0.0002937018871307373,0.16773900389671326,0.13395263254642487,2.8508267402648926,2.940629482269287,0.63,nan,0.0,3.2408366203308105,-8,-10
1674111249.34260821,87026904,0.1695060282945633,0.00031578540802001953,0.16828198730945587,0.13395263254642487,2.8508267402648926,2.938114881515503,0.14,nan,0.0,3.237898588180542,-8,-12
1674111249.44266105,87126957,0.16415415704250336,0.00033667683601379395,0.16699673235416412,0.13395263254642487,2.8508267402648926,2.9336488246917725,0.4,nan,0.0,3.2332210540771484,-8,-8
1674111249.54261613,87226912,0.16848576068878174,0.00029212236404418945,0.16734014451503754,0.1341802477836609,2.8508267402648926,2.9277546405792236,0.23,nan,0.0,3.2267565727233887,-7,-8
1674111249.64258909,87326885,0.16607969999313354,0.0003419816493988037,0.16708062589168549,0.13451150059700012,2.8508267402648926,2.9211604595184326,0.2,nan,0.0,3.2201621532440186,-7,-9
1674111249.74266601,87426962,0.17010904848575592,0.0003648698329925537,0.16906410455703735,0.1348431557416916,2.8508267402648926,2.9131669998168945,0.12,nan,0.0,3.211737632751465,-6,-8
1674111249.84259915,87526895,0.17109373211860657,0.0004207342863082886,0.1696605086326599,0.1351848989725113,2.8508267402648926,2.9045708179473877,0.38,nan,0.0,3.202785015106201,-5,-8
1674111249.94256902,87626865,0.16770069301128387,0.00041772425174713135,0.16999351978302002,0.13553299009799957,2.8508267402648926,2.8968091011047363,0.29,nan,0.0,3.194380283355713,-4,-7
1674111250.04258108,87726877,0.17168445885181427,0.00040315091609954834,0.17039796710014343,0.13587349653244019,2.8508267402648926,2.8905272483825684,0.62,nan,0.0,3.187886953353882,-3,-6
1674111250.14272213,87827018,0.17089182138442993,0.00044906139373779297,0.17120200395584106,0.1362229585647583,2.8508267402648926,2.8864855766296387,0.7000000000000001,nan,0.0,3.183274745941162,-3,-7
1674111250.24263716,87926933,0.16880300641059875,0.00040709972381591797,0.17038238048553467,0.1365678757429123,2.8508267402648926,2.886542558670044,-0.1,nan,0.0,3.1831870079040527,-3,-6
1674111250.34258604,88026882,0.16902339458465576,0.00038452446460723877,0.1696617305278778,0.13689970970153809,2.8508267402648926,2.8860390186309814,0.46,nan,0.0,3.182471752166748,-3,-3
1674111250.44267321,88126969,0.16968554258346558,0.00038404762744903564,0.1693749576807022,0.13722363114356995,2.8508267402648926,2.8848607540130615,0.53,nan,0.0,3.180722951889038,-3,-2
1674111250.54256606,88226862,0.1676245927810669,0.0003390461206436157,0.16934069991111755,0.13754607737064362,2.8508267402648926,2.885941982269287,0.45,nan,0.0,3.1815924644470215,-3,-2
1674111250.64258003,88326876,0.16641345620155334,0.0003144294023513794,0.16710112988948822,0.13784968852996826,2.8508267402648926,2.88956356048584,0.1,nan,0.0,3.185000419616699,-3,-1
1674111250.74260211,88426898,0.16722597181797028,0.0003061741590499878,0.16742929816246033,0.1381414383649826,2.8508267402648926,2.892228364944458,0.43,nan,0.0,3.1876652240753174,-4,0
1674111250.84258914,88526885,0.1681705117225647,0.00029312074184417725,0.16756826639175415,0.13843317329883575,2.8508267402648926,2.8945329189300537,0.16,nan,0.0,3.189546585083008,-4,0
1674111250.94260001,88626896,0.16908752918243408,0.0003140568733215332,0.1689722090959549,0.13873028755187988,2.8508267402648926,2.8960206508636475,0.64,nan,0.0,3.1910343170166016,-4,-1
1674111251.04258299,88726879,0.1705264151096344,0.0003117173910140991,0.1704462766647339,0.13879075646400452,2.851057291030884,2.8983421325683594,0.11,nan,0.0,3.193500518798828,-4,-3
1674111251.14260221,88826898,0.1696949303150177,0.0002708733081817627,0.17056219279766083,0.13879075646400452,2.8520443439483643,2.9007370471954346,0.24,nan,0.0,3.1956818103790283,-3,-3
1674111251.24263310,88926929,0.1699414849281311,0.0002479851245880127,0.17023520171642303,0.13879075646400452,2.8537251949310303,2.9010918140411377,0.24,nan,0.0,3.1960368156433105,-2,0
1674111251.34266019,89026956,0.16956910490989685,0.000210687518119812,0.1698082983493805,0.13879075646400452,2.8559727668762207,2.90078067779541,0.17,nan,0.0,3.195725440979004,-1,-2
1674111251.44256616,89126862,0.1713251769542694,0.0002047419548034668,0.1706606149673462,0.13879075646400452,2.8586654663085938,2.8996572494506836,0.48,nan,0.0,3.194960594177246,-1,-1
1674111251.54265404,89226950,0.1696973443031311,0.00018548965454101562,0.17050138115882874,0.13879075646400452,2.861739158630371,2.8991994857788086,0.06,nan,0.0,3.194502830505371,0,0
1674111251.64272904,89327025,0.169178307056427,0.00019091367721557617,0.17024923861026764,0.13879075646400452,2.8650970458984375,2.899517059326172,0.07,nan,0.0,3.19496750831604,0,0
1674111251.74265313,89426949,0.16905058920383453,0.00017771124839782715,0.1691780537366867,0.13879075646400452,2.8686132431030273,2.8991527557373047,0.3,nan,0.0,3.1946029663085938,0,1
1674111251.84264207,89526938,0.1710492968559265,0.00017589330673217773,0.16921666264533997,0.13879075646400452,2.8722548484802246,2.8993980884552,0.46,nan,0.0,3.195065975189209,0,1
1674111251.94264007,89626936,0.16940388083457947,0.0001808255910873413,0.17003367841243744,0.13879075646400452,2.8759994506835938,2.901339054107666,0.7000000000000001,nan,0.0,3.1970067024230957,1,0
1674111252.04261708,89726913,0.17158880829811096,0.00017133355140686035,0.17044971883296967,0.13879075646400452,2.8798277378082275,2.905762195587158,0.11,nan,0.0,3.201430082321167,1,2
1674111252.14262414,89826920,0.16754618287086487,0.0001948028802871704,0.16955679655075073,0.13879075646400452,2.8837249279022217,2.9100539684295654,0.26,nan,0.0,3.2058684825897217,1,1
1674111252.24263906,89926935,0.1676037311553955,0.00018402934074401855,0.1682383120059967,0.13879075646400452,2.887678384780884,2.914262294769287,0.24,nan,0.0,3.2100770473480225,1,3
1674111252.34258604,90026882,0.16658443212509155,0.00017668306827545166,0.16750730574131012,0.13879075646400452,2.8916778564453125,2.918966054916382,0.23,nan,0.0,3.214780569076538,1,1
1674111252.44261312,90126909,0.1685699224472046,0.00018240511417388916,0.1677432507276535,0.13879075646400452,2.8957149982452393,2.922942638397217,-0.15,nan,0.0,3.2189748287200928,1,2
1674111252.54258919,90226885,0.16936253011226654,0.0002135634422302246,0.16866739094257355,0.13879075646400452,2.899782657623291,2.9238979816436768,-0.09,nan,0.0,3.220355272293091,1,3
1674111252.64264107,90326937,0.17184531688690186,0.00023379921913146973,0.17081403732299805,0.13879075646400452,2.9038760662078857,2.9210803508758545,0.09,nan,0.0,3.2176826000213623,2,1
1674111252.74258304,90426879,0.16941183805465698,0.00023247301578521729,0.17080004513263702,0.13879075646400452,2.907989740371704,2.9172661304473877,0.25,nan,0.0,3.2140822410583496,3,2
1674111252.84262609,90526922,0.1684723049402237,0.00021252036094665527,0.16951517760753632,0.13879075646400452,2.912120819091797,2.9144718647003174,-0.03,nan,0.0,3.2116446495056152,3,4
1674111252.94264221,90626938,0.1678088754415512,0.00017930567264556885,0.1687840074300766,0.13879075646400452,2.9162654876708984,2.9121103286743164,-0.27,nan,0.0,3.209282875061035,4,3
1674111253.04254913,90726845,0.16864731907844543,0.00017608702182769775,0.16843730211257935,0.13879075646400452,2.920477867126465,2.9091551303863525,0.38,nan,0.0,3.2068982124328613,5,2
1674111253.14270020,90826996,0.17042168974876404,0.00020416080951690674,0.17027823626995087,0.13879075646400452,2.924798011779785,2.907679796218872,-0.28,nan,0.0,3.2054226398468018,6,5
1674111253.24271202,90927008,0.17077530920505524,0.00019928812980651855,0.17040452361106873,0.13879075646400452,2.9292547702789307,2.9059178829193115,0.26,nan,0.0,3.2036609649658203,6,3
1674111253.34268713,91026983,0.1735338270664215,0.0001976490020751953,0.17199276387691498,0.13879075646400452,2.934023380279541,2.9039344787597656,0.26,nan,0.0,3.2016775608062744,7,5
1674111253.44257617,91126872,0.17229805886745453,0.0001936107873916626,0.17285001277923584,0.13879075646400452,2.9392988681793213,2.9039955139160156,0.35000000000000003,nan,0.0,3.2017385959625244,9,6
1674111253.54261208,91226908,0.17383810877799988,0.00023806095123291016,0.17347493767738342,0.13879075646400452,2.945270538330078,2.9070096015930176,0.8300000000000001,nan,0.0,3.2049641609191895,10,6
1674111253.64264321,91326939,0.17142024636268616,0.0002539902925491333,0.1725936084985733,0.13879075646400452,2.9524247646331787,2.9159200191497803,0.52,nan,0.0,3.213874578475952,11,9
1674111253.74262309,91426919,0.17067676782608032,0.00028640031814575195,0.17164207994937897,0.13879075646400452,2.9609739780426025,2.930506467819214,0.17,nan,0.0,3.228461265563965,12,10
1674111253.84256911,91526865,0.16816407442092896,0.00029443204402923584,0.17048710584640503,0.13879075646400452,2.970700263977051,2.946516275405884,0.08,nan,0.0,3.24489426612854,12,12
1674111253.94262004,91626916,0.16739504039287567,0.00031438469886779785,0.1681959331035614,0.13879075646400452,2.981389045715332,2.962376594543457,0.54,nan,0.0,3.2606098651885986,13,15
1674111254.04264402,91726940,0.16784793138504028,0.0003062635660171509,0.16788138449192047,0.13879075646400452,2.99281907081604,2.979863405227661,-0.06,nan,0.0,3.2780966758728027,12,16
1674111254.14255905,91826855,0.16098739206790924,0.0003058910369873047,0.16408564150333405,0.13879075646400452,3.0041279792785645,2.997159004211426,0.55,nan,0.0,3.2956039905548096,11,17
1674111254.24259806,91926894,0.1605965793132782,0.00030985474586486816,0.16209352016448975,0.13879075646400452,3.014124631881714,3.0136940479278564,0.64,nan,0.0,3.3119938373565674,9,16
1674111254.34262705,92026923,0.1594354510307312,0.0003044009208679199,0.16054576635360718,0.13879075646400452,3.0224461555480957,3.0316002368927,0.3,nan,0.0,3.329900026321411,6,14
1674111254.44261122,92126907,0.15886488556861877,0.00032119452953338623,0.15986457467079163,0.13879075646400452,3.0292556285858154,3.04894757270813,0.21,nan,0.0,3.34724760055542,4,11
1674111254.54264402,92226940,0.16478116810321808,0.0003587454557418823,0.16235880553722382,0.13879075646400452,3.0348284244537354,3.061998128890991,0.74,nan,0.0,3.3601512908935547,2,8
1674111254.64257312,92326869,0.16046158969402313,0.00031013786792755127,0.1628238558769226,0.13879075646400452,3.0393879413604736,3.0726475715637207,0.9400000000000001,nan,0.0,3.370800495147705,0,7
1674111254.74271321,92427009,0.1609678864479065,0.00033795833587646484,0.16181358695030212,0.13879075646400452,3.043119430541992,3.085606813430786,0.28,nan,0.0,3.383542537689209,0,5
1674111254.84268403,92526980,0.16168183088302612,0.0003366619348526001,0.16135838627815247,0.13879075646400452,3.046173334121704,3.097271680831909,0.7000000000000001,nan,0.0,3.3949954509735107,-2,4
1674111254.94267917,92626975,0.16302110254764557,0.00030866265296936035,0.1627088040113449,0.13879075646400452,3.0486721992492676,3.1059999465942383,0.6,nan,0.0,3.403723955154419,-3,2
1674111255.04259205,92726888,0.16272269189357758,0.0003415048122406006,0.16324859857559204,0.13879075646400452,3.0507171154022217,3.1137709617614746,0.21,nan,0.0,3.4113481044769287,-4,0
1674111255.14262009,92826916,0.16240060329437256,0.0003263205289840698,0.16231872141361237,0.13879075646400452,3.0523903369903564,3.1185576915740967,0.58,nan,0.0,3.4161345958709717,-5,-1
1674111255.24259901,92926895,0.16510571539402008,0.00033468008041381836,0.1640249788761139,0.13879075646400452,3.053759813308716,3.1198887825012207,0.49,nan,0.0,3.4174656867980957,-5,-2
1674111255.34259820,93026894,0.16305692493915558,0.00030097365379333496,0.1643587350845337,0.13879075646400452,3.0548813343048096,3.1196858882904053,0.31,nan,0.0,3.4170453548431396,-5,-4
1674111255.44260907,93126905,0.1629686951637268,0.0003252178430557251,0.1639491468667984,0.13879075646400452,3.055798053741455,3.117013454437256,0.92,nan,0.0,3.413947582244873,-5,-5
1674111255.54261303,93226909,0.16356965899467468,0.00031648576259613037,0.16362309455871582,0.13879075646400452,3.0565483570098877,3.115349292755127,0.9400000000000001,nan,0.0,3.4121384620666504,-5,-4
1674111255.64257121,93326867,0.16526451706886292,0.00034809112548828125,0.16509972512722015,0.13879075646400452,3.0571625232696533,3.1159117221832275,0.07,nan,0.0,3.412489414215088,-5,-4
1674111255.74262118,93426917,0.16588841378688812,0.0003656446933746338,0.16524790227413177,0.13879075646400452,3.057664632797241,3.113853693008423,0.36,nan,0.0,3.410005807876587,-5,-6
1674111255.84261417,93526910,0.16933894157409668,0.00035806000232696533,0.16661974787712097,0.13879075646400452,3.0580761432647705,3.108546018600464,0.29,nan,0.0,3.404553174972534,-4,-5
1674111255.94262600,93626922,0.16979743540287018,0.00035355985164642334,0.1689777374267578,0.13879075646400452,3.0584123134613037,3.1011831760406494,0.65,nan,0.0,3.3969786167144775,-3,-9
1674111256.04265404,93726950,0.17117737233638763,0.0003163069486618042,0.17102335393428802,0.13879075646400452,3.058687686920166,3.093258857727051,0.6,nan,0.0,3.3888425827026367,-3,-9
1674111256.14256501,93826861,0.17003461718559265,0.00030632317066192627,0.1709839552640915,0.13879075646400452,3.058912992477417,3.0867760181427,0.53,nan,0.0,3.382504940032959,-2,-6
1674111256.24255204,93926848,0.17009881138801575,0.0003264397382736206,0.17033880949020386,0.13879075646400452,3.0590975284576416,3.081641435623169,0.34,nan,0.0,3.376800060272217,-2,-5
1674111256.34259415,94026890,0.17050662636756897,0.0002799034118652344,0.17062236368656158,0.13879075646400452,3.0592479705810547,3.0762505531311035,0.28,nan,0.0,3.3714089393615723,-1,-5
