timestamp,TimeUS,ThI,ABst,ThO,ThH,DAlt,Alt,BAlt,DSAlt,SAlt,TAlt,DCRt,CRt
1674111794.14432502,77320359,0.0,0.0,0.0,0.17297272384166718,0.0,-0.8623192310333252,-3.0100000000000002,nan,0.0,0.007680749520659447,0,0
1674111794.24240398,77418438,0.0,0.0,0.0,0.17297272384166718,0.0,-0.8457372188568115,-3.0700000000000003,nan,0.0,0.024474477395415306,0,15
1674111794.34241009,77518444,0.0,0.0,0.0,0.17297272384166718,0.0,-0.8316671848297119,-3.24,nan,0.0,0.038544513285160065,0,15
1674111794.44235992,77618394,0.0,0.0,0.0,0.17297272384166718,0.0,-0.8196752071380615,-3.21,nan,0.0,0.050536490976810455,0,15
1674111794.54241014,77718444,0.0,0.0,0.0,0.17297272384166718,0.0,-0.8104441165924072,-3.16,nan,0.0,0.05976758152246475,0,14
1674111794.64244199,77818476,0.0,0.0,0.0,0.17297272384166718,0.0,-0.8022513389587402,-3.0500000000000003,nan,0.0,0.06781253963708878,0,14
1674111794.74233294,77918367,0.0,0.0,0.0,0.17297272384166718,0.0,-0.7954511642456055,-3.1,nan,0.0,0.07461271435022354,0,14
1674111794.84237313,78018407,0.0,0.0,0.0,0.17297272384166718,0.0,-0.7898582816123962,-3.1,nan,0.0,0.080205537378788,0,13
1674111794.94244504,78118479,0.0,0.0,0.0,0.17297272384166718,0.0,-0.7863099575042725,-3.08,nan,0.0,0.08353171497583389,0,13
1674111795.04241204,78218446,0.0,0.0,0.0,0.17297272384166718,0.0,-0.7823374271392822,-3.04,nan,0.0,0.08750424534082413,0,13
1674111795.14234614,78318380,0.0,0.0,0.0,0.17297272384166718,0.0,-0.7789945602416992,-3.0100000000000002,nan,0.0,0.09069929271936417,0,12
1674111795.24234509,78418379,0.0,0.0,0.0,0.17297272384166718,0.0,-0.7754931449890137,-2.96,nan,0.0,0.09420070797204971,0,12
1674111795.34238601,78518420,0.0,0.0,0.0,0.17297272384166718,0.0,-0.7729732990264893,-3.11,nan,0.0,0.09672055393457413,0,12
1674111795.44237804,78618412,0.0,0.0,0.0,0.17297272384166718,0.0,-0.7697746753692627,-2.88,nan,0.0,0.09969697147607803,0,11
1674111795.54241109,78718445,0.0,0.0,0.0,0.17297272384166718,0.0,-0.766660213470459,-3.0700000000000003,nan,0.0,0.10281143337488174,0,11
1674111795.64240694,78818441,0.0,0.0,0.0,0.17297272384166718,0.0,-0.7628504633903503,-3.0500000000000003,nan,0.0,0.10662112385034561,0,11
1674111795.74241400,78918448,0.0,0.0,0.0,0.17297272384166718,0.0,-0.7596263885498047,-3.0700000000000003,nan,0.0,0.10969743877649307,0,10
1674111795.84240603,79018440,0.0,0.0,0.0,0.17297272384166718,0.0,-0.7555398344993591,-3.12,nan,0.0,0.11378393322229385,0,10
1674111795.94237399,79118408,0.0,0.0,0.0,0.17297272384166718,0.0,-0.7514472007751465,-2.84,nan,0.0,0.11787662655115128,0,10
1674111796.04243302,79218467,0.0,0.0,0.0,0.17297272384166718,0.0,-0.7474596500396729,-3.02,nan,0.0,0.12186417728662491,0,9
1674111796.14239502,79318429,0.0,0.0,0.0,0.17297272384166718,0.0,-0.7446770071983337,-2.87,nan,0.0,0.12449893355369568,0,9
1674111796.24236608,79418400,0.0,0.0,0.0,0.17297272384166718,0.0,-0.7425990104675293,-2.96,nan,0.0,0.1265769898891449,0,9
1674111796.34229493,79518329,0.0,0.0,0.0,0.17297272384166718,0.0,-0.7426369190216064,-2.87,nan,0.0,0.12653908133506775,0,8
1674111796.44250107,79618535,0.0,0.0,0.0,0.17297272384166718,0.0,-0.740811288356781,-3.11,nan,0.0,0.1283646523952484,0,8
1674111796.54242611,79718460,0.0,0.0,0.0,0.17297272384166718,0.0,-0.7386521697044373,-3.0300000000000002,nan,0.0,0.13052377104759216,0,8
1674111796.64245105,79818485,0.0,0.0,0.0,0.17297272384166718,0.0,-0.7364823818206787,-2.98,nan,0.0,0.13269361853599548,0,7
1674111796.74233294,79918367,0.0,0.0,0.0,0.17297272384166718,0.0,-0.7345941066741943,-3.2,nan,0.0,0.1344340741634369,0,7
1674111796.84242892,80018463,0.0,0.0,0.0,0.17297272384166718,0.0,-0.7350881099700928,-3.04,nan,0.0,0.13394007086753845,0,7
1674111796.94239712,80118431,0.0,0.0,0.0,0.17297272384166718,0.0,-0.7388303279876709,-3.0500000000000003,nan,0.0,0.13019785284996033,0,6
1674111797.04240298,80218437,0.0,0.0,0.0,0.17297272384166718,0.0,-0.7408985495567322,-2.95,nan,0.0,0.12812957167625427,0,6
1674111797.14239001,80318424,0.0,0.0,0.0,0.17297272384166718,0.0,-0.7420485019683838,-2.68,nan,0.0,0.12697967886924744,0,5
1674111797.24239302,80418427,0.0,0.0,0.0,0.17297272384166718,0.0,-0.7409119009971619,-2.86,nan,0.0,0.12811622023582458,0,5
1674111797.34242606,80518460,0.0,0.0,0.0,0.17297272384166718,0.0,-0.7388138175010681,-2.82,nan,0.0,0.13021430373191833,0,4
1674111797.44240403,80618438,0.0,0.0,0.0,0.17297272384166718,0.0,-0.7364854216575623,-2.98,nan,0.0,0.13269051909446716,0,5
1674111797.54240608,80718440,0.0,0.0,0.0,0.17297272384166718,0.0,-0.7353829741477966,-2.84,nan,0.0,0.1337929666042328,0,5
1674111797.64242411,80818458,0.0,0.0,0.0,0.17297272384166718,0.0,-0.734989583492279,-2.9,nan,0.0,0.13418635725975037,0,4
1674111797.74239206,80918426,0.0,0.0,0.0,0.17297272384166718,0.0,-0.7362079620361328,-2.92,nan,0.0,0.13296803832054138,0,4
1674111797.84236813,81018402,0.0,0.0,0.0,0.17297272384166718,0.0,-0.7362134456634521,-2.84,nan,0.0,0.13296255469322205,0,4
1674111797.94240093,81118435,0.0,0.0,0.0,0.17297272384166718,0.0,-0.7355740070343018,-2.79,nan,0.0,0.13360199332237244,0,3
1674111798.04239798,81218432,0.0,0.0,0.0,0.17297272384166718,0.0,-0.7336835861206055,-2.96,nan,0.0,0.13549241423606873,0,3
1674111798.14241195,81318446,0.0,0.0,0.0,0.17297272384166718,0.0,-0.7317066192626953,-3.02,nan,0.0,0.13746938109397888,0,3
1674111798.24241996,81418454,0.0,0.0,0.0,0.17297272384166718,0.0,-0.7311763763427734,-2.96,nan,0.0,0.13799962401390076,0,3
1674111798.34235001,81518384,0.0,0.0,0.0,0.17297272384166718,0.0,-0.7324514389038086,-2.89,nan,0.0,0.1367245614528656,0,2
1674111798.44244003,81618474,0.0,0.0,0.0,0.17297272384166718,0.0,-0.7323548793792725,-3.02,nan,0.0,0.13682112097740173,0,2
1674111798.54241014,81718444,0.0,0.0,0.0,0.17297272384166718,0.0,-0.7318148612976074,-2.93,nan,0.0,0.13736113905906677,0,2
1674111798.64238691,81818421,0.0,0.0,0.0,0.17297272384166718,0.0,-0.730241060256958,-2.66,nan,0.0,0.1389349400997162,0,2
1674111798.74238300,81918417,0.0,0.0,0.0,0.17297272384166718,0.0,-0.7267775535583496,-2.75,nan,0.0,0.14239844679832458,0,2
1674111798.84239697,82018431,0.0,0.0,0.0,0.17297272384166718,0.0,-0.7226848602294922,-2.62,nan,0.0,0.146491140127182,0,2
1674111798.94242406,82118458,0.0,0.0,0.0,0.17297272384166718,0.0,-0.7182316184043884,-2.68,nan,0.0,0.150944322347641,0,1
1674111799.04239607,82218430,0.0,0.0,0.0,0.17297272384166718,0.0,-0.7123715877532959,-2.59,nan,0.0,0.1568044126033783,0,1
1674111799.14245510,82318489,0.0,0.0,0.0,0.17297272384166718,0.0,-0.7052299976348877,-2.56,nan,0.0,0.1639460027217865,0,1
1674111799.24239707,82418431,0.0005286867381073534,1.8203863874077797e-06,0.0005305091617628932,0.17297272384166718,0.0,-0.6968924403190613,-2.7,nan,0.0,0.17228350043296814,0,2
1674111799.34237099,82518405,0.005484672728925943,1.8763355910778046e-05,0.005503593012690544,0.17297272384166718,0.0,-0.6880474090576172,-2.75,nan,0.0,0.181128591299057,0,2
1674111799.44239497,82618429,0.01337917149066925,4.583131521940231e-05,0.01342483889311552,0.17297272384166718,0.0,-0.6806559562683105,-2.5500000000000003,nan,0.0,0.18852004408836365,0,1
1674111799.54241610,82718450,0.01598425768315792,5.4605305194854736e-05,0.01603853516280651,0.17297272384166718,0.0,-0.6741661429405212,-2.65,nan,0.0,0.19543418288230896,0,1
1674111799.64247394,82818508,0.023663422092795372,8.0132856965065e-05,0.023744234815239906,0.17297272384166718,0.0,-0.6688734889030457,-2.43,nan,0.0,0.20072683691978455,0,3
1674111799.74238706,82918421,0.03170428052544594,0.00010644271969795227,0.03181200101971626,0.17297272384166718,0.0,-0.6646213531494141,-2.5,nan,0.0,0.2049790322780609,0,3
1674111799.84242797,83018462,0.03665681183338165,0.00012229010462760925,0.03473809361457825,0.17297272384166718,0.0,-0.6585495471954346,-2.61,nan,0.0,0.2110508382320404,0,1
1674111799.94240808,83118442,0.045008592307567596,0.00015012919902801514,0.04515647888183594,0.17297272384166718,0.0,-0.6514465808868408,-2.74,nan,0.0,0.21815380454063416,0,1
1674111800.04245901,83218493,0.045008592307567596,0.00014677271246910095,0.045155204832553864,0.17297272384166718,0.0,-0.6452693939208984,-2.7800000000000002,nan,0.0,0.22433099150657654,0,1
1674111800.14239693,83318431,0.045008592307567596,0.0001455359160900116,0.04515417292714119,0.17297272384166718,0.0,-0.6402649283409119,-2.71,nan,0.0,0.22933539748191833,0,2
1674111800.24240303,83418437,0.045008592307567596,0.00014431029558181763,0.0451526865363121,0.17297272384166718,0.0,-0.6357593536376953,-2.95,nan,0.0,0.23405274748802185,0,2
1674111800.34239197,83518426,0.05704188346862793,0.00017790496349334717,0.057216744869947433,0.17297272384166718,0.0,-0.6329402923583984,-3.06,nan,0.0,0.23687180876731873,0,1
1674111800.44239211,83618426,0.0599212720990181,0.00017345696687698364,0.060096658766269684,0.17297272384166718,0.0,-0.6322863101959229,-3.0500000000000003,nan,0.0,0.2375257909297943,0,1
1674111800.54238391,83718418,0.06405282765626907,0.00016421079635620117,0.06421980261802673,0.17297272384166718,0.0,-0.633702278137207,-2.52,nan,0.0,0.23596200346946716,0,2
1674111800.64239311,83818427,0.06718693673610687,0.0001418963074684143,0.06732841581106186,0.17297272384166718,0.0,-0.6321570873260498,-2.49,nan,0.0,0.2375071942806244,0,1
1674111800.74240303,83918437,0.06839100271463394,0.00010482966899871826,0.06809264421463013,0.17297272384166718,0.0,-0.6270208358764648,-2.57,nan,0.0,0.24264344573020935,0,2
1674111800.84242105,84018455,0.07168019562959671,7.416307926177979e-05,0.07175396382808685,0.17297272384166718,0.0,-0.6200079917907715,-3.02,nan,0.0,0.24943408370018005,0,1
1674111800.94243002,84118464,0.07816320657730103,5.640089511871338e-05,0.07822008430957794,0.17297272384166718,0.0,-0.6139435172080994,-2.98,nan,0.0,0.255711168050766,0,3
1674111801.04239702,84218431,0.07771788537502289,4.500150680541992e-05,0.07776308804750443,0.17297272384166718,0.0,-0.6103105545043945,-2.7,nan,0.0,0.2593441903591156,0,1
1674111801.14243698,84318471,0.07771788537502289,5.0693750381469727e-05,0.077767513692379,0.17297272384166718,0.0,-0.608609676361084,-2.45,nan,0.0,0.26104506850242615,0,1
1674111801.24248600,84418520,0.08179470151662827,9.459257125854492e-05,0.08188679069280624,0.17297272384166718,0.0,-0.6075396537780762,-2.41,nan,0.0,0.26190242171287537,0,-3
1674111801.34239697,84518431,0.08894243836402893,0.00017739832401275635,0.08912137895822525,0.17297272384166718,0.0,-0.605276346206665,-2.44,nan,0.0,0.26438793540000916,0,-1
1674111801.44237208,84618406,0.10743596404790878,0.0002442076802253723,0.10768231004476547,0.17297272384166718,0.0,-0.6003429889678955,-2.79,nan,0.0,0.2693212926387787,0,1
1674111801.54237103,84718405,0.10743596404790878,0.0001470521092414856,0.1075872853398323,0.17297272384166718,0.0,-0.5933883190155029,-2.59,nan,0.0,0.2760537564754486,0,3
1674111801.64241505,84818449,0.10857319831848145,5.5126845836639404e-05,0.10862956196069717,0.17297272384166718,0.0,-0.5833389759063721,-2.91,nan,0.0,0.2861679494380951,0,5
1674111801.74239397,84918428,0.11739253252744675,4.157423973083496e-05,0.11743605136871338,0.17297272384166718,0.0,-0.5733842849731445,-3.0300000000000002,nan,0.0,0.2959004342556,0,4
1674111801.84248495,85018519,0.11799897253513336,4.2945146560668945e-05,0.11804009974002838,0.17297272384166718,0.0,-0.5686938762664795,-3.24,nan,0.0,0.30044302344322205,0,1
1674111801.94241214,85118446,0.11799897253513336,3.1732022762298584e-05,0.11803176254034042,0.17297272384166718,0.0,-0.5698986053466797,-2.95,nan,0.0,0.29923829436302185,0,0
1674111802.04242301,85218457,0.13326920568943024,2.8386712074279785e-05,0.13329750299453735,0.17297272384166718,0.0,-0.5727691650390625,-3.02,nan,0.0,0.296515554189682,0,-2
1674111802.14240813,85318442,0.13460510969161987,5.848705768585205e-05,0.13466261327266693,0.17297272384166718,0.0,-0.5763981342315674,-3.0500000000000003,nan,0.0,0.2931087911128998,0,-2
1674111802.24241114,85418445,0.1366276890039444,0.00011077523231506348,0.13673487305641174,0.17297272384166718,0.0,-0.5821301937103271,-2.61,nan,0.0,0.28737673163414,0,0
1674111802.34242511,85518459,0.14213207364082336,0.00011146068572998047,0.14223814010620117,0.17297272384166718,0.0,-0.5858497619628906,-2.42,nan,0.0,0.2838049829006195,0,1
1674111802.44240499,85618439,0.1558658629655838,6.853044033050537e-05,0.1559319794178009,0.17297272384166718,0.0,-0.5827324390411377,-2.5500000000000003,nan,0.0,0.28692230582237244,0,2
1674111802.54234099,85718375,0.17216628789901733,1.6495585441589355e-05,0.17218264937400818,0.17297272384166718,0.0,-0.5738842487335205,-2.79,nan,0.0,0.29562267661094666,0,5
1674111802.64236808,85818402,0.17216628789901733,3.4868717193603516e-06,0.1721704751253128,0.17297272384166718,0.0,-0.5622725486755371,-2.33,nan,0.0,0.30723437666893005,0,7
1674111802.74248910,85918523,0.17216628789901733,3.9011240005493164e-05,0.17220278084278107,0.17297272384166718,0.0,-0.5498917102813721,-2.52,nan,0.0,0.31939300894737244,0,3
1674111802.84240603,86018440,0.17216628789901733,2.0489096641540527e-05,0.17218931019306183,0.17297272384166718,0.0,-0.5368132591247559,-2.45,nan,0.0,0.3323236405849457,0,4
1674111802.94242811,86118462,0.17216628789901733,1.932680606842041e-05,0.17218564450740814,0.17297272384166718,0.0,-0.524381160736084,-2.5,nan,0.0,0.3446079194545746,0,2
1674111803.04241014,86218444,0.17216628789901733,0.00010004639625549316,0.17226336896419525,0.17297272384166718,0.0,-0.5158466696739197,-2.37,nan,0.0,0.3531423509120941,0,0
1674111803.14243793,86318472,0.1737317144870758,0.0002938956022262573,0.17401693761348724,0.17297272384166718,0.0,-0.5106189250946045,-2.13,nan,0.0,0.3582223355770111,0,-5
1674111803.24239993,86418434,0.18781854212284088,0.00028780102729797363,0.18810801208019257,0.17297272384166718,0.0,-0.510141134262085,-1.86,nan,0.0,0.35870012640953064,0,-7
1674111803.34241104,86518445,0.20018674433231354,0.0003239065408706665,0.2005193680524826,0.17297272384166718,0.0,-0.5107638835906982,-2.2,nan,0.0,0.35807737708091736,0,-4
1674111803.44240594,86618440,0.2070230096578598,0.0003728717565536499,0.20741423964500427,0.17297272384166718,0.0,-0.5045619010925293,-2.19,nan,0.0,0.3642793595790863,0,5
1674111803.54240298,86718437,0.2070230096578598,0.00034086406230926514,0.20735299587249756,0.17297272384166718,0.0,-0.48896098136901855,-1.9100000000000001,nan,0.0,0.37988027930259705,0,13
1674111803.64239597,86818430,0.20788945257663727,0.0003200620412826538,0.2082083523273468,0.17297272384166718,0.0,-0.461606502532959,-2.68,nan,0.0,0.4071708619594574,0,21
1674111803.74241996,86918454,0.21670092642307281,0.00032730400562286377,0.21703097224235535,0.17297272384166718,0.0,-0.4251100718975067,-2.27,nan,0.0,0.4436672627925873,0,31
1674111803.84244609,87018480,0.21670092642307281,0.0003750920295715332,0.2170807123184204,0.17297272384166718,0.0,-0.38191986083984375,-2.35,nan,0.0,0.48715314269065857,0,40
1674111803.94240499,87118439,0.21670092642307281,0.0004101693630218506,0.21711482107639313,0.17297272384166718,0.0,-0.3315572738647461,-2.39,nan,0.0,0.5378848314285278,0,53
1674111804.04236293,87218397,0.21670092642307281,0.00043460726737976074,0.21711091697216034,0.17297272384166718,0.0,-0.2668731212615967,-2.58,nan,0.0,0.6029390096664429,0,65
1674111804.14238310,87318417,0.20018674433231354,0.0003603994846343994,0.20053327083587646,0.17297272384166718,0.0,-0.18850111961364746,-2.81,nan,0.0,0.6820405125617981,0,76
1674111804.24236298,87418397,0.19934405386447906,0.00033186376094818115,0.19964855909347534,0.17297272384166718,0.0,-0.10709144175052643,-2.74,nan,0.0,0.7639680504798889,0,82
1674111804.34242201,87518456,0.18382392823696136,0.00026175379753112793,0.18411245942115784,0.17297272384166718,0.0,-0.025993596762418747,-2.48,nan,0.0,0.8455837368965149,0,89
1674111804.44240499,87618439,0.18382392823696136,0.00017167627811431885,0.18400515615940094,0.17297272384166718,0.0,0.055924877524375916,-2.0100000000000002,nan,0.0,0.9282947182655334,0,87
1674111804.54242706,87718461,0.18382392823696136,0.0001628100872039795,0.18399915099143982,0.17297272384166718,0.0,0.14232872426509857,-1.46,nan,0.0,1.0152164697647095,0,86
1674111804.64243293,87818467,0.18382392823696136,0.000182226300239563,0.18400773406028748,0.17297272384166718,0.0,0.23405501246452332,-1.53,nan,0.0,1.1072384119033813,0,84
1674111804.74249291,87918527,0.18382392823696136,0.00014294683933258057,0.18396636843681335,0.17297272384166718,0.0,0.32786762714385986,-1.24,nan,0.0,1.201631784439087,0,78
1674111804.84238291,88018417,0.18382392823696136,0.00010520219802856445,0.18392352759838104,0.17297272384166718,0.0,0.42423343658447266,-1.07,nan,0.0,1.2983676195144653,0,75
1674111804.94240093,88118435,0.18382392823696136,7.849931716918945e-05,0.18390774726867676,0.17297272384166718,0.0,0.5217925310134888,-0.81,nan,0.0,1.3960745334625244,0,71
1674111805.04240704,88218441,0.18382392823696136,6.164610385894775e-05,0.1838856339454651,0.17297272384166718,0.0,0.6235487461090088,-0.6,nan,0.0,1.4979785680770874,0,68
1674111805.14242601,88318460,0.18382392823696136,5.257129669189453e-05,0.1838771104812622,0.17297272384166718,0.0,0.7281675338745117,-0.55,nan,0.0,1.6025973558425903,0,65
1674111805.24237800,88418412,0.18382392823696136,5.02467155456543e-05,0.1838657557964325,0.17297272384166718,0.0,0.8329517841339111,-0.37,nan,0.0,1.7076038122177124,0,61
1674111805.34241700,88518451,0.18382392823696136,5.145370960235596e-05,0.183873251080513,0.17297272384166718,0.0,0.9374861717224121,-0.79,nan,0.0,1.8119159936904907,0,60
1674111805.44245005,88618484,0.18382392823696136,6.650388240814209e-05,0.18387742340564728,0.17297272384166718,0.0,1.0347851514816284,-0.1,nan,0.0,1.909214973449707,0,55
1674111805.54240394,88718438,0.18224379420280457,5.62518835067749e-05,0.18230317533016205,0.17297272384166718,0.0,1.1290931701660156,-0.13,nan,0.0,2.0033750534057617,0,54
1674111805.64238906,88818423,0.18224379420280457,7.425248622894287e-05,0.18231993913650513,0.17297272384166718,0.0,1.221301794052124,-0.65,nan,0.0,2.0954360961914062,0,48
1674111805.74236012,88918394,0.18382392823696136,8.200109004974365e-05,0.18389683961868286,0.17297272384166718,0.0,1.3036080598831177,-0.52,nan,0.0,2.177382707595825,0,44
1674111805.84243512,89018469,0.18382392823696136,6.569921970367432e-05,0.18389783799648285,0.17297272384166718,0.0,1.3759753704071045,-0.32,nan,0.0,2.2493808269500732,0,40
1674111805.94246697,89118501,0.18382392823696136,7.921457290649414e-05,0.18389862775802612,0.17297272384166718,0.0,1.4418073892593384,-0.03,nan,0.0,2.314842939376831,0,36
1674111806.04241610,89218450,0.18382392823696136,8.438527584075928e-05,0.18391133844852448,0.17297272384166718,0.0,1.504080891609192,-0.07,nan,0.0,2.377032518386841,0,35
1674111806.14235497,89318389,0.18382392823696136,0.0001376122236251831,0.18395797908306122,0.17297272384166718,0.0,1.5622925758361816,0.21,nan,0.0,2.434652805328369,0,30
1674111806.24244308,89418477,0.18382392823696136,0.0002662092447280884,0.18409159779548645,0.17297272384166718,0.0,1.6196547746658325,-0.11,nan,0.0,2.4915716648101807,0,27
1674111806.34244704,89518481,0.18382392823696136,0.000366896390914917,0.18418867886066437,0.17297272384166718,0.0,1.672809362411499,0.31,nan,0.0,2.544144630432129,0,26
1674111806.44238901,89618423,0.18382392823696136,0.00044773519039154053,0.18428704142570496,0.17297272384166718,0.0,1.7221218347549438,-0.28,nan,0.0,2.5928657054901123,0,17
1674111806.54239702,89718431,0.18382392823696136,0.0005356520414352417,0.1843286007642746,0.17297272384166718,0.0,1.7628974914550781,0.19,nan,0.0,2.633197784423828,0,17
1674111806.64243007,89818464,0.18382392823696136,0.0005216300487518311,0.1843608319759369,0.17297272384166718,0.0,1.7973039150238037,-0.39,nan,0.0,2.666588544845581,0,12
1674111806.74241900,89918453,0.18382392823696136,0.0005651116371154785,0.1843693107366562,0.17297272384166718,0.0,1.8240926265716553,0.16,nan,0.0,2.6928701400756836,0,8
1674111806.84240913,90018443,0.18382392823696136,0.0005749017000198364,0.18439720571041107,0.17297272384166718,0.0,1.8450171947479248,-0.14,nan,0.0,2.7132766246795654,0,6
1674111806.94242096,90118455,0.18382392823696136,0.0005670338869094849,0.18438193202018738,0.17297272384166718,0.0,1.860837459564209,-0.03,nan,0.0,2.728727102279663,0,0
1674111807.04240394,90218438,0.18382392823696136,0.0006052255630493164,0.1844613254070282,0.17297272384166718,0.0,1.8719300031661987,0.03,nan,0.0,2.7395238876342773,0,-2
1674111807.14240909,90318443,0.18382392823696136,0.0006677210330963135,0.18447236716747284,0.17297272384166718,0.0,1.8785359859466553,-0.07,nan,0.0,2.7455387115478516,0,-6
1674111807.24242711,90418461,0.18382392823696136,0.0006756186485290527,0.18449243903160095,0.17297272384166718,0.0,1.880453109741211,-0.11,nan,0.0,2.747307777404785,0,-10
1674111807.34242010,90518454,0.18382392823696136,0.000701412558555603,0.18454062938690186,0.17297272384166718,0.0,1.8765919208526611,0.18,nan,0.0,2.7430765628814697,0,-12
1674111807.44239593,90618430,0.18382392823696136,0.000711396336555481,0.1845436990261078,0.17297272384166718,0.0,1.8708513975143433,0.11,nan,0.0,2.7371883392333984,0,-17
1674111807.54241109,90718445,0.18382392823696136,0.0007554292678833008,0.1845918595790863,0.17297272384166718,0.0,1.864012598991394,-0.2,nan,0.0,2.7302017211914062,0,-21
1674111807.64243698,90818471,0.19187681376934052,0.0007758438587188721,0.19266466796398163,0.17297272384166718,0.0,1.85281503200531,0.03,nan,0.0,2.7187819480895996,0,-26
1674111807.74241805,90918452,0.21849559247493744,0.0008153915405273438,0.21929147839546204,0.17297272384166718,0.0,1.8368985652923584,0.41000000000000003,nan,0.0,2.703078269958496,0,-29
1674111807.84247994,91018514,0.23514129221439362,0.0008092820644378662,0.23595982789993286,0.17297272384166718,0.0,1.8262945413589478,0.03,nan,0.0,2.692474126815796,0,-21
1674111807.94240212,91118436,0.23514129221439362,0.0008030831813812256,0.23594458401203156,0.17297272384166718,0.0,1.8250060081481934,0.2,nan,0.0,2.6916110515594482,0,-8
1674111808.04239106,91218425,0.23514129221439362,0.0007778555154800415,0.23595191538333893,0.17297272384166718,0.0,1.8360631465911865,0.26,nan,0.0,2.7026681900024414,0,2
1674111808.14244795,91318482,0.23514129221439362,0.0007564127445220947,0.2359149158000946,0.17297272384166718,0.0,1.8599135875701904,0.12,nan,0.0,2.7267396450042725,0,12
1674111808.24242592,91418460,0.23514129221439362,0.0005868077278137207,0.23576128482818604,0.17297272384166718,0.0,1.8960832357406616,0.15,nan,0.0,2.763122081756592,0,25
1674111808.34242201,91518456,0.23419299721717834,0.0003840923309326172,0.23457282781600952,0.17297272384166718,0.0,1.943291425704956,-0.32,nan,0.0,2.810330390930176,0,40
1674111808.44240904,91618443,0.23419299721717834,0.000303611159324646,0.23450475931167603,0.17297272384166718,0.0,1.9991750717163086,0.02,nan,0.0,2.866213798522949,0,48
1674111808.54239798,91718432,0.23419299721717834,0.0002503693103790283,0.23444677889347076,0.17297272384166718,0.0,2.0623881816864014,0.08,nan,0.0,2.929852247238159,0,60
1674111808.64242506,91818459,0.23514129221439362,0.00025278329849243164,0.2353854924440384,0.17297272384166718,0.0,2.134411096572876,0.06,nan,0.0,3.0020229816436768,0,68
1674111808.74239302,91918427,0.23514129221439362,0.00027173757553100586,0.235391303896904,0.17297272384166718,0.0,2.2147018909454346,-0.22,nan,0.0,3.082526445388794,0,77
1674111808.84234405,92018378,0.23514129221439362,0.00025115907192230225,0.23538950085639954,0.17297272384166718,0.0,2.3017117977142334,0.66,nan,0.0,3.16996169090271,0,87
1674111808.94238114,92118415,0.23514129221439362,0.00021123886108398438,0.2353508472442627,0.17297272384166718,0.0,2.397841453552246,0.2,nan,0.0,3.2659435272216797,0,99
1674111809.04248309,92218517,0.23101714253425598,0.00020164251327514648,0.23479905724525452,0.17297272384166718,2.502134323120117,2.5060267448425293,0.55,nan,0.0,3.374129056930542,105,109
1674111809.14245391,92318488,0.21497410535812378,0.00015063583850860596,0.22514773905277252,0.17297272384166718,2.611603021621704,2.6255111694335938,0.13,nan,0.0,3.493825912475586,110,119
1674111809.24260807,92418642,0.1992061287164688,9.232759475708008e-05,0.21148160099983215,0.17297272384166718,2.7239251136779785,2.752927303314209,0.37,nan,0.0,3.621232509613037,109,125
1674111809.34250093,92518535,0.18439099192619324,5.5655837059020996e-05,0.19691483676433563,0.17297272384166718,2.8341009616851807,2.8816120624542236,0.36,nan,0.0,3.7499728202819824,102,131
1674111809.44252610,92618560,0.16880294680595398,0.0002213120460510254,0.1814250499010086,0.17297272384166718,2.9371299743652344,3.0088114738464355,0.93,nan,0.0,3.87723708152771,90,128
1674111809.54251909,92718553,0.15236571431159973,0.0003701895475387573,0.1655549854040146,0.17297272384166718,3.02801251411438,3.130750894546509,0.71,nan,0.0,3.9988818168640137,72,121
1674111809.64257598,92818610,0.15279628336429596,0.0004718899726867676,0.1558380275964737,0.17297272384166718,3.103362560272217,3.2436747550964355,1.1500000000000001,nan,0.0,4.1118621826171875,54,109
1674111809.74250507,92918539,0.1550154685974121,0.0005295723676681519,0.1549142599105835,0.17297272384166718,3.1650230884552,3.3435442447662354,0.78,nan,0.0,4.211575031280518,37,91
1674111809.84249592,93018530,0.15537917613983154,0.0005431026220321655,0.15547813475131989,0.17297272384166718,3.2154808044433594,3.42617130279541,1.4000000000000001,nan,0.0,4.293906211853027,24,75
1674111809.94250798,93118542,0.15863023698329926,0.0006114989519119263,0.15729476511478424,0.17297272384166718,3.2567710876464844,3.492093086242676,1.68,nan,0.0,4.359673023223877,13,59
1674111810.04249597,93218530,0.16309432685375214,0.0006333142518997192,0.15991030633449554,0.17297272384166718,3.290560722351074,3.5452229976654053,1.17,nan,0.0,4.413006782531738,5,46
1674111810.14252305,93318557,0.16531884670257568,0.000627368688583374,0.16322410106658936,0.17297272384166718,3.318211793899536,3.5834035873413086,1.77,nan,0.0,4.45081901550293,-1,30
1674111810.24248695,93418521,0.1701602041721344,0.0006364732980728149,0.1669447422027588,0.17297272384166718,3.3408379554748535,3.609565019607544,1.83,nan,0.0,4.4771199226379395,-6,18
1674111810.34249592,93518530,0.17683015763759613,0.0006494671106338501,0.17225094139575958,0.17297272384166718,3.3593530654907227,3.626743793487549,1.96,nan,0.0,4.494077205657959,-10,8
1674111810.44250107,93618535,0.17772400379180908,0.0006678402423858643,0.17681069672107697,0.17297272384166718,3.3745052814483643,3.636255979537964,2.25,nan,0.0,4.503589630126953,-12,-3
1674111810.54255295,93718587,0.18261396884918213,0.0005671530961990356,0.18025808036327362,0.17297272384166718,3.38690447807312,3.641164779663086,1.94,nan,0.0,4.508498191833496,-14,-8
1674111810.64252400,93818558,0.18451912701129913,0.0005789399147033691,0.18244823813438416,0.17297272384166718,3.397050142288208,3.6424171924591064,1.53,nan,0.0,4.509603023529053,-15,-13
1674111810.74260807,93918642,0.18890750408172607,0.0006035417318344116,0.1854085624217987,0.17297272384166718,3.405353546142578,3.636467695236206,1.6500000000000001,nan,0.0,4.5040788650512695,-15,-19
1674111810.84256911,94018603,0.19423556327819824,0.0005799382925033569,0.19119513034820557,0.17297272384166718,3.4121499061584473,3.6235344409942627,2.1,nan,0.0,4.491145610809326,-15,-21
1674111810.94251609,94118550,0.1991165280342102,0.0006113648414611816,0.19563838839530945,0.17297272384166718,3.4177098274230957,3.6079704761505127,1.61,nan,0.0,4.475729465484619,-14,-24
1674111811.04253101,94218565,0.20249640941619873,0.0006779283285140991,0.19966670870780945,0.17297272384166718,3.4222590923309326,3.5905680656433105,1.59,nan,0.0,4.458327293395996,-12,-27
1674111811.14248896,94318523,0.20250651240348816,0.0005573630332946777,0.20253419876098633,0.17297272384166718,3.4259822368621826,3.5696303844451904,1.56,nan,0.0,4.437389373779297,-11,-28
1674111811.24249101,94418525,0.199715718626976,0.0004221200942993164,0.20138028264045715,0.17297272384166718,3.4290292263031006,3.548973560333252,1.29,nan,0.0,4.4169535636901855,-9,-23
1674111811.34251499,94518549,0.19646957516670227,0.000333636999130249,0.19853411614894867,0.17297272384166718,3.4315218925476074,3.529282569885254,1.3,nan,0.0,4.3972625732421875,-7,-22
1674111811.44249606,94618530,0.19773343205451965,0.00036409497261047363,0.19835728406906128,0.17297272384166718,3.4335622787475586,3.510911226272583,1.16,nan,0.0,4.378964900970459,-5,-21
1674111811.54250407,94718538,0.19880999624729156,0.00040858983993530273,0.19919703900814056,0.17297272384166718,3.435232400894165,3.4921557903289795,1.37,nan,0.0,4.360430717468262,-4,-16
1674111811.64250302,94818537,0.20188604295253754,0.0004464685916900635,0.20018444955348969,0.17297272384166718,3.436598539352417,3.4747402667999268,1.56,nan,0.0,4.3431620597839355,-2,-17
1674111811.74258113,94918615,0.20667245984077454,0.000444263219833374,0.20311422646045685,0.17297272384166718,3.437716245651245,3.4590601921081543,1.3900000000000001,nan,0.0,4.327704429626465,-1,-15
1674111811.84249496,95018529,0.20101502537727356,0.0004284381866455078,0.20377177000045776,0.17297272384166718,3.438631534576416,3.446260690689087,1.6400000000000001,nan,0.0,4.314904689788818,0,-13
1674111811.94252896,95118563,0.20522797107696533,0.00036147236824035645,0.20443080365657806,0.17297272384166718,3.4393811225891113,3.4370434284210205,1.34,nan,0.0,4.3058342933654785,0,-11
1674111812.04252911,95218563,0.20279419422149658,0.00036673247814178467,0.2046973705291748,0.17297272384166718,3.4399938583374023,3.431459903717041,1.37,nan,0.0,4.300046443939209,1,-9
1674111812.14254999,95318584,0.20254820585250854,0.0003699362277984619,0.2044043093919754,0.17297272384166718,3.440495252609253,3.4261250495910645,1.35,nan,0.0,4.294712066650391,1,-6
1674111812.24251699,95418551,0.2025637924671173,0.00041869282722473145,0.20316261053085327,0.17297272384166718,3.4409053325653076,3.42368483543396,1.51,nan,0.0,4.292346000671387,2,-6
1674111812.34248209,95518516,0.20126430690288544,0.00041322410106658936,0.20281174778938293,0.17297272384166718,3.4412412643432617,3.424166440963745,0.89,nan,0.0,4.292827606201172,2,-5
1674111812.44249701,95618531,0.20037682354450226,0.0004319995641708374,0.20167970657348633,0.17297272384166718,3.441516399383545,3.4247233867645264,1.67,nan,0.0,4.293384552001953,1,-3
1674111812.54253006,95718564,0.19905808568000793,0.0004610121250152588,0.20007634162902832,0.17297272384166718,3.4417412281036377,3.4272334575653076,1.28,nan,0.0,4.295894622802734,1,1
1674111812.64253902,95818573,0.19731898605823517,0.0004855245351791382,0.1985386461019516,0.17297272384166718,3.441925287246704,3.4325923919677734,1.46,nan,0.0,4.301253318786621,1,2
1674111812.74252295,95918557,0.19721370935440063,0.0005386024713516235,0.19774609804153442,0.17297272384166718,3.442075729370117,3.4387829303741455,1.77,nan,0.0,4.307444095611572,0,3
1674111812.84250903,96018543,0.19582213461399078,0.00048016011714935303,0.19730471074581146,0.17297272384166718,3.4421989917755127,3.447333335876465,1.31,nan,0.0,4.3159942626953125,0,2
1674111812.94250703,96118541,0.1941765546798706,0.0005234628915786743,0.19599826633930206,0.17297272384166718,3.44230055809021,3.4556572437286377,1.54,nan,0.0,4.324539661407471,-1,2
1674111813.04251194,96218546,0.1939104199409485,0.0005056560039520264,0.19532470405101776,0.17297272384166718,3.4423820972442627,3.463409423828125,1.86,nan,0.0,4.332291603088379,-2,2
1674111813.14246702,96318501,0.19443416595458984,0.0004958957433700562,0.19534829258918762,0.17297272384166718,3.4424495697021484,3.472390651702881,1.55,nan,0.0,4.341272830963135,-2,2
1674111813.24247694,96418511,0.19421136379241943,0.0004798620939254761,0.19485455751419067,0.17297272384166718,3.4425048828125,3.4833946228027344,1.59,nan,0.0,4.3522772789001465,-4,1
1674111813.34248400,96518518,0.19504006206989288,0.0005009621381759644,0.19421245157718658,0.17297272384166718,3.4425508975982666,3.49420428276062,1.5,nan,0.0,4.363086700439453,-5,0
1674111813.44251800,96618552,0.19402433931827545,0.0004941672086715698,0.19406259059906006,0.17297272384166718,3.4425876140594482,3.503063917160034,1.72,nan,0.0,4.371946334838867,-6,0
1674111813.54254103,96718575,0.19228211045265198,0.0005125254392623901,0.1937732994556427,0.17297272384166718,3.442617416381836,3.510474681854248,1.59,nan,0.0,4.379504203796387,-6,0
1674111813.64254713,96818581,0.194361612200737,0.00048422813415527344,0.19439594447612762,0.17297272384166718,3.4426417350769043,3.5159788131713867,1.3,nan,0.0,4.385008335113525,-7,-3
1674111813.74255610,96918590,0.18947333097457886,0.00046481192111968994,0.19286003708839417,0.17297272384166718,3.4426662921905518,3.517749786376953,1.32,nan,0.0,4.387000560760498,-7,-3
1674111813.84257913,97018613,0.19223545491695404,0.00043158233165740967,0.192066490650177,0.17297272384166718,3.442678451538086,3.5168251991271973,1.76,nan,0.0,4.386075496673584,-7,-3
1674111813.94248605,97118520,0.19407011568546295,0.0004017353057861328,0.19300523400306702,0.17297272384166718,3.44269061088562,3.515048027038574,1.26,nan,0.0,4.384298801422119,-7,-5
1674111814.04253411,97218568,0.19257068634033203,0.000455707311630249,0.19387103617191315,0.17297272384166718,3.4427027702331543,3.5114259719848633,1.82,nan,0.0,4.381248474121094,-6,-4
1674111814.14252710,97318561,0.19802041351795197,0.00047634541988372803,0.19508600234985352,0.17297272384166718,3.4427151679992676,3.5061256885528564,1.86,nan,0.0,4.375948429107666,-6,-5
1674111814.24253607,97418570,0.19966967403888702,0.0005225390195846558,0.19840660691261292,0.17297272384166718,3.4427273273468018,3.5035438537597656,1.79,nan,0.0,4.373366832733154,-6,-7
1674111814.34248900,97518523,0.20134828984737396,0.0005499720573425293,0.20020878314971924,0.17297272384166718,3.4427330493927,3.501939058303833,1.84,nan,0.0,4.371984004974365,-5,-10
1674111814.44252491,97618559,0.20179350674152374,0.0006115138530731201,0.20129646360874176,0.17297272384166718,3.4427330493927,3.501117467880249,1.56,nan,0.0,4.37137508392334,-5,-12
1674111814.54250813,97718542,0.20042170584201813,0.000547945499420166,0.2019529789686203,0.17297272384166718,3.4427330493927,3.4990947246551514,1.56,nan,0.0,4.369352340698242,-5,-10
1674111814.64252806,97818562,0.2012646645307541,0.0005433857440948486,0.20157630741596222,0.17297272384166718,3.4427330493927,3.497150182723999,1.6400000000000001,nan,0.0,4.36740779876709,-5,-10
1674111814.74251294,97918547,0.2013765573501587,0.000499725341796875,0.20197512209415436,0.17297272384166718,3.4427330493927,3.495352029800415,1.46,nan,0.0,4.365609645843506,-5,-10
1674111814.84247112,98018505,0.20274809002876282,0.0004911422729492188,0.20208406448364258,0.17297272384166718,3.4427330493927,3.493511199951172,1.47,nan,0.0,4.363768577575684,-5,-9
1674111814.94252110,98118555,0.2019161432981491,0.00047235190868377686,0.2028908133506775,0.17297272384166718,3.4427330493927,3.4902098178863525,1.69,nan,0.0,4.360467433929443,-4,-7
1674111815.04248500,98218519,0.1996583789587021,0.0005003511905670166,0.20138098299503326,0.17297272384166718,3.4427330493927,3.4889612197875977,1.73,nan,0.0,4.359643936157227,-4,-7
1674111815.14252114,98318555,0.20120935142040253,0.0004992038011550903,0.2019294649362564,0.17297272384166718,3.4427330493927,3.4900779724121094,1.3800000000000001,nan,0.0,4.3607611656188965,-4,-7
1674111815.24252200,98418556,0.2020513117313385,0.0004782825708389282,0.2019495815038681,0.17297272384166718,3.4427330493927,3.4917123317718506,1.69,nan,0.0,4.362395286560059,-4,-4
1674111815.34255505,98518589,0.20056378841400146,0.0004601776599884033,0.20138618350028992,0.17297272384166718,3.4427330493927,3.493528366088867,1.1,nan,0.0,4.364211082458496,-5,-4
1674111815.44248009,98618514,0.2005416452884674,0.0004925131797790527,0.2006051242351532,0.17297272384166718,3.4427330493927,3.4944190979003906,1.3800000000000001,nan,0.0,4.365102291107178,-5,-5
1674111815.54258299,98718617,0.19832119345664978,0.0004526376724243164,0.20000000298023224,0.17297272384166718,3.4427330493927,3.4935600757598877,1.17,nan,0.0,4.364243030548096,-5,-3
1674111815.64258194,98818616,0.1982613205909729,0.00045496225357055664,0.19895078241825104,0.17297272384166718,3.4427330493927,3.4921178817749023,1.41,nan,0.0,4.362800598144531,-4,-5
1674111815.74253011,98918564,0.19628232717514038,0.00044026970863342285,0.19840198755264282,0.17297272384166718,3.4427330493927,3.4904112815856934,1.03,nan,0.0,4.3610944747924805,-4,-3
1674111815.84247494,99018509,0.1988067924976349,0.0005069375038146973,0.1990264505147934,0.17297272384166718,3.4427330493927,3.48808217048645,1.08,nan,0.0,4.358765125274658,-4,-3
1674111815.94250798,99118542,0.19998367130756378,0.0005257129669189453,0.19962355494499207,0.17297272384166718,3.4427330493927,3.483100175857544,1.3800000000000001,nan,0.0,4.353783130645752,-4,-5
1674111816.04252410,99218558,0.20224884152412415,0.0004821568727493286,0.201069176197052,0.17297272384166718,3.4427330493927,3.477069616317749,1.12,nan,0.0,4.347752571105957,-3,-4
1674111816.14250207,99318536,0.20144256949424744,0.0004644542932510376,0.20208203792572021,0.17297272384166718,3.4427330493927,3.4696266651153564,1.05,nan,0.0,4.3403096199035645,-2,-5
1674111816.24252701,99418561,0.20006634294986725,0.00044733285903930664,0.20112033188343048,0.17297272384166718,3.4427330493927,3.461035966873169,1.16,nan,0.0,4.331718921661377,-1,-2
1674111816.34252691,99518561,0.20325729250907898,0.00043830275535583496,0.2015591412782669,0.17297272384166718,3.4427330493927,3.4520232677459717,1.35,nan,0.0,4.32270622253418,0,-3
1674111816.44249201,99618526,0.2031971961259842,0.0004323124885559082,0.20280538499355316,0.17297272384166718,3.4427330493927,3.444126605987549,1.5,nan,0.0,4.314956188201904,0,-3
1674111816.54247999,99718514,0.20239467918872833,0.000440448522567749,0.2025846689939499,0.17297272384166718,3.4427330493927,3.43872332572937,1.41,nan,0.0,4.309553146362305,0,-4
1674111816.64252710,99818561,0.20412224531173706,0.00045734643936157227,0.20374099910259247,0.17297272384166718,3.4427330493927,3.4357924461364746,1.4000000000000001,nan,0.0,4.306622505187988,0,-3
1674111816.74251294,99918547,0.20780284702777863,0.0004453808069229126,0.20553286373615265,0.17297272384166718,3.4427330493927,3.4330220222473145,1.1500000000000001,nan,0.0,4.30385160446167,0,-2
1674111816.84252906,100018563,0.20600320398807526,0.00045330822467803955,0.2063443958759308,0.17297272384166718,3.4427330493927,3.430302381515503,1.1,nan,0.0,4.3011322021484375,1,-4
1674111816.94255900,100118593,0.2052900195121765,0.0004216134548187256,0.20631788671016693,0.17297272384166718,3.4427330493927,3.4265599250793457,0.8,nan,0.0,4.297537803649902,1,-3
1674111817.04262805,100218662,0.20664960145950317,0.000437811017036438,0.20643393695354462,0.17297272384166718,3.4427330493927,3.4213292598724365,0.76,nan,0.0,4.292306900024414,2,-2
1674111817.14251804,100318552,0.2064562886953354,0.0004085451364517212,0.20723401010036469,0.17297272384166718,3.4427330493927,3.413426637649536,1.04,nan,0.0,4.284404277801514,2,-2
1674111817.24252605,100418560,0.20887911319732666,0.00043204426765441895,0.20821218192577362,0.17297272384166718,3.4427330493927,3.4051003456115723,0.89,nan,0.0,4.2756524085998535,3,-2
1674111817.34258699,100518621,0.20712274312973022,0.00041438639163970947,0.20800623297691345,0.17297272384166718,3.4427330493927,3.3971662521362305,0.84,nan,0.0,4.26771879196167,4,0
1674111817.44246411,100618498,0.2072232961654663,0.00042703747749328613,0.20738303661346436,0.17297272384166718,3.4427330493927,3.389667272567749,1.1500000000000001,nan,0.0,4.260219573974609,5,2
1674111817.54250312,100718537,0.20996829867362976,0.00041763484477996826,0.20841951668262482,0.17297272384166718,3.4427330493927,3.383094310760498,0.72,nan,0.0,4.2536468505859375,5,1
1674111817.64250493,100818539,0.20691104233264923,0.0004221796989440918,0.2083756923675537,0.17297272384166718,3.4427330493927,3.3778276443481445,1.05,nan,0.0,4.248380184173584,6,3
1674111817.74251413,100918548,0.20645621418952942,0.0003607124090194702,0.20698964595794678,0.17297272384166718,3.4427330493927,3.3745481967926025,0.97,nan,0.0,4.244887828826904,6,2
1674111817.84250712,101018541,0.20531359314918518,0.0003434866666793823,0.20666925609111786,0.17297272384166718,3.4427330493927,3.3734734058380127,0.93,nan,0.0,4.2438130378723145,6,3
1674111817.94246697,101118501,0.20645010471343994,0.0003362596035003662,0.20654350519180298,0.17297272384166718,3.4427330493927,3.373141050338745,1.0,nan,0.0,4.243480682373047,6,4
1674111818.04250193,101218536,0.2042524516582489,0.0003420710563659668,0.2059532254934311,0.17297272384166718,3.4427330493927,3.37347149848938,0.74,nan,0.0,4.243957996368408,6,6
1674111818.14250493,101318539,0.20519092679023743,0.00032210350036621094,0.2054624706506729,0.17297272384166718,3.4427330493927,3.373638153076172,1.17,nan,0.0,4.244124889373779,6,8
1674111818.24254704,101418581,0.20417901873588562,0.00031071901321411133,0.20468278229236603,0.17297272384166718,3.4427330493927,3.3754396438598633,0.9400000000000001,nan,0.0,4.2459259033203125,6,8
1674111818.34255910,101518593,0.2039608657360077,0.0003487318754196167,0.20454800128936768,0.17297272384166718,3.4427330493927,3.3788084983825684,0.54,nan,0.0,4.249516487121582,6,4
1674111818.44253206,101618566,0.20557278394699097,0.00032623112201690674,0.2044249176979065,0.17297272384166718,3.4427330493927,3.379808187484741,0.56,nan,0.0,4.250515937805176,6,8
1674111818.54256606,101718600,0.207715705037117,0.0003298521041870117,0.2062717080116272,0.17297272384166718,3.4427330493927,3.3762173652648926,0.8300000000000001,nan,0.0,4.246924877166748,6,5
1674111818.64248705,101818521,0.20663458108901978,0.0002863854169845581,0.20636984705924988,0.17297272384166718,3.4427330493927,3.3712899684906006,0.48,nan,0.0,4.242145538330078,7,8
1674111818.74256802,101918602,0.20620059967041016,0.0002675950527191162,0.20555569231510162,0.17297272384166718,3.4427330493927,3.365309000015259,0.66,nan,0.0,4.236164569854736,7,6
1674111818.84251595,102018550,0.20659855008125305,0.0002670884132385254,0.2058573216199875,0.17297272384166718,3.4427330493927,3.3588738441467285,0.79,nan,0.0,4.229729175567627,8,8
1674111818.94254804,102118582,0.2083410620689392,0.0002895444631576538,0.20751233398914337,0.17297272384166718,3.4427330493927,3.3531365394592285,0.41000000000000003,nan,0.0,4.224213123321533,8,6
1674111819.04249001,102218524,0.20488426089286804,0.00026778876781463623,0.20764940977096558,0.17297272384166718,3.4427330493927,3.3466923236846924,1.02,nan,0.0,4.217981815338135,9,4
1674111819.14264703,102318681,0.20683449506759644,0.00023293495178222656,0.20650224387645721,0.17297272384166718,3.4427330493927,3.3424158096313477,0.76,nan,0.0,4.213705062866211,10,7
1674111819.24249101,102418525,0.20814266800880432,0.00025187432765960693,0.2079704850912094,0.17297272384166718,3.4427330493927,3.340104579925537,0.8200000000000001,nan,0.0,4.211328506469727,10,6
1674111819.34250212,102518536,0.2056272178888321,0.0002269148826599121,0.20714889466762543,0.17297272384166718,3.4427330493927,3.338886260986328,0.88,nan,0.0,4.210110187530518,10,8
1674111819.44251394,102618548,0.20664572715759277,0.000222131609916687,0.2069287747144699,0.17297272384166718,3.4427330493927,3.3393375873565674,0.28,nan,0.0,4.210561275482178,10,8
1674111819.54251409,102718548,0.20382662117481232,0.00021153688430786133,0.20597106218338013,0.17297272384166718,3.4427330493927,3.3381364345550537,1.1,nan,0.0,4.209507942199707,10,9
1674111819.64248013,102818514,0.20425692200660706,0.00018741190433502197,0.20467661321163177,0.17297272384166718,3.4427330493927,3.3385119438171387,1.07,nan,0.0,4.209883213043213,10,11
1674111819.74248004,102918514,0.2056361436843872,0.00018092989921569824,0.20580483973026276,0.17310284078121185,3.4427330493927,3.3423898220062256,0.97,nan,0.0,4.213909149169922,10,9
1674111819.84256291,103018597,0.20465898513793945,0.00018192827701568604,0.20562025904655457,0.17342865467071533,3.4427330493927,3.348426103591919,0.89,nan,0.0,4.219945430755615,9,10
1674111819.94256496,103118599,0.20794273912906647,0.00019672513008117676,0.20716096460819244,0.17375382781028748,3.4427330493927,3.354487895965576,0.77,nan,0.0,4.226006984710693,8,9
1674111820.04254913,103218583,0.2083817720413208,0.0002199113368988037,0.2083580642938614,0.1740923970937729,3.4427330493927,3.3590266704559326,0.48,nan,0.0,4.230545997619629,8,10
1674111820.14252305,103318557,0.2089119553565979,0.00020541250705718994,0.2086832970380783,0.17443421483039856,3.4427330493927,3.360637664794922,0.63,nan,0.0,4.231732368469238,8,8
1674111820.24255610,103418590,0.20919783413410187,0.00021713972091674805,0.20913256704807281,0.17477770149707794,3.4427330493927,3.3595597743988037,0.58,nan,0.0,4.230654716491699,8,9
1674111820.34252691,103518561,0.2109934389591217,0.00020799040794372559,0.21022829413414001,0.17512263357639313,3.4427330493927,3.3571410179138184,0.32,nan,0.0,4.228087902069092,8,7
1674111820.44251513,103618549,0.20725707709789276,0.00021341443061828613,0.20958466827869415,0.17547181248664856,3.4427330493927,3.353501796722412,0.52,nan,0.0,4.224236488342285,8,7
1674111820.54253602,103718570,0.20470014214515686,0.00020644068717956543,0.20677778124809265,0.17579729855060577,3.4427330493927,3.351231813430786,0.74,nan,0.0,4.2218194007873535,9,10
1674111820.64249706,103818531,0.2069963663816452,0.00026370584964752197,0.20645050704479218,0.17610040307044983,3.4427330493927,3.350193977355957,1.01,nan,0.0,4.2206339836120605,9,11
1674111820.74251795,103918552,0.2056685984134674,0.00028224289417266846,0.20724055171012878,0.17640931904315948,3.4427330493927,3.3516621589660645,0.67,nan,0.0,4.222102165222168,9,9
1674111820.84250093,104018535,0.20577329397201538,0.0003321617841720581,0.2062825858592987,0.1767103523015976,3.4427330493927,3.3549509048461914,0.55,nan,0.0,4.2251691818237305,8,12
1674111820.94255614,104118590,0.20802004635334015,0.00030134618282318115,0.20701013505458832,0.17700646817684174,3.4427330493927,3.3567845821380615,0.8200000000000001,nan,0.0,4.22700309753418,8,9
1674111821.04252291,104218557,0.20652931928634644,0.00030378997325897217,0.20766198635101318,0.17731034755706787,3.4427330493927,3.358057737350464,0.68,nan,0.0,4.228276252746582,8,11
1674111821.14247704,104318511,0.20649421215057373,0.00029164552688598633,0.20660296082496643,0.17760539054870605,3.4427330493927,3.3603129386901855,0.9400000000000001,nan,0.0,4.230531692504883,8,10
1674111821.24254799,104418582,0.2071552276611328,0.00024850666522979736,0.2068839967250824,0.17789436876773834,3.4427330493927,3.3629589080810547,1.1400000000000001,nan,0.0,4.233177185058594,7,10
1674111821.34249306,104518527,0.20599542558193207,0.00023670494556427002,0.20749531686306,0.1781875044107437,3.4427330493927,3.367532253265381,0.8200000000000001,nan,0.0,4.23775053024292,7,10
1674111821.44253302,104618567,0.20416259765625,0.00025106966495513916,0.2059931606054306,0.17847329378128052,3.4427330493927,3.3731377124786377,1.19,nan,0.0,4.243356227874756,6,11
1674111821.54253793,104718572,0.20287761092185974,0.0002988576889038086,0.20415374636650085,0.17873764038085938,3.4427330493927,3.3805863857269287,1.37,nan,0.0,4.250657081604004,6,12
1674111821.64259696,104818631,0.2024078220129013,0.00028611719608306885,0.20309290289878845,0.17898420989513397,3.4427330493927,3.3924782276153564,1.07,nan,0.0,4.262548923492432,5,12
1674111821.74247599,104918510,0.2021818906068802,0.0002923309803009033,0.2024928778409958,0.17922230064868927,3.4427330493927,3.4062981605529785,1.37,nan,0.0,4.275943279266357,3,12
1674111821.84253407,105018568,0.20281066000461578,0.0002617090940475464,0.20256172120571136,0.17945241928100586,3.4427330493927,3.4201204776763916,1.55,nan,0.0,4.289544582366943,2,11
1674111821.94251800,105118552,0.20071925222873688,0.0002928227186203003,0.20140808820724487,0.1796775609254837,3.4427330493927,3.4358763694763184,1.3,nan,0.0,4.305300712585449,0,7
1674111822.04252100,105218555,0.20100310444831848,0.00029391050338745117,0.20167547464370728,0.17989356815814972,3.4427330493927,3.45151686668396,1.1,nan,0.0,4.320940971374512,0,5
1674111822.14253902,105318573,0.20120850205421448,0.00028799474239349365,0.20151132345199585,0.18010874092578888,3.4427330493927,3.4638381004333496,1.71,nan,0.0,4.333261966705322,-2,6
1674111822.24251294,105418547,0.199724018573761,0.00028902292251586914,0.20105789601802826,0.1803210973739624,3.4427330493927,3.4758081436157227,1.27,nan,0.0,4.345232009887695,-3,3
1674111822.34246802,105518502,0.20166878402233124,0.00030647218227386475,0.2014918029308319,0.18052814900875092,3.4427330493927,3.48776912689209,1.02,nan,0.0,4.35761833190918,-4,4
1674111822.44249797,105618532,0.20267802476882935,0.0002774447202682495,0.20179861783981323,0.1807374358177185,3.4427330493927,3.4956588745117188,1.08,nan,0.0,4.365508079528809,-5,1
1674111822.54254413,105718578,0.20234161615371704,0.000322490930557251,0.20217198133468628,0.18094922602176666,3.4427330493927,3.4999284744262695,1.3,nan,0.0,4.369629859924316,-5,-1
1674111822.64250612,105818540,0.20474529266357422,0.0003278106451034546,0.2036142647266388,0.18116554617881775,3.4427330493927,3.5012919902801514,1.19,nan,0.0,4.370993614196777,-5,-2
1674111822.74252701,105918561,0.2051716297864914,0.0003374069929122925,0.20459862053394318,0.1813947558403015,3.4427330493927,3.500687837600708,1.37,nan,0.0,4.370602130889893,-5,-1
1674111822.84247708,106018511,0.2038930356502533,0.0003288537263870239,0.2047605663537979,0.18162772059440613,3.4427330493927,3.499201774597168,1.11,nan,0.0,4.369116306304932,-5,-4
1674111822.94251513,106118549,0.20463377237319946,0.00033015012741088867,0.2044626772403717,0.18185561895370483,3.4427330493927,3.497114419937134,1.17,nan,0.0,4.366881847381592,-5,-4
1674111823.04253793,106218572,0.206503763794899,0.0003401041030883789,0.20521433651447296,0.18208235502243042,3.4427330493927,3.493913412094116,0.93,nan,0.0,4.363680839538574,-5,-5
1674111823.14255714,106318591,0.2057458460330963,0.00032745301723480225,0.2057780921459198,0.1823173612356186,3.4427330493927,3.488910436630249,1.12,nan,0.0,4.359102249145508,-4,-4
1674111823.24247694,106418511,0.20605403184890747,0.0004018545150756836,0.20583264529705048,0.18255111575126648,3.4427330493927,3.4827492237091064,1.55,nan,0.0,4.352941036224365,-4,-4
1674111823.34259009,106518624,0.20820754766464233,0.0003806650638580322,0.20713619887828827,0.18278738856315613,3.4427330493927,3.4791460037231445,1.6,nan,0.0,4.3494038581848145,-3,-3
1674111823.44259310,106618627,0.20642130076885223,0.00038965046405792236,0.20713114738464355,0.18303155899047852,3.4427330493927,3.479187488555908,1.05,nan,0.0,4.349445343017578,-3,-1
1674111823.54250813,106718542,0.20503437519073486,0.0004019737243652344,0.20575694739818573,0.18326513469219208,3.4427330493927,3.4803712368011475,1.25,nan,0.0,4.350628852844238,-3,-4
1674111823.64252210,106818556,0.20521323382854462,0.0004832446575164795,0.2061387002468109,0.18349102139472961,3.4427330493927,3.480145215988159,0.97,nan,0.0,4.350828170776367,-3,-4
1674111823.74249291,106918527,0.20724722743034363,0.0005061924457550049,0.20704413950443268,0.18371938169002533,3.4427330493927,3.4780948162078857,0.8,nan,0.0,4.348990440368652,-3,-3
1674111823.84248304,107018517,0.20934534072875977,0.0004715919494628906,0.2082722932100296,0.1839556246995926,3.4427330493927,3.472076892852783,1.47,nan,0.0,4.342972278594971,-2,-3
1674111823.94247413,107118508,0.21171912550926208,0.00047300755977630615,0.21064715087413788,0.18420884013175964,3.4427330493927,3.4657979011535645,1.3900000000000001,nan,0.0,4.336905002593994,-2,-5
1674111824.04245591,107218490,0.2101643979549408,0.0004176497459411621,0.21125808358192444,0.18447768688201904,3.4427330493927,3.4611692428588867,1.01,nan,0.0,4.332276821136475,-1,-4
1674111824.14252710,107318561,0.21075546741485596,0.00042022764682769775,0.21128186583518982,0.18474334478378296,3.4427330493927,3.4559504985809326,0.96,nan,0.0,4.327484130859375,-1,-4
1674111824.24246311,107418497,0.21067552268505096,0.000402987003326416,0.2110709398984909,0.18500660359859467,3.4427330493927,3.449617624282837,0.98,nan,0.0,4.321151256561279,0,-3
1674111824.34252501,107518559,0.2105962187051773,0.0004090815782546997,0.21116340160369873,0.18526671826839447,3.4427330493927,3.442215919494629,0.6900000000000001,nan,0.0,4.313961982727051,0,-1
1674111824.44247699,107618511,0.20982320606708527,0.0004152655601501465,0.2103266566991806,0.18552018702030182,3.4427330493927,3.4329466819763184,1.28,nan,0.0,4.304840087890625,0,-1
1674111824.54254794,107718582,0.21024611592292786,0.00039614737033843994,0.21075336635112762,0.18576852977275848,3.4427330493927,3.4241573810577393,0.87,nan,0.0,4.296475887298584,1,1
1674111824.64252901,107818563,0.21036474406719208,0.00041550397872924805,0.21065513789653778,0.18601654469966888,3.4427330493927,3.4179723262786865,0.87,nan,0.0,4.290437698364258,2,1
1674111824.74254608,107918580,0.21003809571266174,0.00043220818042755127,0.21137158572673798,0.1862654685974121,3.4427330493927,3.4119720458984375,0.78,nan,0.0,4.28443717956543,3,0
1674111824.84254909,108018583,0.2077997922897339,0.00036872923374176025,0.20976822078227997,0.1865093857049942,3.4427330493927,3.4057412147521973,1.1,nan,0.0,4.2782063484191895,3,2
1674111824.94252110,108118555,0.2083282321691513,0.0004076063632965088,0.20884984731674194,0.18673571944236755,3.4427330493927,3.4012672901153564,1.25,nan,0.0,4.2734551429748535,4,4
1674111825.04253292,108218567,0.20794014632701874,0.00039653480052948,0.20890238881111145,0.18695588409900665,3.4427330493927,3.401834726333618,1.0,nan,0.0,4.274022579193115,4,3
1674111825.14253306,108318567,0.20607276260852814,0.00034977495670318604,0.20792707800865173,0.18717053532600403,3.4427330493927,3.4056715965270996,1.1,nan,0.0,4.277859210968018,3,3
1674111825.24253607,108418570,0.20826607942581177,0.0003572404384613037,0.20747923851013184,0.18737134337425232,3.4427330493927,3.4107563495635986,0.84,nan,0.0,4.282944202423096,3,5
1674111825.34248805,108518522,0.2097121775150299,0.00034174323081970215,0.2086849808692932,0.1875763237476349,3.4427330493927,3.414687156677246,0.97,nan,0.0,4.286663055419922,2,4
1674111825.44249701,108618531,0.21050383150577545,0.00029887259006500244,0.20970463752746582,0.1877918839454651,3.4427330493927,3.41607666015625,1.17,nan,0.0,4.287626266479492,2,4
1674111825.54251003,108718544,0.21008408069610596,0.000264585018157959,0.21020227670669556,0.1880132257938385,3.4427330493927,3.4173693656921387,1.21,nan,0.0,4.288918972015381,2,5
1674111825.64249396,108818528,0.20974096655845642,0.00027698278427124023,0.21014191210269928,0.18823382258415222,3.4427330493927,3.419926643371582,0.92,nan,0.0,4.29126501083374,2,3
1674111825.74249196,108918526,0.20938175916671753,0.0002935081720352173,0.20998884737491608,0.1884511411190033,3.4427330493927,3.422175884246826,1.34,nan,0.0,4.293513774871826,2,3
1674111825.84246898,109018503,0.20940417051315308,0.0002929419279098511,0.20957936346530914,0.18866388499736786,3.4427330493927,3.42577862739563,0.91,nan,0.0,4.296756267547607,1,4
1674111825.94248700,109118521,0.2100866287946701,0.0003098994493484497,0.20973291993141174,0.18887190520763397,3.4427330493927,3.4303481578826904,1.18,nan,0.0,4.301325798034668,1,4
1674111826.04249811,109218532,0.209218367934227,0.0003345310688018799,0.20941674709320068,0.18907825648784637,3.4427330493927,3.4341328144073486,1.5,nan,0.0,4.304685115814209,0,3
1674111826.14256001,109318594,0.20612187683582306,0.0003355741500854492,0.2077229768037796,0.18927457928657532,3.4427330493927,3.4407565593719482,1.03,nan,0.0,4.311308860778809,0,6
1674111826.24252009,109418554,0.20598351955413818,0.0003441125154495239,0.20639069378376007,0.18945027887821198,3.4427330493927,3.448228359222412,1.21,nan,0.0,4.318780899047852,0,5
1674111826.34260011,109518634,0.20573297142982483,0.0003687441349029541,0.2059493064880371,0.18961630761623383,3.4427330493927,3.455792188644409,1.08,nan,0.0,4.3263444900512695,-1,4
1674111826.44247198,109618506,0.20763060450553894,0.0003478527069091797,0.20647631585597992,0.1897803395986557,3.4427330493927,3.46169114112854,1.02,nan,0.0,4.3322434425354,-1,4
1674111826.54249597,109718530,0.20727331936359406,0.0003665536642074585,0.2071039378643036,0.18994992971420288,3.4427330493927,3.4649124145507812,1.28,nan,0.0,4.3353166580200195,-2,1
1674111826.64252210,109818556,0.20982548594474792,0.0003636181354522705,0.20824655890464783,0.19012515246868134,3.4427330493927,3.4667141437530518,0.88,nan,0.0,4.337118625640869,-2,1
1674111826.74251294,109918547,0.21037647128105164,0.0003586709499359131,0.20978397130966187,0.19031283259391785,3.4427330493927,3.466125965118408,1.09,nan,0.0,4.336383819580078,-2,-1
1674111826.84249711,110018531,0.21068212389945984,0.0004006624221801758,0.21040186285972595,0.19051018357276917,3.4427330493927,3.464136838912964,1.26,nan,0.0,4.334394454956055,-2,-3
1674111826.94247913,110118513,0.21117138862609863,0.0003746598958969116,0.21142861247062683,0.19071321189403534,3.4427330493927,3.4633898735046387,0.8200000000000001,nan,0.0,4.33364725112915,-2,0
1674111827.04252291,110218557,0.2117764800786972,0.0003686845302581787,0.21148309111595154,0.19091925024986267,3.4427330493927,3.460768938064575,1.24,nan,0.0,4.331026554107666,-1,-2
1674111827.14249992,110318534,0.21078315377235413,0.00037467479705810547,0.2117147147655487,0.19112661480903625,3.4427330493927,3.4572529792785645,1.25,nan,0.0,4.327935695648193,-1,-2
1674111827.24251914,110418553,0.21138817071914673,0.00037088990211486816,0.21171535551548004,0.19133099913597107,3.4427330493927,3.4555206298828125,1.31,nan,0.0,4.326203346252441,-1,-1
1674111827.34249711,110518531,0.21044445037841797,0.0003558546304702759,0.21161574125289917,0.19153353571891785,3.4427330493927,3.455724000930786,1.12,nan,0.0,4.326406955718994,-1,0
1674111827.44246006,110618494,0.2096719592809677,0.00033855438232421875,0.21068274974822998,0.19172850251197815,3.4427330493927,3.4564244747161865,0.89,nan,0.0,4.3271074295043945,-1,0
1674111827.54256892,110718603,0.20898133516311646,0.00032787024974823,0.21025195717811584,0.1919146329164505,3.4427330493927,3.4556145668029785,0.9,nan,0.0,4.326297283172607,-1,0
1674111827.64254403,110818578,0.2096327692270279,0.00034834444522857666,0.21007250249385834,0.19209478795528412,3.4427330493927,3.4528801441192627,0.73,nan,0.0,4.323563098907471,-1,0
1674111827.74254203,110918576,0.21118994057178497,0.0003307610750198364,0.21069349348545074,0.19227607548236847,3.4427330493927,3.4478039741516113,0.9500000000000001,nan,0.0,4.317840099334717,0,0
1674111827.84245801,111018492,0.20995822548866272,0.0003154873847961426,0.2110457569360733,0.19246289134025574,3.4427330493927,3.4410667419433594,1.01,nan,0.0,4.311102867126465,0,0
1674111827.94246101,111118495,0.21118247509002686,0.00031094253063201904,0.21120856702327728,0.192647784948349,3.4427330493927,3.4347283840179443,1.29,nan,0.0,4.304764747619629,0,0
1674111828.04248095,111218515,0.21070387959480286,0.00028739869594573975,0.21133555471897125,0.1928332895040512,3.4427330493927,3.4315900802612305,0.8300000000000001,nan,0.0,4.301626682281494,1,0
1674111828.14251995,111318554,0.21218498051166534,0.000280231237411499,0.21170397102832794,0.19301839172840118,3.4427330493927,3.4297664165496826,1.3,nan,0.0,4.299802780151367,1,0
1674111828.24253297,111418567,0.21009612083435059,0.0002868473529815674,0.21126972138881683,0.19320350885391235,3.4427330493927,3.4291937351226807,1.29,nan,0.0,4.299230098724365,1,2
1674111828.34248114,111518515,0.21000483632087708,0.00028787553310394287,0.2108762413263321,0.19338050484657288,3.4427330493927,3.43190598487854,1.2,nan,0.0,4.301942348480225,1,1
1674111828.44248104,111618515,0.20845797657966614,0.0003028661012649536,0.21002577245235443,0.1935511976480484,3.4427330493927,3.43595552444458,1.1500000000000001,nan,0.0,4.3059916496276855,0,1
1674111828.54249907,111718533,0.20893630385398865,0.00030618906021118164,0.20931260287761688,0.19371098279953003,3.4427330493927,3.440541982650757,1.25,nan,0.0,4.310578346252441,0,1
1674111828.64247894,111818513,0.20934274792671204,0.00030517578125,0.20922836661338806,0.19386528432369232,3.4427330493927,3.4456655979156494,1.1500000000000001,nan,0.0,4.31592321395874,0,2
1674111828.74249196,111918526,0.20847856998443604,0.0002645254135131836,0.20882801711559296,0.19401708245277405,3.4427330493927,3.4509825706481934,1.18,nan,0.0,4.321240425109863,0,2
