timestamp,TimeUS,Instance,Volt,VoltR,Curr,CurrTot,EnrgTot,Temp,Res,RemPct
1674113035.27945089,56914296,0,22.542938232421875,22.807689666748047,0.4087375998497009,6.9575958251953125,0.1570426970720291,0.0,0.6477296948432922,99
1674113035.37946200,57014307,0,22.557588577270508,22.841249465942383,0.4379304051399231,6.969761371612549,0.157317116856575,0.0,0.6477296948432922,99
1674113035.47949195,57114337,0,22.5734806060791,22.875825881958008,0.4667780101299286,6.982734203338623,0.1576099544763565,0.0,0.6477296948432922,99
1674113035.57950902,57214354,0,22.57767105102539,22.889978408813477,0.48215651512145996,6.996129512786865,0.15791238844394684,0.0,0.6477296948432922,99
1674113035.67946506,57314310,0,22.56783103942871,22.871179580688477,0.46831244230270386,7.009134769439697,0.15820589661598206,0.0,0.6477495431900024,99
1674113035.77948689,57414332,0,22.530492782592773,22.78474235534668,0.39251086115837097,7.020040988922119,0.1584516167640686,0.0,0.6477495431900024,99
1674113035.87943006,57514275,0,22.57424545288086,22.883955001831055,0.47813287377357483,7.033315658569336,0.15875127911567688,0.0,0.6477495431900024,99
1674113035.97945690,57614302,0,22.57501220703125,22.88174057006836,0.47352951765060425,7.046473979949951,0.15904831886291504,0.0,0.6477495431900024,99
1674113036.07947803,57714323,0,22.583627700805664,22.899499893188477,0.4876464009284973,7.060023784637451,0.1593543291091919,0.0,0.6477495431900024,99
1674113036.17945409,57814299,0,22.563045501708984,22.856853485107422,0.4535817503929138,7.0726213455200195,0.15963856875896454,0.0,0.6477495431900024,99
1674113036.27946687,57914312,0,22.546768188476562,22.82467269897461,0.4290306270122528,7.084541320800781,0.15990732610225677,0.0,0.6477495431900024,99
1674113036.37947607,58014321,0,22.556726455688477,22.844768524169922,0.44468197226524353,7.096895694732666,0.1601860076189041,0.0,0.6477495431900024,99
1674113036.47946191,58114307,0,22.5712890625,22.88095474243164,0.4780646562576294,7.110174655914307,0.16048572957515717,0.0,0.6477495431900024,99
1674113036.57949495,58214340,0,22.575490951538086,22.897525787353516,0.4971599578857422,7.123990535736084,0.1607976257801056,0.0,0.6477495431900024,99
1674113036.67947197,58314317,0,22.532024383544922,22.798398971557617,0.41123107075691223,7.135411739349365,0.16105496883392334,0.0,0.6477495431900024,99
1674113036.77943301,58414278,0,22.557010650634766,22.84306526184082,0.4416130483150482,7.147675037384033,0.16133159399032593,0.0,0.6477495431900024,99
1674113036.87945390,58514299,0,22.566204071044922,22.87531852722168,0.47721216082572937,7.160934925079346,0.1616308093070984,0.0,0.6477495431900024,99
1674113036.97949004,58614335,0,22.584012985229492,22.91539192199707,0.5115837454795837,7.175151824951172,0.16195188462734222,0.0,0.6477495431900024,99
1674113037.07949591,58714341,0,22.557010650634766,22.841873168945312,0.43977177143096924,7.187369346618652,0.16222748160362244,0.0,0.6477495431900024,99
1674113037.17946291,58814308,0,22.534034729003906,22.79265594482422,0.3992624282836914,7.19845724105835,0.16247732937335968,0.0,0.6477495431900024,99
1674113037.27946901,58914314,0,22.569936752319336,22.87765884399414,0.4750639796257019,7.211655616760254,0.1627752184867859,0.0,0.6477495431900024,99
1674113037.37945199,59014297,0,22.57703399658203,22.89509391784668,0.4910221993923187,7.22529411315918,0.16308313608169556,0.0,0.6477495431900024,99
1674113037.47940302,59114248,0,22.545331954956055,22.699726104736328,1.3512316942214966,7.262812614440918,0.16392900049686432,0.0,0.11426123976707458,99
1674113037.57946587,59214311,0,22.38458824157715,22.659385681152344,5.395719528198242,7.412800312042236,0.16728641092777252,0.0,0.050928663462400436,99
1674113037.67948794,59314333,0,22.415990829467773,22.574954986572266,3.0882225036621094,7.498610973358154,0.16920994222164154,0.0,0.05147462338209152,99
1674113037.77945399,59414299,0,22.480039596557617,22.584842681884766,2.0254664421081543,7.554859161376953,0.17047441005706787,0.0,0.05174224078655243,99
1674113037.87946105,59514306,0,22.499378204345703,22.599567413330078,1.938309907913208,7.608709335327148,0.17168600857257843,0.0,0.05168904736638069,99
1674113037.97939801,59614243,0,22.51373863220215,22.61886215209961,2.03375244140625,7.6651716232299805,0.172957181930542,0.0,0.05168904736638069,99
1674113038.07945895,59714304,0,22.504547119140625,22.603219985961914,1.9106899499893188,7.718277454376221,0.17415231466293335,0.0,0.0516425296664238,99
1674113038.17950892,59814354,0,22.480016708374023,22.57280158996582,1.7966638803482056,7.768218517303467,0.17527499794960022,0.0,0.0516425296664238,99
1674113038.27950096,59914346,0,22.502635955810547,22.59485626220703,1.7867070436477661,7.8178486824035645,0.1763918101787567,0.0,0.05161462351679802,99
1674113038.37944293,60014288,0,22.527048110961914,22.62140464782715,1.8121788501739502,7.868161678314209,0.17752522230148315,0.0,0.05206817388534546,99
1674113038.47950506,60114350,0,22.52206802368164,22.615447998046875,1.7845587730407715,7.9177680015563965,0.17864245176315308,0.0,0.05232709273695946,99
1674113038.57946110,60214306,0,22.5325984954834,22.627765655517578,1.803892731666565,7.9678521156311035,0.17977097630500793,0.0,0.05275662615895271,99
1674113038.67948604,60314331,0,22.505985260009766,22.599225997924805,1.7673730850219727,8.0169677734375,0.18087635934352875,0.0,0.05275662615895271,99
1674113038.77947092,60414316,0,22.472572326660156,22.561635971069336,1.6881955862045288,8.063858985900879,0.18193013966083527,0.0,0.05275662615895271,99
1674113038.87943697,60514282,0,22.519866943359375,22.61488914489746,1.801130771636963,8.113877296447754,0.1830565482378006,0.0,0.05275662615895271,99
1674113038.97943807,60614283,0,22.522462844848633,22.617374420166016,1.7990508079528809,8.16385555267334,0.18418218195438385,0.0,0.05275662615895271,99
1674113039.07943988,60714285,0,22.5290584564209,22.62403106689453,1.8002099990844727,8.213851928710938,0.1853085458278656,0.0,0.05275662615895271,99
1674113039.17948508,60814330,0,22.487220764160156,22.57847023010254,1.7296255826950073,8.26193618774414,0.18638983368873596,0.0,0.05275662615895271,99
1674113039.27943492,60914280,0,22.485593795776367,22.57672882080078,1.7274775505065918,8.309901237487793,0.18746836483478546,0.0,0.05275662615895271,99
1674113039.37947989,61014325,0,22.512304306030273,22.606515884399414,1.7857863903045654,8.359532356262207,0.18858568370342255,0.0,0.05275662615895271,99
1674113039.47946596,61114311,0,22.52436637878418,22.62032699584961,1.8189303874969482,8.410054206848145,0.1897236704826355,0.0,0.05275662615895271,99
1674113039.57940507,61214250,0,22.511823654174805,22.606536865234375,1.7952998876571655,8.4598970413208,0.19084572792053223,0.0,0.05275662615895271,99
1674113039.67942405,61314269,0,22.473051071166992,22.56282615661621,1.7016987800598145,8.507179260253906,0.1919083148241043,0.0,0.05275662615895271,99
1674113039.77945495,61414300,0,22.507036209106445,22.601200103759766,1.7848656177520752,8.556777954101562,0.1930246353149414,0.0,0.05275662615895271,99
1674113039.87946606,61514311,0,22.519378662109375,22.61432647705078,1.7997328042984009,8.606779098510742,0.1941506415605545,0.0,0.05275662615895271,99
1674113039.97950697,61614352,0,22.518335342407227,22.613372802734375,1.8014376163482666,8.656844139099121,0.19527801871299744,0.0,0.05275662615895271,99
1674113040.07950687,61714352,0,22.505218505859375,22.598718643188477,1.7722831964492798,8.706077575683594,0.19638602435588837,0.0,0.05275662615895271,99
1674113040.17948008,61814325,0,22.48836898803711,22.580379486083984,1.744049310684204,8.754507064819336,0.1974751204252243,0.0,0.05275662615895271,99
1674113040.27947807,61914323,0,22.50809097290039,22.601898193359375,1.7781141996383667,8.803910255432129,0.1985870897769928,0.0,0.05275662615895271,99
1674113040.37944889,62014294,0,22.507516860961914,22.60245704650879,1.7995963096618652,8.853888511657715,0.19971197843551636,0.0,0.05275662615895271,99
1674113040.47943091,62114276,0,22.483102798461914,22.63705062866211,2.95932936668396,8.936083793640137,0.20155999064445496,0.0,0.05202115699648857,99
1674113040.57949996,62214345,0,21.991966247558594,22.656917572021484,14.131004333496094,9.328776359558105,0.21019607782363892,0.0,0.04705625772476196,99
1674113040.67945004,62314295,0,22.015134811401367,22.57137107849121,11.755377769470215,9.655291557312012,0.21738435328006744,0.0,0.047317635267972946,99
1674113040.77947903,62414324,0,22.0227108001709,22.600847244262695,12.218951225280762,9.994832038879395,0.2248619645833969,0.0,0.04731466621160507,99
1674113040.87943888,62514284,0,22.107715606689453,22.60773468017578,10.580301284790039,10.2886323928833,0.23135721683502197,0.0,0.04725944250822067,99
1674113040.97949195,62614337,0,22.118532180786133,22.628339767456055,10.834711074829102,10.58978271484375,0.2380182296037674,0.0,0.04705313965678215,99
1674113041.07945991,62714305,0,22.058982849121094,22.606609344482422,11.642136573791504,10.913094520568848,0.24515016376972198,0.0,0.04703827574849129,99
1674113041.17948389,62814329,0,21.977127075195312,22.565414428710938,12.425622940063477,11.2583646774292,0.25273820757865906,0.0,0.04734470322728157,99
1674113041.27949905,62914344,0,21.951757431030273,22.588546752929688,13.423625946044922,11.631299018859863,0.2609247863292694,0.0,0.04743794724345207,99
1674113041.37948489,63014330,0,21.915376663208008,22.61307716369629,14.740180015563965,12.040756225585938,0.2698982059955597,0.0,0.047333262860774994,99
1674113041.47943592,63114281,0,21.8295955657959,22.612131118774414,16.559415817260742,12.500551223754883,0.279935359954834,0.0,0.0472562275826931,99
1674113041.57946897,63214314,0,21.77581214904785,22.6151123046875,17.791711807250977,12.99496841430664,0.290701687335968,0.0,0.04717361181974411,99
1674113041.67949295,63314338,0,21.70456314086914,22.60725975036621,19.144954681396484,13.52694320678711,0.3022479712963104,0.0,0.04715057834982872,99
1674113041.77948689,63414332,0,21.46100425720215,22.58179473876953,23.718826293945312,14.185806274414062,0.3163878321647644,0.0,0.04725323244929314,99
1674113041.87954307,63514388,0,21.5167236328125,22.598953247070312,22.897592544555664,14.822162628173828,0.3300801217556,0.0,0.04726386442780495,99
1674113041.97943592,63614281,0,21.45056915283203,22.60651969909668,24.47039794921875,15.501324653625488,0.344648540019989,0.0,0.04723874479532242,99
1674113042.07941604,63714261,0,21.223573684692383,22.609102249145508,29.34808921813965,16.316452026367188,0.3619484603404999,0.0,0.047210194170475006,99
1674113042.17946100,63814306,0,21.192459106445312,22.536991119384766,28.331674575805664,17.103466033935547,0.3786272406578064,0.0,0.04745684564113617,99
1674113042.27947688,63914322,0,21.19609832763672,22.525148391723633,27.849857330322266,17.877653121948242,0.3950369954109192,0.0,0.04772195965051651,99
1674113042.37948895,64014334,0,21.09585952758789,22.545438766479492,30.27520179748535,18.718799591064453,0.412781685590744,0.0,0.047880105674266815,99
1674113042.47950387,64114349,0,21.08234977722168,22.54839515686035,30.535783767700195,19.566999435424805,0.43066373467445374,0.0,0.04801073670387268,99
1674113042.57946801,64214313,0,20.833921432495117,22.55823516845703,35.862728118896484,20.56309700012207,0.45141634345054626,0.0,0.0480809286236763,99
1674113042.67939496,64314240,0,20.799551010131836,22.508394241333008,35.38121795654297,21.54532814025879,0.4718463122844696,0.0,0.04829801619052887,99
1674113042.77949905,64414344,0,20.7475643157959,22.47520637512207,35.550621032714844,22.5339412689209,0.49235764145851135,0.0,0.04859667271375656,99
1674113042.87958002,64514425,0,20.689741134643555,22.504615783691406,37.21303939819336,23.568567276000977,0.5137637853622437,0.0,0.04876984283328056,99
1674113042.97948694,64614332,0,20.68543243408203,22.431522369384766,35.53067398071289,24.554691314697266,0.534162163734436,0.0,0.04914316534996033,99
1674113043.07947993,64714325,0,20.636606216430664,22.372255325317383,34.952186584472656,25.525585174560547,0.554198145866394,0.0,0.049657803028821945,99
1674113043.17946005,64814305,0,20.514442443847656,22.33007049560547,36.12910461425781,26.528921127319336,0.5747810006141663,0.0,0.05025389418005943,99
1674113043.27948499,64914330,0,20.289533615112305,22.342025756835938,40.46466064453125,27.653467178344727,0.5975975394248962,0.0,0.05072309076786041,99
1674113043.37946796,65014313,0,20.093006134033203,22.335220336914062,43.850120544433594,28.871416091918945,0.622069776058197,0.0,0.05113357678055763,99
1674113043.47948194,65114327,0,20.125652313232422,22.421945571899414,44.77753829956055,30.114639282226562,0.6470904350280762,0.0,0.05128224566578865,99
1674113043.57944703,65214292,0,20.011533737182617,22.4356632232666,47.18232345581055,31.425376892089844,0.6733202934265137,0.0,0.05137792229652405,99
1674113043.67949700,65314342,0,19.922975540161133,22.393827438354492,47.92161560058594,32.75771713256836,0.6998645067214966,0.0,0.05156029760837555,99
1674113043.77941203,65414257,0,19.940589904785156,22.388893127441406,47.32196044921875,34.071231842041016,0.7260567545890808,0.0,0.051737163215875626,99
1674113043.87950087,65514346,0,19.947866439819336,22.39995765686035,47.27132034301758,35.385467529296875,0.7522729635238647,0.0,0.05187269672751427,99
1674113043.97944593,65614291,0,19.950164794921875,22.430015563964844,47.75651168823242,36.7115592956543,0.778728723526001,0.0,0.05192697420716286,99
1674113044.07946801,65714313,0,19.887836456298828,22.393762588500977,48.135215759277344,38.049049377441406,0.8053285479545593,0.0,0.052060142159461975,99
1674113044.17947388,65814319,0,19.85498809814453,22.494823455810547,50.81022262573242,39.46064376831055,0.833355724811554,0.0,0.05195479467511177,99
1674113044.27946091,65914306,0,19.854328155517578,22.65943145751953,54.999698638916016,40.98832321166992,0.863686740398407,0.0,0.05100216343998909,99
1674113044.37948799,66014333,0,19.91397476196289,22.632970809936523,53.70033645629883,42.4799690246582,0.8933913707733154,0.0,0.050632771104574203,99
1674113044.47947097,66114316,0,19.904783248901367,22.52288055419922,51.82493591308594,43.91996765136719,0.9220542311668396,0.0,0.05051811784505844,99
1674113044.57950187,66214347,0,19.789133071899414,22.404451370239258,51.63405227661133,45.35480499267578,0.9504484534263611,0.0,0.05065104365348816,99
1674113044.67946196,66314307,0,19.740978240966797,22.37826919555664,51.88937759399414,46.79571533203125,0.9788934588432312,0.0,0.05082525685429573,99
1674113044.77955294,66414398,0,19.7112979888916,22.42369270324707,53.29524612426758,48.27760314941406,1.008103370666504,0.0,0.05089376121759415,99
1674113044.87948489,66514330,0,19.652420043945312,22.451725006103516,54.99601745605469,49.80433654785156,1.0381073951721191,0.0,0.050900138914585114,99
1674113044.97947288,66614318,0,19.712766647338867,22.462173461914062,54.03187942504883,51.30517578125,1.0676931142807007,0.0,0.0508849136531353,99
1674113045.07947493,66714320,0,19.692340850830078,22.49284553527832,55.1181640625,52.836387634277344,1.097846269607544,0.0,0.0508091002702713,99
1674113045.17941904,66814264,0,19.71617889404297,22.60430335998535,57.162044525146484,54.4234619140625,1.1291372776031494,0.0,0.050525207072496414,99
1674113045.27947402,66914319,0,19.659791946411133,22.58685874938965,58.18920135498047,56.04084777832031,1.1609346866607666,0.0,0.050302572548389435,99
1674113045.37944293,67014288,0,19.603015899658203,22.559295654296875,58.94537353515625,57.677825927734375,1.1930243968963623,0.0,0.05015286058187485,99
1674113045.47952604,67114371,0,19.589614868164062,22.517074584960938,58.43808364868164,59.302581787109375,1.2248528003692627,0.0,0.0500950813293457,99
1674113045.57946110,67214306,0,19.524032592773438,22.535356521606445,60.215274810791016,60.97429275512695,1.2574913501739502,0.0,0.050009310245513916,99
1674113045.67947102,67314316,0,19.468889236450195,22.59499740600586,62.73789978027344,62.717308044433594,1.2914259433746338,0.0,0.04982807859778404,99
1674113045.77950287,67414348,0,19.393449783325195,22.575475692749023,64.0256118774414,64.49652862548828,1.3259310722351074,0.0,0.04969926178455353,99
1674113045.87947798,67514323,0,19.286943435668945,22.595550537109375,66.76947021484375,66.35089874267578,1.3616962432861328,0.0,0.04955269768834114,99
1674113045.97948408,67614329,0,19.171911239624023,22.62458610534668,69.9224853515625,68.29346466064453,1.3989388942718506,0.0,0.04937859997153282,99
1674113046.07947087,67714316,0,19.16674041748047,22.624418258666992,70.24839782714844,70.2447280883789,1.4363383054733276,0.0,0.049220744520425797,99
1674113046.17945004,67814295,0,19.236818313598633,22.616243362426758,68.84192657470703,72.15675354003906,1.4731196165084839,0.0,0.04908963665366173,99
1674113046.27948809,67914333,0,19.303550720214844,22.646263122558594,68.32697296142578,74.05558013916016,1.5097737312316895,0.0,0.04892229288816452,99
1674113046.37952089,68014366,0,19.31312370300293,22.657835006713867,68.97174072265625,75.97220611572266,1.5467897653579712,0.0,0.04849392920732498,99
1674113046.47948503,68114330,0,19.362714767456055,22.657352447509766,69.01716613769531,77.88885498046875,1.5839011669158936,0.0,0.04773648828268051,99
1674113046.57949901,68214344,0,19.5430850982666,22.65682029724121,66.38896179199219,79.73341369628906,1.6199495792388916,0.0,0.0469013936817646,99
1674113046.67940688,68314252,0,19.51828956604004,22.57931137084961,65.11843872070312,81.54074096679688,1.6552255153656006,0.0,0.0470070019364357,98
1674113046.77944493,68414290,0,19.4215087890625,22.43911361694336,64.3348159790039,83.32862091064453,1.6899489164352417,0.0,0.04690468683838844,98
1674113046.87946391,68514309,0,19.39497947692871,22.460481643676758,65.35597229003906,85.1445541381836,1.7251689434051514,0.0,0.04690468683838844,98
1674113046.97945690,68614302,0,19.576881408691406,22.425548553466797,60.84685516357422,86.83477783203125,1.7582582235336304,0.0,0.046817004680633545,98
1674113047.07946491,68714310,0,19.573915481567383,22.32767677307129,59.066287994384766,88.47575378417969,1.7903785705566406,0.0,0.04662153869867325,98
1674113047.17946601,68814311,0,19.496652603149414,22.27010726928711,59.776424407958984,90.1363754272461,1.8227550983428955,0.0,0.046397123485803604,98
1674113047.27949405,68914339,0,19.476356506347656,22.273820877075195,60.51081466674805,91.81783294677734,1.855503797531128,0.0,0.046230804175138474,98
1674113047.37949491,69014340,0,19.44820785522461,22.309104919433594,61.882911682128906,93.53695678710938,1.8889377117156982,0.0,0.046230804175138474,98
1674113047.47949505,69114340,0,19.468505859375,22.367965698242188,62.71703338623047,95.27922058105469,1.9228569269180298,0.0,0.046230804175138474,98
1674113047.57949495,69214340,0,19.477676391601562,22.375974655151367,62.69194030761719,97.02061462402344,1.956775188446045,0.0,0.046230804175138474,98
1674113047.67948604,69314331,0,19.441797256469727,22.316967010498047,62.1916389465332,98.74833679199219,1.9903651475906372,0.0,0.046230804175138474,98
1674113047.77946687,69414312,0,19.453092575073242,22.334802627563477,62.3331184387207,100.4796371459961,2.0240442752838135,0.0,0.046230804175138474,98
1674113047.87948704,69514332,0,19.38262939453125,22.219932556152344,61.37255859375,102.18489074707031,2.057096481323242,0.0,0.046230804175138474,98
1674113047.97948790,69614333,0,19.412307739257812,22.269004821777344,61.792076110839844,103.9014892578125,2.0904197692871094,0.0,0.046230804175138474,98
1674113048.07947087,69714316,0,19.409244537353516,22.260395050048828,61.672080993652344,105.61446380615234,2.1236672401428223,0.0,0.046230804175138474,98
1674113048.17949796,69814343,0,19.385311126708984,22.2401065826416,61.750953674316406,107.33035278320312,2.1569302082061768,0.0,0.046230804175138474,98
1674113048.27944493,69914290,0,19.37774658203125,22.218212127685547,61.44099044799805,109.03629302978516,2.1899876594543457,0.0,0.046230804175138474,98
1674113048.37952590,70014371,0,19.41604232788086,22.27273941040039,61.792076110839844,110.75394439697266,2.2233376502990723,0.0,0.046230804175138474,98
1674113048.47946095,70114306,0,19.39012908935547,22.266191482543945,62.17534255981445,112.48036193847656,2.2568130493164062,0.0,0.04625727981328964,98
1674113048.57946801,70214313,0,19.39986228942871,22.26835823059082,61.98387908935547,114.2024154663086,2.2902204990386963,0.0,0.04627808928489685,98
1674113048.67951894,70314364,0,19.4023494720459,22.265235900878906,61.86265563964844,115.92183685302734,2.3235812187194824,0.0,0.04627808928489685,98
1674113048.77946997,70414315,0,19.382341384887695,22.234617233276367,61.63341522216797,117.6331558227539,2.356750726699829,0.0,0.04627808928489685,98
1674113048.87944102,70514286,0,19.439210891723633,22.308969497680664,62.01118850708008,119.3553237915039,2.390228271484375,0.0,0.04627808928489685,98
1674113048.97941589,70614261,0,19.40388298034668,22.247852325439453,61.453887939453125,121.06210327148438,2.423346519470215,0.0,0.04627808928489685,98
1674113049.07952189,70714367,0,19.391725540161133,22.258302688598633,61.91329574584961,122.78387451171875,2.4567346572875977,0.0,0.04629986360669136,98
1674113049.17948508,70814330,0,19.34921646118164,22.18143653869629,61.171234130859375,124.4825668334961,2.489603042602539,0.0,0.04629986360669136,98
1674113049.27965999,70914505,0,19.329111099243164,22.13861083984375,60.68052673339844,126.1712417602539,2.5222434997558594,0.0,0.04629986360669136,98
1674113049.37956405,71014409,0,19.214183807373047,22.095495223999023,61.93699645996094,127.89018249511719,2.555271625518799,0.0,0.04652004316449165,98
1674113049.47959900,71114444,0,19.27617073059082,22.305850982666016,65.30595397949219,129.7050323486328,2.59025502204895,0.0,0.04639209061861038,98
1674113049.57960010,71214445,0,19.161380767822266,22.221817016601562,65.9476547241211,131.5370635986328,2.625359058380127,0.0,0.04640704765915871,98
1674113049.67958403,71314429,0,19.141464233398438,22.199756622314453,65.83287811279297,133.36563110351562,2.660360336303711,0.0,0.04645538330078125,98
1674113049.77957106,71414416,0,19.128828048706055,22.205337524414062,66.17444610595703,135.20343017578125,2.6955151557922363,0.0,0.04649089276790619,98
1674113049.87956500,71514410,0,19.09512710571289,22.204479217529297,66.83211517333984,137.06021118164062,2.730970621109009,0.0,0.04652481526136398,98
1674113049.97962809,71614473,0,19.197376251220703,22.331912994384766,67.61988830566406,138.93988037109375,2.7670552730560303,0.0,0.0463552363216877,98
1674113050.07962203,71714467,0,19.078372955322266,22.16819953918457,66.50895690917969,140.78736877441406,2.802302360534668,0.0,0.04645729437470436,98
1674113050.17958307,71814428,0,19.082918167114258,22.202518463134766,67.0923843383789,142.65048217773438,2.8378560543060303,0.0,0.04649709165096283,98
1674113050.27960992,71914455,0,18.98809242248535,22.109012603759766,66.8566665649414,144.5082550048828,2.87313175201416,0.0,0.0466807559132576,98
1674113050.37961292,72014458,0,19.011932373046875,22.172773361206055,67.61253356933594,146.38656616210938,2.908842086791992,0.0,0.04674934223294258,98
1674113050.47954106,72114386,0,18.980241775512695,22.1634578704834,67.97802734375,148.27365112304688,2.944659471511841,0.0,0.046827130019664764,98
1674113050.57956791,72214413,0,18.953628540039062,22.1817684173584,68.87445831298828,150.1875,2.980933904647827,0.0,0.046869903802871704,98
1674113050.67961407,72314459,0,18.9217472076416,22.15315818786621,68.82013702392578,152.10020446777344,3.0171256065368652,0.0,0.046954426914453506,98
1674113050.77960992,72414455,0,18.946352005004883,22.17436981201172,68.6829605102539,154.00814819335938,3.053274154663086,0.0,0.046998802572488785,98
1674113050.87962389,72514469,0,18.875886917114258,22.131710052490234,69.11536407470703,155.92843627929688,3.0895214080810547,0.0,0.04710708186030388,98
1674113050.97962904,72614474,0,18.8653564453125,22.16963768005371,70.08451843261719,157.87548828125,3.126253128051758,0.0,0.04714709147810936,98
1674113051.07960892,72714454,0,18.860166549682617,22.17198944091797,70.19503021240234,159.8251190185547,3.1630234718322754,0.0,0.04718029126524925,98
1674113051.17957807,72814423,0,18.80820083618164,22.10378646850586,69.64659118652344,161.7592315673828,3.1994004249572754,0.0,0.047318682074546814,97
1674113051.27966189,72914507,0,18.786754608154297,22.075605392456055,69.25223541259766,163.68475341796875,3.235574722290039,0.0,0.04749089851975441,97
1674113051.37958503,73014430,0,18.77134132385254,22.079736709594727,69.44066619873047,165.61233520507812,3.2717578411102295,0.0,0.04764349013566971,97
1674113051.47957087,73114416,0,18.835487365722656,22.1351375579834,69.17950439453125,167.53387451171875,3.307950973510742,0.0,0.04769692197442055,97
1674113051.57959008,73214435,0,18.868038177490234,22.15692138671875,68.9321517944336,169.44915771484375,3.344088554382324,0.0,0.04771188646554947,97
1674113051.67958188,73314427,0,18.930458068847656,22.19183349609375,68.30702209472656,171.34657287597656,3.38000750541687,0.0,0.04774581640958786,97
1674113051.77961898,73414464,0,18.91600227355957,22.13398551940918,67.46798706054688,173.22154235839844,3.4154744148254395,0.0,0.04769646003842354,97
1674113051.87960196,73514447,0,18.969627380371094,22.171777725219727,67.11965942382812,175.08567810058594,3.450836420059204,0.0,0.047708094120025635,97
1674113051.97956491,73614410,0,18.939170837402344,22.112533569335938,66.61145782470703,176.9355926513672,3.485872268676758,0.0,0.04763989895582199,97
1674113052.07960010,73714445,0,18.936107635498047,22.091276168823242,66.34017181396484,178.77914428710938,3.520781993865967,0.0,0.04756045341491699,97
1674113052.17960405,73814449,0,18.898962020874023,22.069440841674805,66.66209411621094,180.631103515625,3.5557823181152344,0.0,0.04756045341491699,97
1674113052.27964592,73914491,0,18.94204330444336,22.11263656616211,66.68940734863281,182.4844970703125,3.5908894538879395,0.0,0.047542691230773926,97
1674113052.37960386,74014449,0,18.90853500366211,22.044652938842773,65.9642333984375,184.3162384033203,3.6255249977111816,0.0,0.047542691230773926,97
1674113052.47962594,74114471,0,18.978614807128906,22.13560676574707,66.35674285888672,186.1600341796875,3.660517692565918,0.0,0.047576043754816055,97
1674113052.57967210,74214517,0,18.96425437927246,22.083906173706055,65.62971496582031,187.9840545654297,3.695108652114868,0.0,0.04753412306308746,97
1674113052.67963004,74314475,0,18.924522399902344,22.032489776611328,65.38390350341797,189.79966735839844,3.72946834564209,0.0,0.04753412306308746,97
1674113052.77956986,74414415,0,18.88718605041504,21.987281799316406,65.21831512451172,191.6103515625,3.763666868209839,0.0,0.04753412306308746,97
1674113052.87958193,74514427,0,18.927873611450195,22.049745559692383,65.72669982910156,193.4364471435547,3.7982308864593506,0.0,0.04749777540564537,97
1674113052.97958088,74614426,0,18.893312454223633,22.00221061706543,65.45355987548828,195.25473022460938,3.8325841426849365,0.0,0.04749777540564537,97
1674113053.07957292,74714418,0,18.889768600463867,21.993391036987305,65.34247589111328,197.06982421875,3.866870641708374,0.0,0.04749777540564537,97
1674113053.17959499,74814440,0,18.859804153442383,21.985641479492188,65.81017303466797,198.8984375,3.901357889175415,0.0,0.04749777540564537,97
1674113053.27957487,74914420,0,18.88249397277832,21.984251022338867,65.30319213867188,200.7122039794922,3.9356062412261963,0.0,0.04749777540564537,97
1674113053.37965488,75014500,0,18.91332244873047,22.029949188232422,65.61467742919922,202.5364227294922,3.9701082706451416,0.0,0.0474989153444767,97
1674113053.47964001,75114485,0,18.930362701416016,22.038455963134766,65.4185791015625,204.35348510742188,4.004505634307861,0.0,0.04751085862517357,97
1674113053.57965493,75214500,0,18.953149795532227,22.046443939208984,65.08038330078125,206.16168212890625,4.038776874542236,0.0,0.04753037169575691,97
1674113053.67954493,75314390,0,18.905481338500977,21.970163345336914,64.47837829589844,207.950927734375,4.072603225708008,0.0,0.04753037169575691,97
1674113053.77970409,75414549,0,18.91111946105957,21.987565994262695,64.7259292602539,209.7510528564453,4.106645584106445,0.0,0.04753037169575691,97
1674113053.87959409,75514439,0,18.883834838867188,21.962135314941406,64.76490020751953,211.54908752441406,4.140599250793457,0.0,0.04753037169575691,97
1674113053.97957587,75614421,0,18.901355743408203,22.00534439086914,65.2979736328125,213.36273193359375,4.174879550933838,0.0,0.047535769641399384,97
1674113054.07963490,75714480,0,18.903078079223633,21.992843627929688,64.9987564086914,215.16946411132812,4.2090325355529785,0.0,0.047535769641399384,97
1674113054.17962503,75814470,0,18.867847442626953,21.956008911132812,64.96499633789062,216.9738006591797,4.243076324462891,0.0,0.047535769641399384,97
1674113054.27956891,75914414,0,18.847549438476562,21.964799880981445,65.50604248046875,218.79275512695312,4.2773590087890625,0.0,0.047587230801582336,97
1674113054.37957501,76014420,0,18.87598419189453,22.01396942138672,65.9832534790039,220.6258544921875,4.311960697174072,0.0,0.047557294368743896,97
1674113054.47965908,76114504,0,18.89800453186035,22.055532455444336,66.39418029785156,222.47183227539062,4.346846103668213,0.0,0.047557294368743896,97
1674113054.57956696,76214412,0,18.886226654052734,22.042320251464844,66.4431381225586,224.31594848632812,4.381674289703369,0.0,0.047500673681497574,97
1674113054.67960191,76314447,0,18.84429359436035,22.01656150817871,66.79988861083984,226.17230224609375,4.416656017303467,0.0,0.04748912155628204,97
1674113054.77957892,76414424,0,18.837305068969727,22.011520385742188,66.84468841552734,228.02882385253906,4.451627731323242,0.0,0.047486431896686554,97
1674113054.87958097,76514426,0,18.792308807373047,21.958898544311523,66.57156372070312,229.87820434570312,4.486382007598877,0.0,0.04756670817732811,97
1674113054.97959709,76614442,0,18.783693313598633,21.972352981567383,66.96131134033203,231.7386932373047,4.521328926086426,0.0,0.04761942848563194,97
1674113055.07959509,76714440,0,18.79259490966797,22.004549026489258,67.45356750488281,233.61253356933594,4.556543350219727,0.0,0.04761727154254913,97
1674113055.17953992,76814385,0,18.780149459838867,21.938867568969727,66.33556365966797,235.45431518554688,4.591132640838623,0.0,0.04761727154254913,97
1674113055.27955604,76914401,0,18.86296272277832,21.94732093811035,64.85420989990234,237.25625610351562,4.625122547149658,0.0,0.04755832254886627,97
1674113055.37966704,77014512,0,18.91080093383789,21.95083236694336,63.9764404296875,239.03549194335938,4.658769607543945,0.0,0.04751798138022423,97
1674113055.47968888,77114534,0,18.932086944580078,21.952611923217773,63.603946685791016,240.80279541015625,4.692228317260742,0.0,0.04748957231640816,96
1674113055.57959890,77214444,0,18.953628540039062,21.974363327026367,63.59933853149414,242.56719970703125,4.725670337677002,0.0,0.04749632626771927,96
1674113055.67960000,77314445,0,18.890918731689453,21.869897842407227,62.89411163330078,244.3149871826172,4.758687973022461,0.0,0.047364987432956696,96
1674113055.77958703,77414432,0,18.885461807250977,21.868074417114258,63.10739517211914,246.0680694580078,4.79179573059082,0.0,0.04726249724626541,96
1674113055.87957096,77514416,0,18.93534278869629,21.946569442749023,63.680049896240234,247.8368377685547,4.825287818908691,0.0,0.04728682339191437,96
1674113055.97956491,77614410,0,18.951997756958008,21.970523834228516,63.767208099365234,249.60818481445312,4.858858585357666,0.0,0.047336649149656296,96
1674113056.07957888,77714424,0,18.936107635498047,21.945472717285156,63.56650161743164,251.3743133544922,4.8923020362854,0.0,0.04734199121594429,96
1674113056.17957187,77814417,0,18.889101028442383,21.88477897644043,63.27741241455078,253.13201904296875,4.925503730773926,0.0,0.04734199121594429,96
1674113056.27958798,77914433,0,18.94367027282715,21.952556610107422,63.52169418334961,254.89695739746094,4.958938121795654,0.0,0.04736784100532532,96
1674113056.37960386,78014449,0,18.918779373168945,21.943111419677734,63.83779525756836,256.6705322265625,4.992492198944092,0.0,0.04737525060772896,96
1674113056.47962308,78114468,0,18.927778244018555,21.961706161499023,64.04034423828125,258.4500427246094,5.026174068450928,0.0,0.04737525060772896,96
1674113056.57959199,78214437,0,18.89723777770996,21.955875396728516,64.59029388427734,260.2438049316406,5.060070991516113,0.0,0.04735443741083145,96
1674113056.67960095,78314446,0,18.82131576538086,21.886699676513672,64.61084747314453,262.03826904296875,5.093845367431641,0.0,0.047443799674510956,96
1674113056.77956009,78414405,0,18.804468154907227,21.908306121826172,65.35504913330078,263.8536682128906,5.127983093261719,0.0,0.047491930425167084,96
1674113056.87956905,78514414,0,18.778522491455078,21.918685913085938,66.0811538696289,265.6895446777344,5.162458419799805,0.0,0.04751981422305107,96
1674113056.97960091,78614446,0,18.795063018798828,21.972562789916992,66.95018768310547,267.550048828125,5.1974263191223145,0.0,0.047460660338401794,96
1674113057.07957292,78714418,0,18.74836540222168,21.966297149658203,67.86571502685547,269.434814453125,5.232762336730957,0.0,0.04741615056991577,96
1674113057.17967296,78814518,0,18.70432472229004,21.9407901763916,68.25761413574219,271.3329162597656,5.268265247344971,0.0,0.04741545021533966,96
1674113057.27963805,78914483,0,18.668424606323242,21.92034149169922,68.53779602050781,273.23590087890625,5.30379056930542,0.0,0.04744706302881241,96
1674113057.37971902,79014564,0,18.665742874145508,21.9356746673584,68.91036224365234,275.1521301269531,5.339558124542236,0.0,0.047451965510845184,96
1674113057.47956300,79114408,0,18.70930290222168,21.9998779296875,69.48731231689453,277.0794677734375,5.375617504119873,0.0,0.047355055809020996,96
1674113057.57962489,79214470,0,18.630512237548828,21.913393020629883,69.255615234375,279.00457763671875,5.411482810974121,0.0,0.047402385622262955,96
1674113057.67954302,79314388,0,18.610023498535156,21.895849227905273,69.21356964111328,280.9257507324219,5.447236061096191,0.0,0.0474737174808979,96
1674113057.77958608,79414431,0,18.632713317871094,21.93958282470703,69.66162872314453,282.86181640625,5.483309745788574,0.0,0.047470446676015854,96
1674113057.87956691,79514412,0,18.625926971435547,21.914953231811523,69.23344421386719,284.7847595214844,5.5191264152526855,0.0,0.04750632122159004,96
1674113057.97957897,79614424,0,18.69839096069336,21.99159049987793,69.32128143310547,286.7107238769531,5.55513858795166,0.0,0.04750632122159004,96
1674113058.07962489,79714470,0,18.723569869995117,21.98341178894043,68.61912536621094,288.6178283691406,5.590846538543701,0.0,0.04750632122159004,96
1674113058.17959690,79814442,0,18.705472946166992,21.923128128051758,67.78377532958984,290.5003356933594,5.626059532165527,0.0,0.04746939614415169,96
1674113058.27962899,79914474,0,18.708345413208008,21.90901756286621,67.49192810058594,292.3758850097656,5.6611480712890625,0.0,0.047423023730516434,96
1674113058.37955308,80014398,0,18.70097541809082,21.89119529724121,67.35443878173828,294.24554443359375,5.696112632751465,0.0,0.047364652156829834,96
1674113058.47962999,80114475,0,18.713611602783203,21.87364387512207,66.81185150146484,296.10302734375,5.730872631072998,0.0,0.04729747399687767,96
1674113058.57961488,80214460,0,18.703369140625,21.83346939086914,66.32389831542969,297.9452209472656,5.7653279304504395,0.0,0.047194160521030426,96
1674113058.67958689,80314432,0,18.723047256469727,21.85380744934082,66.41109466552734,299.7895812988281,5.799860000610352,0.0,0.04714212566614151,96
1674113058.77956986,80414415,0,18.67244529724121,21.765270233154297,65.60639953613281,301.6117858886719,5.8338847160339355,0.0,0.04714212566614151,96
1674113058.87959099,80514436,0,18.678476333618164,21.796676635742188,66.1446762084961,303.4497375488281,5.8682146072387695,0.0,0.04714212566614151,96
1674113058.97959590,80614441,0,18.725099563598633,21.876699447631836,66.80970764160156,305.3058166503906,5.902969837188721,0.0,0.04717279225587845,96
1674113059.07957006,80714415,0,18.740800857543945,21.869230270385742,66.29934692382812,307.1471252441406,5.9374775886535645,0.0,0.04718641936779022,96
1674113059.17954993,80814395,0,18.72892951965332,21.84650230407715,66.09619140625,308.98291015625,5.971859931945801,0.0,0.04716721922159195,96
1674113059.27956796,80914413,0,18.70537757873535,21.814077377319336,65.9080581665039,310.81414794921875,6.0061140060424805,0.0,0.04716721922159195,96
1674113059.37958503,81014430,0,18.69293212890625,21.80514907836914,65.9826431274414,312.6474609375,6.040384292602539,0.0,0.04716721922159195,96
1674113059.47957397,81114419,0,18.68967628479004,21.816152572631836,66.28491973876953,314.4886474609375,6.074795246124268,0.0,0.04716721922159195,96
1674113059.57957888,81214424,0,18.711347579956055,21.804332733154297,65.63671112060547,316.3121337890625,6.108915328979492,0.0,0.047122806310653687,96
1674113059.67965388,81314499,0,18.69542121887207,21.756406784057617,64.95762634277344,318.1180114746094,6.142676830291748,0.0,0.047122806310653687,96
1674113059.77953100,81414376,0,18.65262794494629,21.71453857421875,64.9772720336914,319.9208679199219,6.176304817199707,0.0,0.047122806310653687,96
1674113059.87961388,81514459,0,18.723281860351562,21.802541732788086,65.34217071533203,321.7375793457031,6.210319519042969,0.0,0.04712514206767082,95
1674113059.97956395,81614409,0,18.71715545654297,21.802753448486328,65.47381591796875,323.5555419921875,6.244346618652344,0.0,0.04712719842791557,95
1674113060.07965994,81714505,0,18.704805374145508,21.796194076538086,65.60639953613281,325.37982177734375,6.278469562530518,0.0,0.04712022468447685,95
1674113060.17960095,81814446,0,18.697050094604492,21.788148880004883,65.60025787353516,327.20111083984375,6.3125224113464355,0.0,0.04712022468447685,95
1674113060.27960110,81914446,0,18.68967628479004,21.780269622802734,65.58951568603516,329.023193359375,6.346576690673828,0.0,0.04712022468447685,95
1674113060.37959290,82014438,0,18.733154296875,21.861398696899414,66.38858795166016,330.8673095703125,6.381123065948486,0.0,0.04712022468447685,95
1674113060.47960091,82114446,0,18.69379425048828,21.810340881347656,66.14928436279297,332.705078125,6.415478229522705,0.0,0.047113846987485886,95
1674113060.57958007,82214425,0,18.74022674560547,21.8829288482666,66.70443725585938,334.5577087402344,6.450197219848633,0.0,0.047113846987485886,95
1674113060.67955804,82314403,0,18.743865966796875,21.872833251953125,66.41289520263672,336.40228271484375,6.484771251678467,0.0,0.047113846987485886,95
1674113060.77958894,82414434,0,18.706146240234375,21.812847137451172,65.94029235839844,338.2346496582031,6.519047737121582,0.0,0.047113846987485886,95
1674113060.87956691,82514412,0,18.766460418701172,21.88608741760254,66.21464538574219,340.0736999511719,6.553560256958008,0.0,0.047113846987485886,95
1674113060.97958207,82614427,0,18.723953247070312,21.849811553955078,66.34691619873047,341.9170837402344,6.588075637817383,0.0,0.047113846987485886,95
1674113061.07956886,82714414,0,18.726633071899414,21.8689022064209,66.69523620605469,343.7696533203125,6.622767925262451,0.0,0.047113846987485886,95
1674113061.17958093,82814426,0,18.623332977294922,21.764572143554688,66.49882507324219,345.6172180175781,6.657175540924072,0.0,0.04723752662539482,95
1674113061.27961898,82914464,0,18.64198875427246,21.80264663696289,66.83357238769531,347.47454833984375,6.691799640655518,0.0,0.047291483730077744,95
1674113061.37954497,83014390,0,18.689199447631836,21.873117446899414,67.4127426147461,349.3459167480469,6.726773738861084,0.0,0.04723022133111954,95
1674113061.47957087,83114416,0,18.728450775146484,21.916805267333984,67.50665283203125,351.2217102050781,6.761904716491699,0.0,0.04723022133111954,95
1674113061.57963490,83214480,0,18.754587173461914,21.926359176635742,67.15557098388672,353.0885009765625,6.796915531158447,0.0,0.04723022133111954,95
1674113061.67963004,83314475,0,18.75152587890625,21.892969131469727,66.45893096923828,354.93463134765625,6.831533432006836,0.0,0.04726894572377205,95
1674113061.77964592,83414491,0,18.756120681762695,21.89140510559082,66.2901382446289,356.7764587402344,6.866079330444336,0.0,0.04729638248682022,95
1674113061.87970901,83514554,0,18.7011661529541,21.81829261779785,65.9062271118164,358.6084899902344,6.900340557098389,0.0,0.04729638248682022,95
1674113061.97958493,83614430,0,18.729887008666992,21.83577537536621,65.72301483154297,360.4320068359375,6.934494972229004,0.0,0.04725724458694458,95
1674113062.07959390,83714439,0,18.632949829101562,21.721078872680664,65.34721374511719,362.2475280761719,6.968323230743408,0.0,0.04725724458694458,95
1674113062.17957401,83814419,0,18.61998176574707,21.718271255493164,65.56220245361328,364.0684814453125,7.0022292137146,0.0,0.04725724458694458,95
1674113062.27957392,83914419,0,18.591737747192383,21.698265075683594,65.73651885986328,365.8946533203125,7.03618049621582,0.0,0.04725724458694458,95
1674113062.37957191,84014417,0,18.654159545898438,21.794511795043945,66.44788360595703,367.74053955078125,7.070613861083984,0.0,0.047260385006666183,95
1674113062.47957492,84114420,0,18.682497024536133,21.81224822998047,66.22354888916016,369.58026123046875,7.104984760284424,0.0,0.047260385006666183,95
1674113062.57958508,84214430,0,18.732280731201172,21.858898162841797,66.0483169555664,371.415283203125,7.139358997344971,0.0,0.047338321805000305,95
1674113062.67957997,84314425,0,18.71255874633789,21.804792404174805,65.33724975585938,373.2302551269531,7.173321723937988,0.0,0.04732726886868477,95
1674113062.77966189,84414507,0,18.698293685913086,21.78290557861328,65.22708892822266,375.0431213378906,7.20721960067749,0.0,0.047290340065956116,95
1674113062.87961197,84514457,0,18.73218536376953,21.832094192504883,65.50082397460938,376.8612976074219,7.241278171539307,0.0,0.04732627049088478,95
1674113062.97954106,84614386,0,18.70496368408203,21.78621482849121,65.15113830566406,378.6710510253906,7.275129318237305,0.0,0.04729388654232025,95
1674113063.07955599,84714401,0,18.713132858276367,21.806968688964844,65.41397094726562,380.488525390625,7.309139728546143,0.0,0.047296248376369476,95
1674113063.17967606,84814521,0,18.680391311645508,21.772905349731445,65.38604736328125,382.30694580078125,7.343108654022217,0.0,0.047296248376369476,95
1674113063.27959895,84914444,0,18.62821388244629,21.709566116333008,65.15005493164062,384.1156005859375,7.376800537109375,0.0,0.047296248376369476,95
1674113063.37959909,85014444,0,18.665552139282227,21.788375854492188,66.0342025756836,385.95001220703125,7.411040782928467,0.0,0.04729101434350014,95
1674113063.47962904,85114474,0,18.646020889282227,21.767078399658203,65.95686340332031,387.7828674316406,7.445216178894043,0.0,0.047319669276475906,95
1674113063.57958794,85214433,0,18.6616268157959,21.781082153320312,65.9169692993164,389.61328125,7.479374885559082,0.0,0.047324009239673615,95
1674113063.67970395,85314549,0,18.632522583007812,21.755855560302734,65.93814086914062,391.447021484375,7.513542175292969,0.0,0.047367628663778305,95
1674113063.77957892,85414424,0,18.588802337646484,21.713207244873047,65.81197357177734,393.27313232421875,7.547487258911133,0.0,0.04747471213340759,95
1674113063.87966990,85514515,0,18.71734619140625,21.902463912963867,67.0908203125,395.1386413574219,7.582404613494873,0.0,0.04747471213340759,95
1674113063.97953606,85614381,0,18.649755477905273,21.820167541503906,66.8324203491211,396.9927673339844,7.616983413696289,0.0,0.04743824154138565,95
1674113064.07955503,85714400,0,18.655115127563477,21.821331024169922,66.79375457763672,398.8486633300781,7.651605129241943,0.0,0.047402869910001755,95
1674113064.17956710,85814412,0,18.617971420288086,21.764568328857422,66.30058288574219,400.6907043457031,7.6859002113342285,0.0,0.047459572553634644,94
1674113064.27958798,85914433,0,18.635107040405273,21.792428970336914,66.51478576660156,402.53887939453125,7.720341205596924,0.0,0.04746795818209648,94
1674113064.37961888,86014464,0,18.668710708618164,21.85858917236328,67.20068359375,404.4062805175781,7.7552032470703125,0.0,0.04746795818209648,94
1674113064.47953391,86114379,0,18.68613624572754,21.852140426635742,66.69769287109375,406.2575378417969,7.789796352386475,0.0,0.04746795818209648,94
1674113064.57960606,86214451,0,18.66092300415039,21.804718017578125,66.24844360351562,408.0992431640625,7.824164390563965,0.0,0.04745461046695709,94
1674113064.67960191,86314447,0,18.604087829589844,21.732210159301758,65.91819763183594,409.9303894042969,7.858231544494629,0.0,0.04745461046695709,94
1674113064.77958202,86414427,0,18.657222747802734,21.81635093688965,66.57156372070312,411.7793884277344,7.892728328704834,0.0,0.04745461046695709,94
1674113064.87962103,86514466,0,18.72797203063965,21.9005126953125,66.85420989990234,413.6373291015625,7.927523612976074,0.0,0.04745461046695709,94
1674113064.97961187,86614457,0,18.80312728881836,21.972171783447266,66.78054809570312,415.4923400878906,7.962403297424316,0.0,0.04745461046695709,94
1674113065.07961488,86714460,0,18.80169105529785,21.960920333862305,66.5737075805664,417.3418273925781,7.997176647186279,0.0,0.04745461046695709,94
1674113065.17960310,86814448,0,18.719261169433594,21.85330581665039,66.06150817871094,419.1767883300781,8.031525611877441,0.0,0.047441303730010986,94
1674113065.27959108,86914436,0,18.695039749145508,21.845317840576172,66.4036865234375,421.0212707519531,8.066008567810059,0.0,0.047441303730010986,94
1674113065.37957907,87014424,0,18.67742347717285,21.84947967529297,66.84284973144531,422.8779296875,8.100686073303223,0.0,0.04745543375611305,94
1674113065.47957587,87114421,0,18.755809783935547,21.944351196289062,67.19024658203125,424.7444152832031,8.135693550109863,0.0,0.04745543375611305,94
1674113065.57958388,87214429,0,18.761672973632812,21.93799591064453,66.93276977539062,426.6039733886719,8.170581817626953,0.0,0.04745543375611305,94
1674113065.67956209,87314407,0,18.708824157714844,21.87040901184082,66.6221923828125,428.454345703125,8.2052001953125,0.0,0.04745543375611305,94
1674113065.77958202,87414427,0,18.69169044494629,21.866512298583984,66.86894226074219,430.31231689453125,8.23992919921875,0.0,0.047478269785642624,94
1674113065.87960386,87514449,0,18.69302749633789,21.870590209960938,66.90606689453125,432.17138671875,8.274681091308594,0.0,0.04749288409948349,94
1674113065.97964001,87614485,0,18.700592041015625,21.87439727783203,66.81645965576172,434.0282287597656,8.309405326843262,0.0,0.04750034958124161,94
1674113066.07959008,87714435,0,18.675796508789062,21.86431884765625,67.09419250488281,435.89044189453125,8.344183921813965,0.0,0.04752308875322342,94
1674113066.17968798,87814533,0,18.649372100830078,21.8358097076416,66.95762634277344,437.7530517578125,8.378920555114746,0.0,0.047588881105184555,94
1674113066.27960396,87914449,0,18.68975257873535,21.8841609954834,67.14694213867188,439.6168518066406,8.4137544631958,0.0,0.04757338762283325,94
1674113066.37961793,88014463,0,18.699729919433594,21.88916015625,67.04232788085938,441.47955322265625,8.448586463928223,0.0,0.04757338762283325,94
1674113066.47958398,88114429,0,18.782543182373047,21.956462860107422,66.57247924804688,443.32830810546875,8.48331069946289,0.0,0.04767613857984543,94
1674113066.57961297,88214458,0,18.798053741455078,21.94475555419922,65.91451263427734,445.15960693359375,8.517735481262207,0.0,0.04773914813995361,94
1674113066.67961192,88314457,0,18.751047134399414,21.87378692626953,65.4735107421875,446.978759765625,8.551846504211426,0.0,0.047694697976112366,94
1674113066.77954388,88414389,0,18.711410522460938,21.818883895874023,65.15342712402344,448.7875061035156,8.58569049835205,0.0,0.047694697976112366,94
1674113066.87958407,88514429,0,18.704710006713867,21.84117889404297,65.7613754272461,450.6150817871094,8.619874954223633,0.0,0.047694697976112366,94
1674113066.97957587,88614421,0,18.70020866394043,21.82379722595215,65.4913101196289,452.4342956542969,8.653894424438477,0.0,0.047694697976112366,94
1674113067.07963896,88714484,0,18.648509979248047,21.79924964904785,66.06059265136719,454.2706298828125,8.688138961791992,0.0,0.047694697976112366,94
1674113067.17957592,88814421,0,18.604122161865234,21.742874145507812,65.80924224853516,456.09765625,8.722128868103027,0.0,0.047694697976112366,94
1674113067.27957892,88914424,0,18.645158767700195,21.809005737304688,66.2705078125,457.938720703125,8.756455421447754,0.0,0.04774139076471329,94
1674113067.37958694,89014432,0,18.667179107666016,21.846925735473633,66.62680053710938,459.78973388671875,8.791008949279785,0.0,0.04772472754120827,94
1674113067.47960591,89114451,0,18.694942474365234,21.864582061767578,66.41504669189453,461.634765625,8.825501441955566,0.0,0.04772472754120827,94
1674113067.57961106,89214456,0,18.64535140991211,21.783384323120117,65.75277709960938,463.4618225097656,8.859567642211914,0.0,0.04772472754120827,94
1674113067.67952609,89314371,0,18.658275604248047,21.80698585510254,65.97650146484375,465.2930908203125,8.893735885620117,0.0,0.04772472754120827,94
1674113067.77961588,89414461,0,18.653202056884766,21.82149887084961,66.37300109863281,467.1381530761719,8.928152084350586,0.0,0.047734711319208145,94
1674113067.87960505,89514450,0,18.67474365234375,21.84667205810547,66.44911193847656,468.9843444824219,8.962629318237305,0.0,0.047734711319208145,94
1674113067.97963595,89614481,0,18.672733306884766,21.832107543945312,66.18331146240234,470.823486328125,8.996971130371094,0.0,0.047736719250679016,94
1674113068.07967210,89714517,0,18.650808334350586,21.818485260009766,66.33003234863281,472.66680908203125,9.031350135803223,0.0,0.04775628820061684,94
1674113068.17968106,89814526,0,18.605905532836914,21.75461769104004,65.93292999267578,474.49859619140625,9.06543254852295,0.0,0.04775628820061684,94
1674113068.27958107,89914426,0,18.54894256591797,21.726627349853516,66.34140014648438,476.3396911621094,9.09958267211914,0.0,0.04789895936846733,94
1674113068.37957287,90014418,0,18.51390266418457,21.735416412353516,67.09174346923828,478.2033386230469,9.134086608886719,0.0,0.048016540706157684,94
1674113068.47957897,90114424,0,18.492170333862305,21.765823364257812,68.09188842773438,480.0950622558594,9.169068336486816,0.0,0.04807697609066963,93
1674113068.57962608,90214471,0,18.49666976928711,21.79932975769043,68.69123840332031,482.00421142578125,9.204380989074707,0.0,0.04807979241013527,93
1674113068.67957807,90314423,0,18.529125213623047,21.83600616455078,68.85819244384766,483.9161682128906,9.239808082580566,0.0,0.048024505376815796,93
1674113068.77956605,90414411,0,18.493701934814453,21.798770904541016,68.80925750732422,485.82745361328125,9.275155067443848,0.0,0.04803232476115227,93
1674113068.87960100,90514446,0,18.51849937438965,21.842226028442383,69.28630065917969,487.75286865234375,9.310811042785645,0.0,0.04797091335058212,93
1674113068.97959805,90614443,0,18.465364456176758,21.777259826660156,68.97357940673828,489.6689147949219,9.34619140625,0.0,0.048016857355833054,93
1674113069.07972407,90714569,0,18.48776626586914,21.8193302154541,69.41796112060547,491.5997619628906,9.381888389587402,0.0,0.04799282178282738,93
1674113069.17960691,90814452,0,18.398347854614258,21.70329475402832,68.63323974609375,493.5028991699219,9.416902542114258,0.0,0.04815373197197914,93
1674113069.27956390,90914409,0,18.433866500854492,21.783002853393555,69.51800537109375,495.43450927734375,9.452509880065918,0.0,0.048176541924476624,93
1674113069.37961292,91014458,0,18.469385147094727,21.826997756958008,69.76412200927734,497.37359619140625,9.488323211669922,0.0,0.048128075897693634,93
1674113069.47962499,91114470,0,18.44219398498535,21.7698917388916,69.07730865478516,499.29278564453125,9.523717880249023,0.0,0.04817352443933487,93
1674113069.57954288,91214388,0,18.46632194519043,21.79184913635254,69.02176666259766,501.2086181640625,9.559096336364746,0.0,0.04818084090948105,93
1674113069.67962098,91314466,0,18.455087661743164,21.757495880126953,68.54193115234375,503.1142272949219,9.594264030456543,0.0,0.04818084090948105,93
1674113069.77962208,91414467,0,18.46143913269043,21.753076553344727,68.31837463378906,505.0121154785156,9.629302024841309,0.0,0.04818084090948105,93
1674113069.87957191,91514417,0,18.48508644104004,21.772228240966797,68.2459487915039,506.9070739746094,9.66433048248291,0.0,0.048166096210479736,93
1674113069.97958207,91614427,0,18.495616912841797,21.757965087890625,67.77302551269531,508.78997802734375,9.699155807495117,0.0,0.048136383295059204,93
1674113070.07959008,91714435,0,18.48585319519043,21.727317810058594,67.42655181884766,510.6632385253906,9.733784675598145,0.0,0.048074010759592056,93
1674113070.17966700,91814512,0,18.483745574951172,21.728164672851562,67.55299377441406,512.5413208007812,9.768498420715332,0.0,0.04802776500582695,93
1674113070.27956104,91914406,0,18.478288650512695,21.70011329650879,67.08252716064453,514.4028930664062,9.802897453308105,0.0,0.04802776500582695,93
1674113070.37956905,92014414,0,18.523860931396484,21.75348472595215,67.23137664794922,516.2705078125,9.837492942810059,0.0,0.04803745076060295,93
1674113070.47957492,92114420,0,18.560293197631836,21.777212142944336,66.91370391845703,518.1296997070312,9.872000694274902,0.0,0.04807564988732338,93
1674113070.57957506,92214420,0,18.594131469726562,21.776792526245117,66.161865234375,519.9676513671875,9.90617561340332,0.0,0.04810415208339691,93
1674113070.67963290,92314478,0,18.61921501159668,21.77964210510254,65.6650161743164,521.7928466796875,9.940159797668457,0.0,0.04812953621149063,93
1674113070.77953005,92414375,0,18.66899871826172,21.833280563354492,65.62358093261719,523.614013671875,9.974159240722656,0.0,0.04821866750717163,93
1674113070.87961602,92514461,0,18.70355987548828,21.88248634338379,65.74755859375,525.4420776367188,10.008350372314453,0.0,0.048350490629673004,93
1674113070.97964907,92614494,0,18.6811580657959,21.85567855834961,65.56773376464844,527.26416015625,10.042388916015625,0.0,0.0484158955514431,93
1674113071.07960391,92714449,0,18.722227096557617,21.927522659301758,66.00811004638672,529.0970458984375,10.076704025268555,0.0,0.048559125512838364,93
1674113071.17952490,92814370,0,18.67244529724121,21.870431900024414,65.81047821044922,530.923828125,10.110815048217773,0.0,0.04859386757016182,93
1674113071.27961993,92914465,0,18.65013885498047,21.84182357788086,65.69539642333984,532.750244140625,10.144878387451172,0.0,0.048583079129457474,93
1674113071.37958002,93014425,0,18.689964294433594,21.88617706298828,65.72161865234375,534.5755615234375,10.178993225097656,0.0,0.04863259941339493,93
1674113071.47954988,93114395,0,18.633480072021484,21.85158348083496,66.15971374511719,536.4129028320312,10.213229179382324,0.0,0.04864143580198288,93
1674113071.57959700,93214442,0,18.63156509399414,21.860759735107422,66.39633178710938,538.25830078125,10.247611045837402,0.0,0.04863514006137848,93
1674113071.67957592,93314421,0,18.5129451751709,21.720632553100586,65.95409393310547,540.0901489257812,10.281523704528809,0.0,0.04863514006137848,93
1674113071.77957988,93414425,0,18.571060180664062,21.803922653198242,66.40644836425781,541.9349975585938,10.315784454345703,0.0,0.04868295416235924,93
1674113071.87955689,93514402,0,18.54654884338379,21.766443252563477,66.14008331298828,543.77197265625,10.349853515625,0.0,0.04868295416235924,93
1674113071.97957802,93614423,0,18.56675148010254,21.80164909362793,66.40675354003906,545.6171264648438,10.384112358093262,0.0,0.04871337115764618,93
1674113072.07954693,93714392,0,18.542911529541016,21.777324676513672,66.30670928955078,547.4585571289062,10.418257713317871,0.0,0.04877958446741104,93
1674113072.17961502,93814460,0,18.52263641357422,21.748403549194336,66.12944030761719,549.2968139648438,10.452306747436523,0.0,0.04877958446741104,93
1674113072.27954006,93914385,0,18.48192596435547,21.723112106323242,66.2711181640625,551.1365356445312,10.486308097839355,0.0,0.04890798404812813,93
1674113072.37955689,94014402,0,18.527400970458984,21.804561614990234,67.02022552490234,552.9986572265625,10.520808219909668,0.0,0.048898085951805115,93
1674113072.47960091,94114446,0,18.461917877197266,21.72243881225586,66.51663208007812,554.8467407226562,10.554927825927734,0.0,0.049018118530511856,93
1674113072.57963204,94214477,0,18.474651336669922,21.766925811767578,67.10892486572266,556.712158203125,10.589390754699707,0.0,0.049058668315410614,93
1674113072.67964101,94314486,0,18.469289779663086,21.77712059020996,67.39678192138672,558.5845947265625,10.623973846435547,0.0,0.049079954624176025,93
1674113072.77959895,94414444,0,18.437599182128906,21.73501205444336,67.06718444824219,560.44677734375,10.658308029174805,0.0,0.049165815114974976,92
1674113072.87958789,94514433,0,18.532093048095703,21.867740631103516,67.8448486328125,562.3314208984375,10.693235397338867,0.0,0.049165815114974976,92
1674113072.97957397,94614419,0,18.48944664001465,21.81281280517578,67.62500762939453,564.2097778320312,10.727965354919434,0.0,0.04914405196905136,92
1674113073.07954001,94714385,0,18.50710678100586,21.850160598754883,68.02559661865234,566.098876953125,10.762927055358887,0.0,0.04914405196905136,92
1674113073.17957807,94814423,0,18.451194763183594,21.762603759765625,67.28292846679688,567.9686889648438,10.797428131103516,0.0,0.049216195940971375,92
1674113073.27956295,94914408,0,18.43788719177246,21.77076530456543,67.64537048339844,569.8475952148438,10.832071304321289,0.0,0.04926986247301102,92
1674113073.37961197,95014457,0,18.478862762451172,21.844627380371094,68.40583801269531,571.7482299804688,10.867193222045898,0.0,0.04920289292931557,92
1674113073.47956491,95114410,0,18.49504280090332,21.872886657714844,68.6513442993164,573.655029296875,10.902460098266602,0.0,0.04920289292931557,92
1674113073.57959008,95214435,0,18.505765914916992,21.84650993347168,67.89732360839844,575.5416870117188,10.937374114990234,0.0,0.04920289292931557,92
1674113073.67958903,95314434,0,18.47780990600586,21.779203414916992,67.09756469726562,577.4056396484375,10.971816062927246,0.0,0.04920289292931557,92
1674113073.77960300,95414448,0,18.46660804748535,21.761661529541016,66.96868133544922,579.2662963867188,11.006175994873047,0.0,0.04920289292931557,92
1674113073.87957907,95514424,0,18.44136619567871,21.73822784423828,67.00543212890625,581.1272583007812,11.040494918823242,0.0,0.04920289292931557,92
1674113073.97955894,95614404,0,18.415006637573242,21.71735191345215,67.11689758300781,582.9912719726562,11.074820518493652,0.0,0.04920289292931557,92
1674113074.07960701,95714452,0,18.40753746032715,21.73354148864746,67.49375915527344,584.8672485351562,11.109353065490723,0.0,0.04927867650985718,92
1674113074.17959309,95814438,0,18.442672729492188,21.76922035217285,67.48609161376953,586.7417602539062,11.14392375946045,0.0,0.049292340874671936,92
1674113074.27959108,95914436,0,18.43539810180664,21.756000518798828,67.365478515625,588.6131591796875,11.178422927856445,0.0,0.049292340874671936,92
1674113074.37966990,96014515,0,18.510744094848633,21.846580505371094,67.67452239990234,590.49462890625,11.213250160217285,0.0,0.049292340874671936,92
1674113074.47968197,96114527,0,18.502222061157227,21.825708389282227,67.35321044921875,592.365966796875,11.247873306274414,0.0,0.04934414103627205,92
1674113074.57956600,96214411,0,18.545400619506836,21.883045196533203,67.64014434814453,594.2427978515625,11.28268051147461,0.0,0.04934414103627205,92
1674113074.67956209,96314407,0,18.528167724609375,21.821361541748047,66.7193374633789,596.09619140625,11.317020416259766,0.0,0.04935891181230545,92
1674113074.77956295,96414408,0,18.51399803161621,21.785871505737305,66.33433532714844,597.9390258789062,11.3511381149292,0.0,0.04932398721575737,92
1674113074.87958908,96514434,0,18.48776626586914,21.771461486816406,66.57401275634766,599.7889404296875,11.38533878326416,0.0,0.04932398721575737,92
1674113074.97955704,96614402,0,18.51792335510254,21.807809829711914,66.6866455078125,601.6409301757812,11.419632911682129,0.0,0.04933350533246994,92
1674113075.07957101,96714416,0,18.488819122314453,21.77696418762207,66.65135192871094,603.4927368164062,11.45387077331543,0.0,0.04933350533246994,92
