timestamp,TimeUS,Instance,Volt,VoltR,Curr,CurrTot,EnrgTot,Temp,Res,RemPct
1674112508.83997798,76160127,0,22.919095993041992,22.973251342773438,0.5284626483917236,10.903191566467285,0.2496567666530609,0.0,0.10247717052698135,99
1674112508.93996716,76260116,0,22.862321853637695,22.903425216674805,0.40110376477241516,10.91433334350586,0.24991148710250854,0.0,0.10247717052698135,99
1674112509.03993702,76360086,0,22.862703323364258,22.903053283691406,0.39373844861984253,10.925268173217773,0.2501614987850189,0.0,0.10247717052698135,99
1674112509.13992405,76460073,0,22.914976119995117,22.96818733215332,0.5192559361457825,10.939691543579102,0.25049200654029846,0.0,0.10247717052698135,99
1674112509.23998809,76560137,0,22.92081642150879,22.97380828857422,0.5171077251434326,10.954066276550293,0.25082147121429443,0.0,0.10247717052698135,99
1674112509.33994913,76660098,0,22.899948120117188,22.94919776916504,0.48058798909187317,10.967411994934082,0.25112709403038025,0.0,0.10247717052698135,99
1674112509.43994212,76760091,0,22.872182846069336,22.915237426757812,0.42013081908226013,10.979082107543945,0.25139403343200684,0.0,0.10247717052698135,99
1674112509.53989315,76860042,0,22.904733657836914,22.955209732055664,0.4925566017627716,10.992758750915527,0.2517072856426239,0.0,0.10247717052698135,99
1674112509.63993216,76960081,0,22.907752990722656,22.959468841552734,0.5046616792678833,11.006783485412598,0.25202855467796326,0.0,0.10247717052698135,99
1674112509.73996115,77060110,0,22.919191360473633,22.972843170166016,0.5235524773597717,11.021331787109375,0.2523619830608368,0.0,0.10247717052698135,99
1674112509.83990812,77160057,0,22.87763786315918,22.921730041503906,0.430258184671402,11.033276557922363,0.25263524055480957,0.0,0.10247717052698135,99
1674112509.93998194,77260131,0,22.89362907409668,22.941619873046875,0.46831244230270386,11.046297073364258,0.2529333233833313,0.0,0.10247717052698135,99
1674112510.03991795,77360067,0,22.891809463500977,22.939172744750977,0.462174654006958,11.059126853942871,0.25322702527046204,0.0,0.10247717052698135,99
1674112510.13997912,77460128,0,22.914020538330078,22.966320037841797,0.5103561878204346,11.073314666748047,0.2535521388053894,0.0,0.10247717052698135,99
1674112510.23993111,77560080,0,22.90683937072754,22.958415985107422,0.503297746181488,11.087289810180664,0.25387224555015564,0.0,0.10247717052698135,99
1674112510.33996201,77660111,0,22.87103271484375,22.914714813232422,0.426268607378006,11.099135398864746,0.2541431486606598,0.0,0.10247717052698135,99
1674112510.43997908,77760128,0,22.889699935913086,22.937000274658203,0.46156084537506104,11.111959457397461,0.2544367015361786,0.0,0.10247717052698135,99
1674112510.53994799,77860097,0,22.917009353637695,22.970613479614258,0.5230750441551208,11.126485824584961,0.25476962327957153,0.0,0.10247717052698135,99
1674112510.63994598,77960095,0,22.919477462768555,22.973161697387695,0.5238593220710754,11.141037940979004,0.2551031708717346,0.0,0.10247717052698135,99
1674112510.73995900,78060108,0,22.91172218322754,22.963455200195312,0.5048321485519409,11.15506362915039,0.25542452931404114,0.0,0.10247717052698135,99
1674112510.83998513,78160134,0,22.899179458618164,22.94801902770996,0.4765984117984772,11.168307304382324,0.2557277977466583,0.0,0.10247717052698135,99
1674112510.93996501,78260114,0,22.87285041809082,22.916501998901367,0.42596176266670227,11.18013858795166,0.2559984028339386,0.0,0.10247717052698135,99
1674112511.03995705,78360106,0,22.865575790405273,23.005674362182617,1.4089268445968628,11.21927547454834,0.2568932771682739,0.0,0.09943577647209167,99
1674112511.13993311,78460082,0,22.73202133178711,23.00901985168457,4.534590244293213,11.34521484375,0.2597561478614807,0.0,0.06108555570244789,99
1674112511.23995399,78560103,0,22.802005767822266,22.982755661010742,3.00352144241333,11.428670883178711,0.2616591155529022,0.0,0.06017904728651047,99
1674112511.33996916,78660118,0,22.797868728637695,22.918581008911133,1.9821611642837524,11.483743667602539,0.26291465759277344,0.0,0.06089898571372032,99
1674112511.43995905,78760108,0,22.81550407409668,22.93206214904785,1.9042454957962036,11.536638259887695,0.26412147283554077,0.0,0.061209212988615036,99
1674112511.53990197,78860051,0,22.82900619506836,22.951765060424805,2.0116565227508545,11.592490196228027,0.26539650559425354,0.0,0.061023496091365814,99
1674112511.63994217,78960091,0,22.857248306274414,22.97764778137207,1.9729886054992676,11.647315979003906,0.26664966344833374,0.0,0.061023496091365814,99
1674112511.73998308,79060132,0,22.848342895507812,22.96259880065918,1.8723288774490356,11.699356079101562,0.2678386867046356,0.0,0.061023496091365814,99
1674112511.83993316,79160082,0,22.808900833129883,22.914766311645508,1.7348427772521973,11.747526168823242,0.2689373791217804,0.0,0.061023496091365814,99
1674112511.93997598,79260125,0,22.83829116821289,22.946535110473633,1.7735108137130737,11.796815872192383,0.2700630724430084,0.0,0.061033349484205246,99
1674112512.03997207,79360121,0,22.863182067871094,22.973541259765625,1.8081892728805542,11.847044944763184,0.2712114751338959,0.0,0.061033349484205246,99
1674112512.13996410,79460113,0,22.849685668945312,22.958873748779297,1.7839449644088745,11.896598815917969,0.2723437547683716,0.0,0.06120622903108597,99
1674112512.23996115,79560110,0,22.85765266418457,22.96855926513672,1.812008261680603,11.946934700012207,0.27349433302879333,0.0,0.06120622903108597,99
1674112512.33995509,79660104,0,22.84556770324707,22.954587936401367,1.7814899682998657,11.996421813964844,0.27462488412857056,0.0,0.06119651719927788,99
1674112512.43998003,79760129,0,22.800762176513672,22.90409278869629,1.688502550125122,12.043339729309082,0.2756946384906769,0.0,0.06119651719927788,99
1674112512.53989100,79860040,0,22.835325241088867,22.94316291809082,1.7621558904647827,12.092243194580078,0.2768113613128662,0.0,0.06119651719927788,99
1674112512.63997006,79960119,0,22.855045318603516,22.965925216674805,1.8118720054626465,12.142621994018555,0.2779627740383148,0.0,0.06119651719927788,99
1674112512.73994017,80060089,0,22.862991333007812,22.974660873413086,1.824761152267456,12.193297386169434,0.27912136912345886,0.0,0.06119651719927788,99
1674112512.83996916,80160118,0,22.81885528564453,22.9246826171875,1.7293187379837036,12.241353034973145,0.2802179455757141,0.0,0.06119651719927788,99
1674112512.93992496,80260074,0,22.822589874267578,22.928924560546875,1.7376047372817993,12.289602279663086,0.28131911158561707,0.0,0.06119651719927788,99
1674112513.03998017,80360129,0,22.83765411376953,22.96721839904785,2.117192268371582,12.348444938659668,0.28266292810440063,0.0,0.06119651719927788,99
1674112513.13990712,80460056,0,22.762752532958984,23.00649642944336,4.252252101898193,12.466483116149902,0.2853497862815857,0.0,0.05732099711894989,99
1674112513.23993015,80560079,0,22.169370651245117,23.00571632385254,14.892702102661133,12.88034725189209,0.2945249080657959,0.0,0.05615809187293053,99
1674112513.33998013,80660129,0,22.32513427734375,22.929208755493164,10.715024948120117,13.178159713745117,0.301173597574234,0.0,0.056376416236162186,99
1674112513.43994713,80760096,0,22.454286575317383,22.93759536743164,8.553913116455078,13.415708541870117,0.30650758743286133,0.0,0.05650145187973976,99
1674112513.53998017,80860129,0,22.519390106201172,22.96884536743164,7.970824718475342,13.637210845947266,0.31149569153785706,0.0,0.0563875176012516,99
1674112513.63996696,80960116,0,22.474199295043945,22.967073440551758,8.754311561584473,13.880372047424316,0.31696054339408875,0.0,0.05630067363381386,99
1674112513.73997998,81060129,0,22.379610061645508,22.966176986694336,10.431459426879883,14.170198440551758,0.32344675064086914,0.0,0.05623061954975128,99
1674112513.83994603,81160095,0,22.372047424316406,22.929645538330078,9.880799293518066,14.44459342956543,0.3295855224132538,0.0,0.05643240734934807,99
1674112513.94000506,81260154,0,22.375877380371094,22.91103172302246,9.43130874633789,14.70674991607666,0.33545151352882385,0.0,0.05674227699637413,99
1674112514.03998494,81360134,0,22.397035598754883,22.93548011779785,9.47304630279541,14.969856262207031,0.34134429693222046,0.0,0.05683960020542145,99
1674112514.13996005,81460109,0,22.423362731933594,22.956520080566406,9.390799522399902,15.230581283569336,0.34719061851501465,0.0,0.056774526834487915,99
1674112514.23992515,81560074,0,22.413982391357422,22.956260681152344,9.56081485748291,15.496177673339844,0.35314369201660156,0.0,0.056718893349170685,99
1674112514.33996105,81660110,0,22.174251556396484,22.883731842041016,12.40352725982666,15.840871810913086,0.360787034034729,0.0,0.05719994753599167,99
1674112514.43998504,81760134,0,22.16802978515625,22.902019500732422,12.766576766967773,16.195608139038086,0.3686508536338806,0.0,0.057493019849061966,99
1674112514.53993702,81860086,0,22.191486358642578,22.921916961669922,12.679420471191406,16.54767608642578,0.37646377086639404,0.0,0.05760764330625534,99
1674112514.63996315,81960112,0,22.152997970581055,22.923748016357422,13.358565330505371,16.918872833251953,0.3846869170665741,0.0,0.05769708380103111,99
1674112514.73990607,82060055,0,22.066322326660156,22.899599075317383,14.377402305603027,17.318017959594727,0.393494576215744,0.0,0.05795738473534584,99
1674112514.83997512,82160124,0,22.053909301757812,22.86331558227539,13.845598220825195,17.702945709228516,0.40198370814323425,0.0,0.05845944210886955,99
1674112514.93992996,82260079,0,22.067312240600586,22.890653610229492,14.02359390258789,18.092342376708984,0.41057664155960083,0.0,0.05871114879846573,99
1674112515.03997302,82360122,0,21.95798110961914,22.918996810913086,16.363927841186523,18.547128677368164,0.4205628037452698,0.0,0.058727677911520004,99
1674112515.13997197,82460121,0,21.874114990234375,22.924222946166992,17.886709213256836,19.044015884399414,0.4314318001270294,0.0,0.058708854019641876,99
1674112515.23996115,82560110,0,21.795225143432617,22.936037063598633,19.45920753479004,19.58453941345215,0.443212628364563,0.0,0.058625828474760056,99
1674112515.34000802,82660157,0,21.697093963623047,22.910486221313477,20.673568725585938,20.159120559692383,0.45567938685417175,0.0,0.05869292840361595,99
1674112515.43995214,82760101,0,21.626537322998047,22.87474250793457,21.177785873413086,20.74711036682129,0.46839556097984314,0.0,0.058939360082149506,99
1674112515.53997111,82860120,0,21.607845306396484,22.9311580657959,22.478586196899414,21.371685028076172,0.4818912446498871,0.0,0.05886989086866379,99
1674112515.63995695,82960106,0,21.613513946533203,22.949745178222656,22.757036209106445,22.003786087036133,0.495553195476532,0.0,0.0587172694504261,99
1674112515.73992801,83060077,0,21.439367294311523,22.990699768066406,26.551410675048828,22.74117088317871,0.5113622546195984,0.0,0.05842752382159233,99
1674112515.83990502,83160054,0,21.459474563598633,22.925457000732422,25.08509635925293,23.43778419494629,0.5263112187385559,0.0,0.05844038352370262,99
1674112515.93998003,83260129,0,21.49144744873047,22.93907928466797,24.79017448425293,24.12706184387207,0.5411247611045837,0.0,0.0583953857421875,99
1674112516.03996110,83360110,0,21.518640518188477,22.951984405517578,24.585174560546875,24.809669494628906,0.5558135509490967,0.0,0.05830113962292671,99
1674112516.13989210,83460041,0,21.44051742553711,22.995086669921875,26.78587532043457,25.55352783203125,0.5717622637748718,0.0,0.05803689360618591,99
1674112516.23999715,83560146,0,21.287336349487305,22.990652084350586,29.451204299926758,26.372541427612305,0.5891968607902527,0.0,0.057835157960653305,99
1674112516.33992314,83660072,0,21.104049682617188,22.982009887695312,32.54726791381836,27.27603530883789,0.6082642674446106,0.0,0.057699501514434814,99
1674112516.43998313,83760132,0,21.18738555908203,22.946298599243164,30.484193801879883,28.123394012451172,0.6262176036834717,0.0,0.05769917741417885,99
1674112516.53995514,83860104,0,21.274314880371094,22.99030303955078,29.81732177734375,28.951478958129883,0.6438345313072205,0.0,0.05755004659295082,99
1674112516.63996315,83960112,0,21.223480224609375,22.910173416137695,29.239450454711914,29.76351547241211,0.6610687971115112,0.0,0.05768553912639618,99
1674112516.73997712,84060126,0,21.180397033691406,22.893041610717773,29.59636116027832,30.586130142211914,0.6784921288490295,0.0,0.05786670744419098,99
1674112516.83995509,84160104,0,20.95368766784668,22.836063385009766,32.327980041503906,31.4840030670166,0.6973059177398682,0.0,0.05822744965553284,99
1674112516.93996596,84260115,0,20.881311416625977,22.763254165649414,32.00360107421875,32.37316131591797,0.7158727049827576,0.0,0.058804091066122055,99
1674112517.03995705,84360106,0,20.803476333618164,22.787132263183594,33.48617935180664,33.303321838378906,0.7352232933044434,0.0,0.05923802778124809,99
1674112517.13997507,84460124,0,20.5678653717041,23.000516891479492,41.24187469482422,34.44922637939453,0.7587921023368835,0.0,0.05898497998714447,99
1674112517.23998213,84560131,0,20.70035743713379,23.006256103515625,40.4803466796875,35.57383728027344,0.7820719480514526,0.0,0.05696341022849083,99
1674112517.33997798,84660127,0,20.759244918823242,23.005983352661133,39.72615051269531,36.67739486694336,0.804980993270874,0.0,0.05655563995242119,99
1674112517.43992996,84760079,0,20.767669677734375,22.976783752441406,39.226226806640625,37.76656723022461,0.8276005387306213,0.0,0.0563172921538353,99
1674112517.53992796,84860077,0,20.781457901000977,23.004920959472656,39.68717575073242,38.86906433105469,0.8505120873451233,0.0,0.0560247041285038,99
1674112517.63994217,84960091,0,20.7391414642334,22.985654830932617,40.25338363647461,39.98746109008789,0.8737066388130188,0.0,0.05580931156873703,99
1674112517.73991299,85060062,0,20.695772171020508,22.930692672729492,40.08091354370117,41.10054016113281,0.8967427015304565,0.0,0.05576024204492569,99
1674112517.83989096,85160040,0,20.651445388793945,22.921449661254883,40.72476577758789,42.23167037963867,0.9201021790504456,0.0,0.055740129202604294,99
1674112517.94002295,85260172,0,20.416120529174805,22.968231201171875,45.89277648925781,43.50825500488281,0.9461650848388672,0.0,0.05561027675867081,99
1674112518.03998804,85360137,0,20.426544189453125,23.003765106201172,48.40182876586914,44.85237503051758,0.9736207723617554,0.0,0.05324634164571762,99
1674112518.13995409,85460103,0,20.452884674072266,22.955381393432617,47.19920349121094,46.1625862121582,1.0004183053970337,0.0,0.05301991105079651,99
1674112518.23998809,85560137,0,20.553503036499023,23.0030460357666,46.94816207885742,47.4677848815918,1.0272446870803833,0.0,0.05217549577355385,99
1674112518.33997202,85660121,0,20.602140426635742,23.00260353088379,46.59739303588867,48.762054443359375,1.053909420967102,0.0,0.05151497572660446,99
1674112518.43995810,85760107,0,20.604915618896484,23.00225257873535,47.0141487121582,50.067935943603516,1.0808169841766357,0.0,0.050991833209991455,99
1674112518.53996301,85860112,0,20.3668155670166,22.964767456054688,51.167274475097656,51.48943328857422,1.1097683906555176,0.0,0.05077371001243591,99
1674112518.63995814,85960107,0,20.428756713867188,22.974109649658203,50.34849548339844,52.88804626464844,1.1383402347564697,0.0,0.05055471509695053,99
1674112518.73995709,86060106,0,20.387399673461914,22.90724754333496,49.89859390258789,54.27421569824219,1.1666005849838257,0.0,0.05049936845898628,99
1674112518.83996415,86160113,0,20.4075984954834,22.91559600830078,49.73164749145508,55.65585708618164,1.1947965621948242,0.0,0.050430599600076675,99
1674112518.93998408,86260133,0,20.249216079711914,22.741357803344727,49.11176681518555,57.02045440673828,1.222428560256958,0.0,0.050744276493787766,99
1674112519.03995204,86360101,0,20.400611877441406,22.928571701049805,49.93265914916992,58.406890869140625,1.2507127523422241,0.0,0.05062738060951233,99
1674112519.13996506,86460114,0,20.413249969482422,22.929428100585938,49.80744934082031,59.79096984863281,1.2789663076400757,0.0,0.05051812157034874,99
1674112519.23991609,86560065,0,20.417654037475586,22.929668426513672,49.82463455200195,61.174224853515625,1.3072091341018677,0.0,0.050417110323905945,99
1674112519.33992195,86660071,0,20.365285873413086,22.88087272644043,49.8829460144043,62.56024932861328,1.3354359865188599,0.0,0.050429802387952805,99
1674112519.43997812,86760127,0,20.358104705810547,22.862823486328125,49.61748504638672,63.93938064575195,1.3635125160217285,0.0,0.05048054829239845,99
1674112519.53995895,86860108,0,20.362987518310547,22.997135162353516,52.42950439453125,65.3956069946289,1.3931657075881958,0.0,0.05024168640375137,99
1674112519.63993597,86960085,0,20.288599014282227,22.912179946899414,52.26041030883789,66.8470687866211,1.4226138591766357,0.0,0.050202079117298126,99
1674112519.73995209,87060101,0,20.23358154296875,22.84897804260254,51.99652099609375,68.29176330566406,1.4518451690673828,0.0,0.05029945448040962,99
1674112519.84004116,87160190,0,20.125844955444336,22.82782745361328,53.577579498291016,69.78129577636719,1.481823205947876,0.0,0.050431203097105026,99
1674112519.93997097,87260120,0,20.144895553588867,22.845808029174805,53.4674072265625,71.2657470703125,1.511727213859558,0.0,0.050515130162239075,99
1674112520.03998303,87360132,0,20.140491485595703,22.84980010986328,53.56039047241211,72.75382995605469,1.5416979789733887,0.0,0.050584178417921066,99
1674112520.13999915,87460148,0,20.14374542236328,22.861555099487305,53.686832427978516,74.2455062866211,1.5717458724975586,0.0,0.05062337964773178,99
1674112520.23995900,87560108,0,20.05786895751953,22.89870834350586,56.16035842895508,75.80501556396484,1.6030263900756836,0.0,0.05058443918824196,99
1674112520.33995509,87660104,0,20.024263381958008,22.82771110534668,55.30690002441406,77.34137725830078,1.6337909698486328,0.0,0.05068894103169441,99
1674112520.43995214,87760101,0,20.023786544799805,22.796979904174805,54.54151916503906,78.8555679321289,1.6641108989715576,0.0,0.05084554851055145,99
1674112520.53994894,87860098,0,19.977832794189453,22.782812118530273,54.980369567871094,80.3838119506836,1.6946418285369873,0.0,0.051017820835113525,98
1674112520.63993216,87960081,0,19.966365814208984,22.78816795349121,55.14997100830078,81.91561889648438,1.7252264022827148,0.0,0.051165975630283356,98
1674112520.73999715,88060146,0,19.941068649291992,22.783117294311523,55.38699722290039,83.45525360107422,1.75592839717865,0.0,0.051312558352947235,98
1674112520.83989501,88160044,0,19.944610595703125,22.788930892944336,55.29800033569336,84.9898681640625,1.786535620689392,0.0,0.05143620818853378,98
1674112520.93992114,88260070,0,20.00856590270996,22.852815628051758,55.30965805053711,86.5265884399414,1.8172831535339355,0.0,0.051424089819192886,98
1674112521.03997302,88360122,0,19.970172882080078,22.810462951660156,55.15498733520508,88.0597915649414,1.847901463508606,0.0,0.051496535539627075,98
1674112521.13999605,88460145,0,19.954185485839844,22.807992935180664,55.34034729003906,89.59750366210938,1.8785852193832397,0.0,0.05156830698251724,98
1674112521.23995399,88560103,0,20.014116287231445,22.867019653320312,55.376869201660156,91.13520812988281,1.9093611240386963,0.0,0.051517970860004425,98
1674112521.33997416,88660123,0,19.972854614257812,22.803796768188477,54.86712646484375,92.65973663330078,1.9398102760314941,0.0,0.05159630998969078,98
1674112521.43998504,88760134,0,19.929452896118164,22.75528335571289,54.768070220947266,94.18134307861328,1.9701350927352905,0.0,0.05159630998969078,98
1674112521.53995299,88860102,0,19.883527755737305,22.723840713500977,54.833980560302734,95.70414733886719,2.000413656234741,0.0,0.051798414438962936,98
1674112521.63997316,88960122,0,19.897125244140625,22.769336700439453,55.3461799621582,97.24198913574219,2.0310122966766357,0.0,0.0518953837454319,98
1674112521.73998713,89060136,0,19.924985885620117,22.80717658996582,55.522640228271484,98.78460693359375,2.06174898147583,0.0,0.05191019922494888,98
1674112521.83997512,89160124,0,19.89904022216797,22.7639102935791,55.08378982543945,100.31465148925781,2.0921952724456787,0.0,0.05200929939746857,98
1674112521.93999815,89260147,0,19.892433166503906,22.747406005859375,54.89352035522461,101.83995819091797,2.12253737449646,0.0,0.05200929939746857,98
1674112522.03998208,89360131,0,19.975343704223633,22.722843170166016,52.95459747314453,103.31078338623047,2.1519176959991455,0.0,0.05188407003879547,98
1674112522.14009213,89460241,0,20.199562072753906,22.743793487548828,49.094852447509766,104.67615509033203,2.179497480392456,0.0,0.05182275548577309,98
1674112522.24010396,89560253,0,20.394197463989258,22.695322036743164,44.5126953125,105.9128646850586,2.204719305038452,0.0,0.05169590935111046,98
1674112522.34010410,89660253,0,20.55876922607422,22.731014251708984,42.05025100708008,107.08100891113281,2.2287349700927734,0.0,0.051658306270837784,98
1674112522.44001102,89760160,0,20.569875717163086,22.716596603393555,41.598480224609375,108.23552703857422,2.252483367919922,0.0,0.05160575732588768,98
1674112522.54010010,89860249,0,20.583566665649414,22.756772994995117,42.09011459350586,109.40585327148438,2.2765729427337646,0.0,0.05163221433758736,98
1674112522.64009213,89960241,0,20.513774871826172,22.698230743408203,42.37091827392578,110.58282470703125,2.3007171154022217,0.0,0.051555532962083817,98
1674112522.74020410,90060353,0,20.458629608154297,22.65211296081543,42.657859802246094,111.76848602294922,2.3249740600585938,0.0,0.05142040178179741,98
1674112522.84003615,90160185,0,20.423969268798828,22.681974411010742,43.959068298339844,112.98833465576172,2.349888324737549,0.0,0.05136607214808464,98
1674112522.94005394,90260203,0,20.356094360351562,22.65624237060547,44.85303497314453,114.23456573486328,2.3752567768096924,0.0,0.05128188803792,98
1674112523.04004216,90360191,0,20.3405818939209,22.674095153808594,45.50364303588867,115.49842834472656,2.4009644985198975,0.0,0.05128188803792,98
1674112523.14003706,90460186,0,20.278789520263672,22.68340492248535,46.8748893737793,116.8006362915039,2.4273717403411865,0.0,0.05129857361316681,98
1674112523.24007916,90560228,0,20.231348037719727,22.710552215576172,48.36445999145508,118.14472198486328,2.4545645713806152,0.0,0.05126085877418518,98
1674112523.34005499,90660204,0,20.123641967773438,22.64414405822754,49.07889938354492,119.5078353881836,2.4819953441619873,0.0,0.05135614424943924,98
1674112523.44007397,90760223,0,20.08400535583496,22.6784725189209,50.49979019165039,120.91100311279297,2.510176420211792,0.0,0.051375795155763626,98
1674112523.54010797,90860257,0,20.04551887512207,22.692384719848633,51.52909851074219,122.34297180175781,2.5388808250427246,0.0,0.05136642977595329,98
1674112523.64008117,90960230,0,19.9970760345459,22.70435905456543,52.73823928833008,123.80764770507812,2.5681700706481934,0.0,0.05133434757590294,98
1674112523.74010396,91060253,0,19.926420211791992,22.68848991394043,53.80345153808594,125.30265045166016,2.5979602336883545,0.0,0.05133627727627754,98
1674112523.84009910,91160248,0,19.84044647216797,22.66762924194336,55.02578353881836,126.8311767578125,2.628286838531494,0.0,0.05137922987341881,98
1674112523.94009113,91260240,0,19.79212188720703,22.647443771362305,55.487892150878906,128.3720703125,2.6587843894958496,0.0,0.0514584518969059,98
1674112524.04009199,91360241,0,19.720966339111328,22.616567611694336,56.124759674072266,129.9316864013672,2.6895415782928467,0.0,0.05159224197268486,98
1674112524.14006114,91460210,0,19.766347885131836,22.67882537841797,56.45220947265625,131.49942016601562,2.7205300331115723,0.0,0.051591906696558,98
1674112524.24011397,91560263,0,19.742700576782227,22.682933807373047,56.9993896484375,133.08372497558594,2.7518084049224854,0.0,0.05158359184861183,98
1674112524.34011698,91660266,0,19.711393356323242,22.664979934692383,57.228023529052734,134.67356872558594,2.783146381378174,0.0,0.05161083862185478,98
1674112524.44003701,91760186,0,19.70804214477539,22.642412185668945,56.77996826171875,136.24964904785156,2.8142080307006836,0.0,0.051679663360118866,98
1674112524.54006910,91860218,0,19.718477249145508,22.678451538085938,57.28264617919922,137.8414764404297,2.8455963134765625,0.0,0.05167313665151596,98
1674112524.64007807,91960227,0,19.68669319152832,22.622758865356445,56.708152770996094,139.41690063476562,2.8766112327575684,0.0,0.05177503079175949,98
1674112524.74007416,92060223,0,19.750167846679688,22.715682983398438,57.37226104736328,141.0106964111328,2.9080891609191895,0.0,0.05168899893760681,98
1674112524.84009814,92160247,0,19.688831329345703,22.596635818481445,56.09212112426758,142.56906127929688,2.9387714862823486,0.0,0.05183980241417885,98
1674112524.94007015,92260219,0,19.756484985351562,22.658966064453125,55.96916198730469,144.1237030029297,2.9694857597351074,0.0,0.0518585704267025,98
1674112525.04007602,92360225,0,19.78712272644043,22.6695499420166,55.57971954345703,145.6678009033203,3.0000391006469727,0.0,0.05186113715171814,98
1674112525.14006495,92460214,0,19.837480545043945,22.675159454345703,54.70539855957031,147.18724060058594,3.0301809310913086,0.0,0.05187201499938965,98
1674112525.24009299,92560242,0,19.86725425720215,22.68799591064453,54.348793029785156,148.6975860595703,3.0601871013641357,0.0,0.051900714635849,98
1674112525.34009099,92660240,0,19.88994598388672,22.69187355041504,53.95719909667969,150.1964874267578,3.0900001525878906,0.0,0.05192870646715164,98
1674112525.44007897,92760228,0,19.946908950805664,22.727706909179688,53.46955108642578,151.6816864013672,3.1196253299713135,0.0,0.052007123827934265,98
1674112525.54000807,92860157,0,19.932931900024414,22.658540725708008,52.4595832824707,153.1379852294922,3.148653507232666,0.0,0.05195636674761772,98
1674112525.64017510,92960324,0,20.026893615722656,22.752859115600586,52.353538513183594,154.59478759765625,3.177828550338745,0.0,0.05206841602921486,98
1674112525.74011016,93060259,0,20.038528442382812,22.76287269592285,52.220821380615234,156.04409790039062,3.2068707942962646,0.0,0.05216968059539795,98
1674112525.84011412,93160263,0,19.953516006469727,22.677078247070312,52.265933990478516,157.4965362548828,3.235852003097534,0.0,0.052109718322753906,98
1674112525.94010615,93260255,0,19.90239143371582,22.62846565246582,52.314117431640625,158.9496612548828,3.264772653579712,0.0,0.052109718322753906,98
1674112526.04002810,93360177,0,19.907560348510742,22.663314819335938,52.88370132446289,160.4176788330078,3.293997287750244,0.0,0.052109718322753906,97
1674112526.14012098,93460270,0,19.889657974243164,22.685945510864258,53.657676696777344,161.90966796875,3.323672294616699,0.0,0.05211345851421356,97
1674112526.24003506,93560184,0,19.828001022338867,22.68790626525879,54.878787994384766,163.4329071044922,3.353874921798706,0.0,0.0521131232380867,97
1674112526.34007406,93660223,0,19.731977462768555,22.61455726623535,55.16450119018555,164.96595764160156,3.384124994277954,0.0,0.05225425958633423,97
1674112526.44007015,93760219,0,19.76117706298828,22.694488525390625,56.16158676147461,166.5260772705078,3.414954900741577,0.0,0.05222984403371811,97
1674112526.54001307,93860162,0,19.700428009033203,22.659748077392578,56.611106872558594,168.09783935546875,3.4459192752838135,0.0,0.052274543792009354,97
1674112526.64006710,93960216,0,19.692916870117188,22.68292808532715,57.20224380493164,169.68777465820312,3.4772298336029053,0.0,0.05227087065577507,97
1674112526.74007511,94060224,0,19.669269561767578,22.699989318847656,58.02102279663086,171.29971313476562,3.5089354515075684,0.0,0.05223485082387924,97
1674112526.84007001,94160219,0,19.64830207824707,22.68691635131836,58.181217193603516,172.91571044921875,3.540687084197998,0.0,0.052226729691028595,97
1674112526.94011807,94260267,0,19.57400894165039,22.634273529052734,58.492095947265625,174.54161071777344,3.57251238822937,0.0,0.05231928080320358,97
1674112527.04011607,94360265,0,19.58588218688965,22.682138442993164,59.186279296875,176.18577575683594,3.604714870452881,0.0,0.052313756197690964,97
1674112527.14002609,94460175,0,19.599475860595703,22.719762802124023,59.73131561279297,177.84359741210938,3.637207508087158,0.0,0.052238721400499344,97
1674112527.24005699,94560206,0,19.590763092041016,22.695932388305664,59.47015380859375,179.49618530273438,3.6695830821990967,0.0,0.05221392214298248,97
1674112527.34011197,94660261,0,19.5530948638916,22.649351119995117,59.22716522216797,181.14244079589844,3.701772451400757,0.0,0.05227763205766678,97
1674112527.44007516,94760224,0,19.531692504882812,22.605764389038086,58.64616012573242,182.77102661132812,3.73358154296875,0.0,0.052417267113924026,97
1674112527.54010701,94860256,0,19.56663703918457,22.65009117126465,58.77289962768555,184.40426635742188,3.765538454055786,0.0,0.052463874220848083,97
1674112527.64005899,94960208,0,19.5852108001709,22.65456199645996,58.46540069580078,186.02764892578125,3.797332763671875,0.0,0.05249858275055885,97
1674112527.74017096,95060320,0,19.591432571411133,22.635183334350586,57.977752685546875,187.63986206054688,3.82891845703125,0.0,0.05249858275055885,97
1674112527.84006214,95160211,0,19.55524444580078,22.548147201538086,57.00920867919922,189.2220458984375,3.859858274459839,0.0,0.05249858275055885,97
1674112527.94017005,95260319,0,19.56501007080078,22.556705474853516,56.9861946105957,190.80685424804688,3.890864849090576,0.0,0.05249858275055885,97
1674112528.04001498,95360164,0,19.603687286376953,22.581863403320312,56.81034469604492,192.38258361816406,3.921755075454712,0.0,0.05242311954498291,97
1674112528.14006305,95460212,0,19.637346267700195,22.58477783203125,56.28068923950195,193.9468231201172,3.952472686767578,0.0,0.05237020552158356,97
1674112528.24005795,95560207,0,19.700096130371094,22.598237991333008,55.360294342041016,195.48464965820312,3.9827680587768555,0.0,0.052350565791130066,97
1674112528.34007812,95660227,0,19.75141143798828,22.56024169921875,53.7294921875,196.9775390625,4.01225471496582,0.0,0.05227723717689514,97
1674112528.44009495,95760244,0,19.783771514892578,22.548307418823242,52.95735549926758,198.44895935058594,4.041365146636963,0.0,0.052203066647052765,97
1674112528.54009509,95860244,0,19.853851318359375,22.579965591430664,52.22911071777344,199.89988708496094,4.070171356201172,0.0,0.05219530686736107,97
1674112528.64003515,95960184,0,19.88372039794922,22.561765670776367,51.34158706665039,201.32530212402344,4.098514080047607,0.0,0.052161332219839096,97
1674112528.74003196,96060181,0,19.933982849121094,22.61151123046875,51.281742095947266,202.7497100830078,4.126908302307129,0.0,0.052212126553058624,97
1674112528.84016013,96160309,0,19.88199806213379,22.539011001586914,50.96012496948242,204.16734313964844,4.155093669891357,0.0,0.052139073610305786,97
1674112528.94011998,96260269,0,19.844085693359375,22.47266387939453,50.5682258605957,205.57156372070312,4.182959079742432,0.0,0.05198083445429802,97
1674112529.04006696,96360216,0,19.839035034179688,22.500652313232422,51.28044891357422,206.995361328125,4.211205959320068,0.0,0.05190315470099449,97
1674112529.14006209,96460211,0,19.886594772338867,22.592309951782227,52.04804611206055,208.4410858154297,4.239956378936768,0.0,0.051984935998916626,97
1674112529.24006796,96560217,0,19.843992233276367,22.553335189819336,52.115257263183594,209.88905334472656,4.2686896324157715,0.0,0.051987528800964355,97
1674112529.34004402,96660193,0,19.794780731201172,22.494152069091797,51.9234504699707,211.33114624023438,4.297235488891602,0.0,0.051987528800964355,97
1674112529.44005513,96760204,0,19.80588722229004,22.516172409057617,52.133358001708984,212.77938842773438,4.325919151306152,0.0,0.051987528800964355,97
1674112529.54006410,96860213,0,19.86237335205078,22.615097045898438,52.949684143066406,214.2506561279297,4.355142116546631,0.0,0.051987528800964355,97
1674112529.64005804,96960207,0,19.810768127441406,22.563507080078125,52.9736213684082,215.72216796875,4.384294033050537,0.0,0.05196431651711464,97
1674112529.74009514,97060244,0,19.773527145385742,22.55048942565918,53.4370231628418,217.2071990966797,4.413658142089844,0.0,0.05196702480316162,97
1674112529.84014201,97160291,0,19.752443313598633,22.53632926940918,53.54085922241211,218.6952667236328,4.443050861358643,0.0,0.05199554190039635,97
1674112529.94010210,97260251,0,19.73255157470703,22.526611328125,53.691131591796875,220.18617248535156,4.472470283508301,0.0,0.0520394966006279,97
1674112530.04009199,97360241,0,19.704404830932617,22.509872436523438,53.8369026184082,221.681640625,4.501937389373779,0.0,0.052110496908426285,97
1674112530.14003515,97460184,0,19.740880966186523,22.603485107421875,55.04696273803711,223.20999145507812,4.532108306884766,0.0,0.05200294777750969,97
1674112530.24003506,97560184,0,19.698469161987305,22.571500778198242,55.289405822753906,224.7459259033203,4.562364101409912,0.0,0.05196350812911987,97
1674112530.34007502,97660224,0,19.673961639404297,22.560644149780273,55.56929016113281,226.28977966308594,4.592737674713135,0.0,0.05194742605090141,97
1674112530.44010806,97760257,0,19.620153427124023,22.494970321655273,55.22772216796875,227.82496643066406,4.62285852432251,0.0,0.05205385759472847,97
1674112530.54012108,97860270,0,19.64954948425293,22.557405471801758,55.88139343261719,229.37754821777344,4.6533660888671875,0.0,0.05203619599342346,97
1674112530.64012694,97960276,0,19.62042999267578,22.547319412231445,56.24454879760742,230.9401092529297,4.684024333953857,0.0,0.052038636058568954,97
1674112530.74005914,98060208,0,19.568265914916992,22.52480697631836,56.76646423339844,232.5158233642578,4.714858055114746,0.0,0.052082523703575134,97
1674112530.84011602,98160265,0,19.506994247436523,22.473400115966797,56.80820083618164,234.09506225585938,4.745664119720459,0.0,0.052217915654182434,97
1674112530.94002295,98260172,0,19.558788299560547,22.535768508911133,57.00092697143555,235.6770782470703,4.776606559753418,0.0,0.052226871252059937,97
1674112531.04005003,98360199,0,19.558692932128906,22.530275344848633,56.87755584716797,237.257568359375,4.80751895904541,0.0,0.05224526301026344,97
1674112531.14007306,98460222,0,19.634706497192383,22.607715606689453,56.904869079589844,238.83872985839844,4.838564872741699,0.0,0.05224526301026344,97
1674112531.24003196,98560181,0,19.64361000061035,22.577594757080078,56.15789794921875,240.39817810058594,4.869197845458984,0.0,0.05224526301026344,96
1674112531.34005404,98660203,0,19.610868453979492,22.537317276000977,56.01366424560547,241.95436096191406,4.899715900421143,0.0,0.05224526301026344,96
1674112531.44002199,98760171,0,19.615856170654297,22.51506805419922,55.49232482910156,243.4956512451172,4.9299492835998535,0.0,0.05224526301026344,96
1674112531.54012394,98860273,0,19.70775604248047,22.49347496032715,53.40265655517578,244.98069763183594,4.959216594696045,0.0,0.052164431661367416,96
1674112531.64009714,98960246,0,19.8204402923584,22.566673278808594,52.59430694580078,246.44137573242188,4.988167762756348,0.0,0.052215419709682465,96
1674112531.74012208,99060271,0,19.77161407470703,22.50502586364746,52.40495300292969,247.8975372314453,5.016958236694336,0.0,0.05215940251946449,96
1674112531.84006095,99160210,0,19.6966495513916,22.423982620239258,52.456817626953125,249.35389709472656,5.0456438064575195,0.0,0.05199195444583893,96
1674112531.94006705,99260216,0,19.71761703491211,22.45547866821289,52.739776611328125,250.81910705566406,5.0745344161987305,0.0,0.05191264674067497,96
1674112532.04010010,99360249,0,19.73245620727539,22.475948333740234,52.87787628173828,252.28854370117188,5.103529930114746,0.0,0.05188356712460518,96
1674112532.14003015,99460179,0,19.7813777923584,22.562742233276367,53.493186950683594,253.77352905273438,5.132905006408691,0.0,0.05199472978711128,96
1674112532.24004197,99560191,0,19.855480194091797,22.633691787719727,53.23386764526367,255.25254821777344,5.162271499633789,0.0,0.052188802510499954,96
1674112532.34006906,99660218,0,19.851160049438477,22.60759162902832,52.70713806152344,256.7171630859375,5.191345691680908,0.0,0.05229713022708893,96
1674112532.44011116,99760260,0,19.886594772338867,22.652976989746094,52.74345397949219,258.1825866699219,5.22048807144165,0.0,0.05244976282119751,96
1674112532.54007196,99860221,0,19.893680572509766,22.673358917236328,52.84779739379883,259.6504211425781,5.249689102172852,0.0,0.05259781703352928,96
1674112532.64008117,99960230,0,19.84772491455078,22.607709884643555,52.461116790771484,261.1080322265625,5.278619289398193,0.0,0.052610091865062714,96
1674112532.74007201,100060221,0,19.837574005126953,22.594463348388672,52.413246154785156,262.5639343261719,5.307500839233398,0.0,0.052599094808101654,96
1674112532.84005904,100160208,0,19.816991806030273,22.58063316345215,52.571292877197266,264.024169921875,5.336438179016113,0.0,0.052569400519132614,96
1674112532.94004917,100260198,0,19.802536010742188,22.533620834350586,51.951988220214844,265.4669494628906,5.36500883102417,0.0,0.052569400519132614,96
1674112533.04006314,100360212,0,19.85394859313965,22.565834045410156,51.615943908691406,266.9013366699219,5.393486976623535,0.0,0.052539702504873276,96
1674112533.14006805,100460217,0,19.911901473999023,22.616300582885742,51.41957092285156,268.3296813964844,5.4219279289245605,0.0,0.05259474739432335,96
1674112533.24009895,100560248,0,19.841405868530273,22.511281967163086,50.87910461425781,269.74371337890625,5.449984073638916,0.0,0.052474915981292725,96
1674112533.34010196,100660251,0,19.81268310546875,22.493221282958984,51.0822639465332,271.1628112792969,5.478100299835205,0.0,0.052474915981292725,96
1674112533.44007516,100760224,0,19.752656936645508,22.42665672302246,50.95766830444336,272.5780334472656,5.506054401397705,0.0,0.052474915981292725,96
1674112533.54007506,100860224,0,19.77994155883789,22.471542358398438,51.29309844970703,274.0029602050781,5.534239768981934,0.0,0.052474915981292725,96
1674112533.64009500,100960244,0,19.801292419433594,22.489961624145508,51.237239837646484,275.4266052246094,5.562429904937744,0.0,0.052474915981292725,96
1674112533.74012303,101060272,0,19.74652862548828,22.475040435791016,51.91608428955078,276.8692321777344,5.590917110443115,0.0,0.05255619063973427,96
1674112533.84004498,101160194,0,19.73274040222168,22.458984375,51.77092361450195,278.3061218261719,5.619271278381348,0.0,0.052659742534160614,96
1674112533.94008708,101260236,0,19.70585060119629,22.46927261352539,52.401615142822266,279.7626037597656,5.647972583770752,0.0,0.05273544043302536,96
1674112534.04011512,101360264,0,19.73992156982422,22.51715850830078,52.68238067626953,281.2265319824219,5.676870822906494,0.0,0.05271662026643753,96
1674112534.14003801,101460187,0,19.68267250061035,22.510271072387695,53.642333984375,282.7155456542969,5.706178665161133,0.0,0.052712082862854004,96
1674112534.24009013,101560239,0,19.703161239624023,22.542673110961914,53.933570861816406,284.214599609375,5.735714912414551,0.0,0.052648309618234634,96
1674112534.34005404,101660203,0,19.634706497192383,22.4969539642334,54.33866882324219,285.7236022949219,5.76534366607666,0.0,0.05267421528697014,96
1674112534.44006705,101760216,0,19.570371627807617,22.453365325927734,54.62468338012695,287.24127197265625,5.795044898986816,0.0,0.0527782216668129,96
1674112534.54005504,101860204,0,19.574392318725586,22.474924087524414,54.899349212646484,288.76617431640625,5.824893951416016,0.0,0.05283363163471222,96
1674112534.64008999,101960239,0,19.57630729675293,22.511322021484375,55.56929016113281,290.3104248046875,5.8551249504089355,0.0,0.0528172068297863,96
1674112534.74010801,102060257,0,19.600528717041016,22.535966873168945,55.64109420776367,291.8564147949219,5.885427474975586,0.0,0.052756670862436295,96
1674112534.84010100,102160250,0,19.586498260498047,22.526439666748047,55.7664794921875,293.4052429199219,5.9157633781433105,0.0,0.05271879583597183,96
1674112534.94002008,102260169,0,19.558212280273438,22.502758026123047,55.844261169433594,294.9555969238281,5.946085453033447,0.0,0.05272781848907471,96
1674112535.04002309,102360172,0,19.60349464416504,22.547346115112305,55.90962219238281,296.5087890625,5.97653341293335,0.0,0.05265374109148979,96
1674112535.14011502,102460264,0,19.612016677856445,22.5311222076416,55.47967529296875,298.05145263671875,6.00678825378418,0.0,0.052615776658058167,96
1674112535.24012613,102560275,0,19.587604522705078,22.49167251586914,55.1540641784668,299.58380126953125,6.036803245544434,0.0,0.052653729915618896,96
1674112535.34012008,102660269,0,19.554288864135742,22.442115783691406,54.84564208984375,301.1073303222656,6.06659460067749,0.0,0.052653729915618896,96
1674112535.44005299,102760202,0,19.555147171020508,22.45974349975586,55.08808517456055,302.6365051269531,6.096497535705566,0.0,0.05272640287876129,96
1674112535.54005408,102860203,0,19.617759704589844,22.52157974243164,55.0733528137207,304.1666259765625,6.126514911651611,0.0,0.05272640287876129,96
1674112535.64006710,102960216,0,19.591815948486328,22.452373504638672,54.252838134765625,305.6739807128906,6.156046390533447,0.0,0.05272640287876129,96
1674112535.74007106,103060220,0,19.62226104736328,22.51178550720215,54.77106857299805,307.1955871582031,6.185903549194336,0.0,0.052756406366825104,96
1674112535.84004498,103160194,0,19.61134910583496,22.481966018676758,54.43625259399414,308.7074279785156,6.215552806854248,0.0,0.052733562886714935,96
1674112535.94010997,103260259,0,19.614219665527344,22.461992263793945,54.05233383178711,310.2099914550781,6.24502420425415,0.0,0.0526854544878006,96
1674112536.04006910,103360218,0,19.64906883239746,22.50859260559082,54.239540100097656,311.7161560058594,6.274618625640869,0.0,0.052720267325639725,96
1674112536.14012909,103460278,0,19.638538360595703,22.48731231689453,54.041900634765625,313.21832275390625,6.304119110107422,0.0,0.052714183926582336,96
1674112536.24008894,103560238,0,19.67462921142578,22.506135940551758,53.68959426879883,314.709228515625,6.333452224731445,0.0,0.05273844674229622,96
1674112536.34002900,103660178,0,19.625995635986328,22.450946807861328,53.565303802490234,316.1963806152344,6.3626389503479,0.0,0.05273844674229622,96
1674112536.44003010,103760179,0,19.634366989135742,22.430496215820312,53.10609436035156,317.6716613769531,6.391605377197266,0.0,0.052651744335889816,96
1674112536.54006100,103860210,0,19.652801513671875,22.486841201782227,53.80529022216797,319.16632080078125,6.4209794998168945,0.0,0.0526721253991127,96
1674112536.64011502,103960264,0,19.672142028808594,22.499826431274414,53.64847183227539,320.65802001953125,6.450324535369873,0.0,0.05270765349268913,95
1674112536.74010801,104060257,0,19.676544189453125,22.51738166809082,53.84273147583008,322.1536560058594,6.479753494262695,0.0,0.0527617521584034,95
1674112536.84014297,104160292,0,19.586740493774414,22.40757942199707,53.463722229003906,323.6393737792969,6.508853912353516,0.0,0.0527617521584034,95
1674112536.94007802,104260227,0,19.62360191345215,22.459678649902344,53.75251007080078,325.1316833496094,6.538138389587402,0.0,0.0527617521584034,95
1674112537.04006004,104360209,0,19.655099868774414,22.51123809814453,54.13273620605469,326.63519287109375,6.567690372467041,0.0,0.0527617521584034,95
1674112537.14008117,104460230,0,19.641599655151367,22.502077102661133,54.214988708496094,328.1416015625,6.597278594970703,0.0,0.0527617521584034,95
1674112537.24007607,104560225,0,19.66065216064453,22.542373657226562,54.61762237548828,329.6588134765625,6.627108097076416,0.0,0.0527617521584034,95
1674112537.34006310,104660212,0,19.669790267944336,22.551551818847656,54.61838150024414,331.1759033203125,6.656949043273926,0.0,0.0527617521584034,95
1674112537.44004297,104760192,0,19.629344940185547,22.513521194458008,54.68391799926758,332.69451904296875,6.686758518218994,0.0,0.05274268612265587,95
1674112537.54002810,104860177,0,19.656728744506836,22.5518798828125,54.89198303222656,334.2192077636719,6.716728687286377,0.0,0.05274268612265587,95
1674112537.64007211,104960221,0,19.63595199584961,22.54085922241211,55.13258743286133,335.75164794921875,6.746819496154785,0.0,0.052689485251903534,95
1674112537.74009514,105060244,0,19.66295051574707,22.561697006225586,55.01565933227539,337.28033447265625,6.7768778800964355,0.0,0.052689485251903534,95
1674112537.84012294,105160272,0,19.60588836669922,22.49593162536621,54.7999153137207,338.8031005859375,6.806733131408691,0.0,0.05273808166384697,95
1674112537.94009495,105260244,0,19.6171875,22.516748428344727,54.97392654418945,340.3295593261719,6.8366780281066895,0.0,0.05274428427219391,95
1674112538.04006600,105360215,0,19.605697631835938,22.53485870361328,55.56437301635742,341.8724060058594,6.866926670074463,0.0,0.05271654948592186,95
1674112538.14004707,105460196,0,19.620859146118164,22.547828674316406,55.57484817504883,343.41656494140625,6.897223949432373,0.0,0.05266716703772545,95
1674112538.24018717,105560336,0,19.590190887451172,22.50066566467285,55.21790313720703,344.9526672363281,6.927316665649414,0.0,0.052708882838487625,95
1674112538.34011507,105660264,0,19.54701042175293,22.477203369140625,55.506065368652344,346.4934997558594,6.957435131072998,0.0,0.05279049277305603,95
1674112538.44003105,105760180,0,19.522117614746094,22.458541870117188,55.50913619995117,348.0342712402344,6.987514019012451,0.0,0.05289984866976738,95
1674112538.54004312,105860192,0,19.542512893676758,22.503604888916016,55.95719528198242,349.58892822265625,7.0178961753845215,0.0,0.05291708931326866,95
1674112538.64005709,105960206,0,19.548446655273438,22.50239372253418,55.803138732910156,351.1393737792969,7.0482048988342285,0.0,0.0529351532459259,95
1674112538.74007607,106060225,0,19.574583053588867,22.50920867919922,55.43394470214844,352.6795349121094,7.078352928161621,0.0,0.05293915793299675,95
1674112538.84007096,106160220,0,19.556777954101562,22.479106903076172,55.201637268066406,354.2130432128906,7.108343601226807,0.0,0.05293915793299675,95
1674112538.94008207,106260231,0,19.516950607299805,22.434226989746094,55.10619354248047,355.7440490722656,7.138224124908447,0.0,0.05293915793299675,95
1674112539.04003406,106360183,0,19.537776947021484,22.448850631713867,54.98902893066406,357.27093505859375,7.168056011199951,0.0,0.05293915793299675,95
1674112539.14005995,106460209,0,19.570850372314453,22.48383140563965,55.02916717529297,358.8000183105469,7.197981834411621,0.0,0.05293521285057068,95
1674112539.24000907,106560158,0,19.571805953979492,22.480419158935547,54.9552001953125,360.32586669921875,7.227845668792725,0.0,0.05292697250843048,95
1674112539.34009409,106660243,0,19.53370475769043,22.448163986206055,55.065677642822266,361.85693359375,7.257752895355225,0.0,0.05292697250843048,95
1674112539.44008613,106760235,0,19.496559143066406,22.40570831298828,54.965328216552734,363.3837585449219,7.287520408630371,0.0,0.05292697250843048,95
1674112539.54006100,106860210,0,19.57477378845215,22.510446548461914,55.46648406982422,364.9242248535156,7.31767463684082,0.0,0.05292697250843048,95
1674112539.64004302,106960192,0,19.570466995239258,22.500925064086914,55.36796569824219,366.4620666503906,7.347771167755127,0.0,0.05292697250843048,95
1674112539.74008512,107060234,0,19.571043014526367,22.48017692565918,54.96195602416992,367.98956298828125,7.377665996551514,0.0,0.05292995646595955,95
1674112539.84011698,107160266,0,19.538415908813477,22.440229415893555,54.82365036010742,369.5130310058594,7.4074320793151855,0.0,0.05292995646595955,95
1674112539.94002700,107260176,0,19.520875930786133,22.431699752807617,54.993873596191406,371.0392150878906,7.437224388122559,0.0,0.05292995646595955,95
1674112540.04003906,107360188,0,19.56740379333496,22.515522003173828,55.698490142822266,372.5868835449219,7.467508316040039,0.0,0.05292995646595955,95
1674112540.14005804,107460207,0,19.52594757080078,22.44373893737793,55.12552261352539,374.11859130859375,7.497416019439697,0.0,0.05292995646595955,95
1674112540.24006414,107560213,0,19.579465866088867,22.52727508544922,55.692657470703125,375.66583251953125,7.5277099609375,0.0,0.05292995646595955,95
1674112540.34012794,107660277,0,19.488994598388672,22.402254104614258,55.0399055480957,377.1958312988281,7.557528018951416,0.0,0.05292995646595955,95
1674112540.44006801,107760217,0,19.512544631958008,22.432723999023438,55.1706428527832,378.7275390625,7.58741569519043,0.0,0.05292995646595955,95
1674112540.54010201,107860251,0,19.58453941345215,22.49512481689453,54.93403244018555,380.2541198730469,7.617313385009766,0.0,0.052983298897743225,95
1674112540.64004707,107960196,0,19.58298683166504,22.505651473999023,55.10292053222656,381.7840270996094,7.647273540496826,0.0,0.05304010584950447,95
1674112540.74006104,108060210,0,19.565486907958984,22.465251922607422,54.69035720825195,383.30352783203125,7.677003383636475,0.0,0.05302150920033455,95
1674112540.84008217,108160231,0,19.5248966217041,22.417469024658203,54.554710388183594,384.81927490234375,7.706598281860352,0.0,0.05302150920033455,95
1674112540.94009805,108260247,0,19.52796173095703,22.432641983032227,54.78303909301758,386.34149169921875,7.736323833465576,0.0,0.05302150920033455,95
1674112541.04002810,108360177,0,19.506898880004883,22.44478988647461,55.380859375,387.87890625,7.7663140296936035,0.0,0.05304884538054466,95
1674112541.14003301,108460182,0,19.535619735717773,22.45990753173828,55.12736892700195,389.4104309082031,7.796233177185059,0.0,0.05304604023694992,95
1674112541.24002695,108560176,0,19.52910804748535,22.442766189575195,54.92696762084961,390.93621826171875,7.826030731201172,0.0,0.05304604023694992,95
1674112541.34008694,108660236,0,19.48229217529297,22.394062042236328,54.89137268066406,392.4620056152344,7.855756759643555,0.0,0.05304604023694992,95
1674112541.44013405,108760283,0,19.52661895751953,22.46922492980957,55.518341064453125,394.0050354003906,7.8858866691589355,0.0,0.05300241336226463,95
1674112541.54003501,108860184,0,19.51011848449707,22.458038330078125,55.638954162597656,395.5491638183594,7.916012763977051,0.0,0.052983008325099945,95
1674112541.64006495,108960214,0,19.573816299438477,22.526288986206055,55.72488021850586,397.0973815917969,7.946317195892334,0.0,0.052983008325099945,95
1674112541.74006104,109060210,0,19.56156349182129,22.497711181640625,55.41676330566406,398.6368408203125,7.976431369781494,0.0,0.052983008325099945,95
1674112541.84007215,109160221,0,19.560606002807617,22.485074996948242,55.168182373046875,400.1697082519531,8.006415367126465,0.0,0.05301005020737648,94
1674112541.94008112,109260230,0,19.56147003173828,22.474323272705078,54.94477081298828,401.6963195800781,8.036277770996094,0.0,0.05301420018076897,94
1674112542.04005694,109360206,0,19.527673721313477,22.439844131469727,54.931880950927734,403.2219543457031,8.066069602966309,0.0,0.05301420018076897,94
1674112542.14003396,109460183,0,19.542701721191406,22.448352813720703,54.83827590942383,404.7450256347656,8.095833778381348,0.0,0.05298582464456558,94
1674112542.24006915,109560218,0,19.55352020263672,22.474082946777344,55.11969757080078,406.27679443359375,8.125784873962402,0.0,0.05298582464456558,94
1674112542.34007907,109660228,0,19.469484329223633,22.377685546875,54.886390686035156,407.80169677734375,8.155473709106445,0.0,0.05298582464456558,94
1674112542.44016409,109760313,0,19.487079620361328,22.38931655883789,54.77383041381836,409.3245849609375,8.185150146484375,0.0,0.05298582464456558,94
1674112542.54010916,109860258,0,19.55486297607422,22.467920303344727,54.933414459228516,410.8498229980469,8.214975357055664,0.0,0.05302886664867401,94
1674112542.64002299,109960172,0,19.590286254882812,22.497928619384766,54.74989700317383,412.3694763183594,8.244745254516602,0.0,0.05310773849487305,94
1674112542.74001813,110060167,0,19.605506896972656,22.528087615966797,54.921138763427734,413.8951110839844,8.274656295776367,0.0,0.053214140236377716,94
1674112542.84004498,110160194,0,19.58253288269043,22.462003707885742,54.13151550292969,415.3992919921875,8.30411148071289,0.0,0.053193993866443634,94
1674112542.94005895,110260208,0,19.6451416015625,22.529735565185547,54.13765335083008,416.9034423828125,8.333660125732422,0.0,0.053282588720321655,94
1674112543.04004216,110360191,0,19.619869232177734,22.468820571899414,53.49472427368164,418.38909912109375,8.362809181213379,0.0,0.05325666815042496,94
1674112543.14005017,110460199,0,19.701053619384766,22.54597282409668,53.320098876953125,419.8706359863281,8.391997337341309,0.0,0.05335545912384987,94
1674112543.24008894,110560238,0,19.697874069213867,22.528827667236328,53.00959777832031,421.34381103515625,8.421015739440918,0.0,0.0534045584499836,94
1674112543.34006310,110660212,0,19.67194938659668,22.472471237182617,52.48812484741211,422.80157470703125,8.449692726135254,0.0,0.05335535854101181,94
1674112543.44008303,110760232,0,19.673961639404297,22.49349594116211,52.849639892578125,424.27001953125,8.478582382202148,0.0,0.05335012823343277,94
1674112543.54003096,110860180,0,19.595550537109375,22.389036178588867,52.36137771606445,425.723876953125,8.507071495056152,0.0,0.05335012823343277,94
1674112543.64003205,110960181,0,19.65060043334961,22.483213424682617,53.08717346191406,427.1986389160156,8.536051750183105,0.0,0.05335775390267372,94
1674112543.74004102,111060190,0,19.59526252746582,22.43519401550293,53.22434616088867,428.6773376464844,8.565027236938477,0.0,0.05335775390267372,94
1674112543.84003901,111160188,0,19.557254791259766,22.40083885192871,53.29278564453125,430.1575927734375,8.593976974487305,0.0,0.05335775390267372,94
1674112543.94006300,111260212,0,19.557924270629883,22.431123733520508,53.79393768310547,431.65252685546875,8.623214721679688,0.0,0.05341121926903725,94
1674112544.04005694,111360206,0,19.516504287719727,22.412940979003906,54.14542770385742,433.1565856933594,8.652568817138672,0.0,0.05349365249276161,94
1674112544.14010215,111460251,0,19.543468475341797,22.456634521484375,54.463260650634766,434.6702575683594,8.682150840759277,0.0,0.05348866060376167,94
1674112544.24009299,111560242,0,19.546630859375,22.46624755859375,54.6065788269043,436.18621826171875,8.711782455444336,0.0,0.05346637964248657,94
1674112544.34006715,111660216,0,19.50431251525879,22.425844192504883,54.58724594116211,437.703125,8.741369247436523,0.0,0.05352042242884636,94
1674112544.44008207,111760231,0,19.519628524780273,22.46693229675293,55.09575653076172,439.2339172363281,8.771249771118164,0.0,0.05349419638514519,94
1674112544.54018712,111860336,0,19.54538345336914,22.49654769897461,55.249202728271484,440.77032470703125,8.80128002166748,0.0,0.05341552197933197,94
1674112544.64008713,111960236,0,19.593061447143555,22.558094024658203,55.50883102416992,442.31072998046875,8.831460952758789,0.0,0.05341552197933197,94
1674112544.74006200,112060211,0,19.502397537231445,22.466501235961914,55.47660827636719,443.8515930175781,8.86151123046875,0.0,0.05342979356646538,94
1674112544.84005499,112160204,0,19.575115203857422,22.562942504882812,55.92060470581055,445.40496826171875,8.891918182373047,0.0,0.05342979356646538,94
1674112544.94005299,112260202,0,19.502492904663086,22.48707389831543,55.85715103149414,446.9566345214844,8.92218017578125,0.0,0.0534324049949646,94
1674112545.04009509,112360244,0,19.534469604492188,22.53343963623047,56.21406555175781,448.5189208984375,8.952698707580566,0.0,0.05334911495447159,94
1674112545.14006400,112460213,0,19.567977905273438,22.596664428710938,56.77106475830078,450.0953369140625,8.983546257019043,0.0,0.05334911495447159,94
1674112545.24008012,112560229,0,19.535236358642578,22.523906707763672,56.048954010009766,451.6528015136719,9.013972282409668,0.0,0.05332249030470848,94
1674112545.34007096,112660220,0,19.52585220336914,22.509445190429688,55.95136642456055,453.20684814453125,9.044316291809082,0.0,0.05332474410533905,94
1674112545.44002104,112760170,0,19.482196807861328,22.494709014892578,56.462642669677734,454.77471923828125,9.074861526489258,0.0,0.053354065865278244,94
1674112545.54003596,112860185,0,19.485260009765625,22.53434944152832,57.19794464111328,456.3639221191406,9.105827331542969,0.0,0.053307659924030304,94
1674112545.64009500,112960244,0,19.536287307739258,22.56834602355957,56.87847900390625,457.9449462890625,9.136714935302734,0.0,0.053307659924030304,94
1674112545.74009109,113060240,0,19.477676391601562,22.499496459960938,56.64452362060547,459.5181884765625,9.1673583984375,0.0,0.053347084671258926,94
1674112545.84003997,113160189,0,19.507949829101562,22.541452407836914,56.907630920410156,461.09857177734375,9.198187828063965,0.0,0.0533057302236557,94
1674112545.94009805,113260247,0,19.47185516357422,22.490968704223633,56.578956604003906,462.6712341308594,9.22881031036377,0.0,0.05336106941103935,94
1674112546.04006004,113360209,0,19.518386840820312,22.54012107849121,56.628055572509766,464.2437744140625,9.259503364562988,0.0,0.05336106941103935,94
1674112546.14010811,113460257,0,19.511301040649414,22.542631149291992,56.807891845703125,465.8226318359375,9.290308952331543,0.0,0.05336106941103935,94
1674112546.24003601,113560185,0,19.513980865478516,22.533601760864258,56.58846664428711,467.3935546875,9.320963859558105,0.0,0.05336106941103935,94
1674112546.34006906,113660218,0,19.482196807861328,22.48491859436035,56.27175521850586,468.9573059082031,9.351428985595703,0.0,0.05336106941103935,94
1674112546.44004107,113760190,0,19.481430053710938,22.478256225585938,56.16127395629883,470.51702880859375,9.381814956665039,0.0,0.05336106941103935,94
1674112546.54004002,113860189,0,19.51224708557129,22.519004821777344,56.3376350402832,472.0820617675781,9.412352561950684,0.0,0.053370337933301926,94
1674112546.64004207,113960191,0,19.51924705505371,22.534168243408203,56.490570068359375,473.6513977050781,9.442984580993652,0.0,0.053370337933301926,94
1674112546.74007201,114060221,0,19.551990509033203,22.563291549682617,56.42274856567383,475.21929931640625,9.473640441894531,0.0,0.053370337933301926,94
1674112546.84008598,114160235,0,19.504789352416992,22.474882125854492,55.65061569213867,476.7655029296875,9.503798484802246,0.0,0.053370337933301926,94
1674112546.94004512,114260194,0,19.53887176513672,22.518878936767578,55.833213806152344,478.3157043457031,9.534088134765625,0.0,0.05337338522076607,94
1674112547.04006314,114360212,0,19.550743103027344,22.52544403076172,55.72088623046875,479.8641052246094,9.564360618591309,0.0,0.05338575690984726,94
1674112547.14007711,114460226,0,19.575061798095703,22.561786651611328,55.87801742553711,481.4165954589844,9.59475040435791,0.0,0.0534508153796196,93
1674112547.24009299,114560242,0,19.569223403930664,22.550622940063477,55.74452209472656,482.9654235839844,9.625060081481934,0.0,0.05348328500986099,93
1674112547.34003901,114660188,0,19.565778732299805,22.517208099365234,55.21145248413086,484.4983825683594,9.65505313873291,0.0,0.053456827998161316,93
1674112547.44003606,114760185,0,19.588624954223633,22.561012268066406,55.554725646972656,486.0416564941406,9.685283660888672,0.0,0.05350378528237343,93
1674112547.54003906,114860188,0,19.544904708862305,22.50189781188965,55.267005920410156,487.5770263671875,9.715291976928711,0.0,0.05350378528237343,93
1674112547.64010310,114960252,0,19.603782653808594,22.593189239501953,55.872798919677734,489.1301574707031,9.745738983154297,0.0,0.05350378528237343,93
1674112547.74014807,115060297,0,19.6065616607666,22.594493865966797,55.76140213012695,490.6799011230469,9.776124000549316,0.0,0.05358424782752991,93
1674112547.84003615,115160185,0,19.56884002685547,22.536413192749023,55.41001510620117,492.21746826171875,9.806212425231934,0.0,0.05355662479996681,93
1674112547.94008899,115260238,0,19.557254791259766,22.53863525390625,55.66780090332031,493.7647399902344,9.836472511291504,0.0,0.05355662479996681,93
1674112548.04005098,115360200,0,19.558500289916992,22.53641128540039,55.60304641723633,495.30877685546875,9.866671562194824,0.0,0.05355662479996681,93
1674112548.14003801,115460187,0,19.56635093688965,22.566253662109375,56.01366424560547,496.86444091796875,9.897109985351562,0.0,0.05355662479996681,93
1674112548.24007702,115560226,0,19.55118179321289,22.54338264465332,55.85786819458008,498.4169616699219,9.92746353149414,0.0,0.05356810241937637,93
1674112548.34006715,115660216,0,19.497705459594727,22.474348068237305,55.56744384765625,499.9604797363281,9.957558631896973,0.0,0.05356810241937637,93
1674112548.44003010,115760179,0,19.46946144104004,22.454421997070312,55.72273254394531,501.5079040527344,9.987686157226562,0.0,0.05356810241937637,93
