timestamp,TimeUS,ThI,ABst,ThO,ThH,DAlt,Alt,BAlt,DSAlt,SAlt,TAlt,DCRt,CRt
1674113035.18389392,56818739,0.0,0.0,0.0,0.26131507754325867,0.0,-0.40271085500717163,-2.82,nan,0.0,0.007289106026291847,0,0
1674113035.28193688,56916782,0.0,0.0,0.0,0.26131507754325867,0.0,-0.3804399371147156,-2.57,nan,0.0,0.029560023918747902,0,17
1674113035.38197994,57016825,0.0,0.0,0.0,0.26131507754325867,0.0,-0.3625616729259491,-2.8000000000000003,nan,0.0,0.04743831604719162,0,17
1674113035.48195887,57116804,0.0,0.0,0.0,0.26131507754325867,0.0,-0.3537153899669647,-2.56,nan,0.0,0.056284599006175995,0,16
1674113035.58198094,57216826,0.0,0.0,0.0,0.26131507754325867,0.0,-0.34359046816825867,-2.64,nan,0.0,0.06640952080488205,0,16
1674113035.68192005,57316765,0.0,0.0,0.0,0.26131507754325867,0.0,-0.33743375539779663,-2.82,nan,0.0,0.0725662037730217,0,15
1674113035.78202891,57416874,0.0,0.0,0.0,0.26131507754325867,0.0,-0.3300856947898865,-2.74,nan,0.0,0.07991426438093185,0,15
1674113035.88193607,57516781,0.0,0.0,0.0,0.26131507754325867,0.0,-0.3288840651512146,-2.66,nan,0.0,0.08111589401960373,0,14
1674113035.98198199,57616827,0.0,0.0,0.0,0.26131507754325867,0.0,-0.3255547881126404,-2.72,nan,0.0,0.08444517105817795,0,14
1674113036.08198810,57716833,0.0,0.0,0.0,0.26131507754325867,0.0,-0.3292364776134491,-2.79,nan,0.0,0.08076351135969162,0,13
1674113036.18197799,57816823,0.0,0.0,0.0,0.26131507754325867,0.0,-0.3293399214744568,-2.88,nan,0.0,0.08066003769636154,0,12
1674113036.28196192,57916807,0.0,0.0,0.0,0.26131507754325867,0.0,-0.3326229751110077,-2.69,nan,0.0,0.07737701386213303,0,12
1674113036.38194895,58016794,0.0,0.0,0.0,0.26131507754325867,0.0,-0.33301112055778503,-2.73,nan,0.0,0.07698886841535568,0,11
1674113036.48196292,58116808,0.0,0.0,0.0,0.26131507754325867,0.0,-0.33846232295036316,-2.61,nan,0.0,0.07153766602277756,0,10
1674113036.58197689,58216822,0.0,0.0,0.0,0.26131507754325867,0.0,-0.34033411741256714,-2.75,nan,0.0,0.06966584175825119,0,10
1674113036.68199587,58316841,0.0,0.0,0.0,0.26131507754325867,0.0,-0.34728163480758667,-2.57,nan,0.0,0.06271832436323166,0,9
1674113036.78196096,58416806,0.0,0.0,0.0,0.26131507754325867,0.0,-0.3501548171043396,-2.49,nan,0.0,0.06005876511335373,0,8
1674113036.88201594,58516861,0.0,0.0,0.0,0.26131507754325867,0.0,-0.35581105947494507,-2.46,nan,0.0,0.054627589881420135,0,8
1674113036.98193502,58616780,0.0,0.0,0.0,0.26131507754325867,0.0,-0.35707777738571167,-2.54,nan,0.0,0.053360871970653534,0,7
1674113037.08197594,58716821,0.0,0.0,0.0,0.26131507754325867,0.0,-0.3599641025066376,-2.69,nan,0.0,0.05047457665205002,0,7
1674113037.18191004,58816755,0.0,0.0,0.0,0.26131507754325867,0.0,-0.36050790548324585,-2.69,nan,0.0,0.049930743873119354,0,6
1674113037.28201890,58916864,0.0,0.0,0.0,0.26131507754325867,0.0,-0.3671228289604187,-2.75,nan,0.0,0.0433158203959465,0,6
1674113037.38198590,59016831,0.0,0.0,0.0,0.26131507754325867,0.0,-0.37059515714645386,-2.67,nan,0.0,0.03999321907758713,0,5
1674113037.48195601,59116801,0.0,0.0,0.0,0.26131507754325867,0.0,-0.37658926844596863,-2.61,nan,0.0,0.033999137580394745,0,4
1674113037.58200407,59216849,0.0,0.0,0.0,0.26131507754325867,0.0,-0.3787385821342468,-2.58,nan,0.0,0.03184979408979416,0,4
1674113037.68200994,59316855,0.0,0.0,0.0,0.26131507754325867,0.0,-0.3801264464855194,-2.65,nan,0.0,0.030461961403489113,0,4
1674113037.78197789,59416823,0.0,0.0,0.0,0.26131507754325867,0.0,-0.37877386808395386,-2.48,nan,0.0,0.031664781272411346,0,3
1674113037.88198590,59516831,0.0,0.0,0.0,0.26131507754325867,0.0,-0.37661927938461304,-2.48,nan,0.0,0.03381936997175217,0,3
1674113037.98197508,59616820,0.0,0.0,0.0,0.26131507754325867,0.0,-0.3722230792045593,-2.27,nan,0.0,0.03821557015180588,0,3
1674113038.08196902,59716814,0.0,0.0,0.0,0.26131507754325867,0.0,-0.36743804812431335,-2.48,nan,0.0,0.04300063103437424,0,3
1674113038.18196106,59816806,0.0,0.0,0.0,0.26131507754325867,0.0,-0.36064738035202026,-2.59,nan,0.0,0.04979126900434494,0,3
1674113038.28191090,59916756,0.0,0.0,0.0,0.26131507754325867,0.0,-0.35304540395736694,-2.5500000000000003,nan,0.0,0.057168178260326385,0,3
1674113038.38196802,60016813,0.0,0.0,0.0,0.26131507754325867,0.0,-0.34546801447868347,-2.84,nan,0.0,0.06474559754133224,0,2
1674113038.48202491,60116870,0.0,0.0,0.0,0.26131507754325867,0.0,-0.3407606780529022,-2.69,nan,0.0,0.0694529339671135,0,2
1674113038.58197308,60216818,0.0,0.0,0.0,0.26131507754325867,0.0,-0.3356625735759735,-2.52,nan,0.0,0.0745510384440422,0,2
1674113038.68198609,60316831,0.0,0.0,0.0,0.26131507754325867,0.0,-0.3287898898124695,-2.7,nan,0.0,0.08142369240522385,0,2
1674113038.78193188,60416777,0.0,0.0,0.0,0.26131507754325867,0.0,-0.3217901885509491,-2.37,nan,0.0,0.08842342346906662,0,2
1674113038.88198400,60516829,0.0,0.0,0.0,0.26131507754325867,0.0,-0.3135945498943329,-2.5300000000000002,nan,0.0,0.09661906212568283,0,2
1674113038.98195505,60616800,0.0,0.0,0.0,0.26131507754325867,0.0,-0.30524247884750366,-2.69,nan,0.0,0.10497110337018967,0,2
1674113039.08196497,60716810,0.0,0.0,0.0,0.26131507754325867,0.0,-0.29851457476615906,-2.61,nan,0.0,0.11169903725385666,0,2
1674113039.18200493,60816850,0.0,0.0,0.0,0.26131507754325867,0.0,-0.29167672991752625,-2.58,nan,0.0,0.11853688210248947,0,2
1674113039.28198409,60916829,0.0,0.0,0.0,0.26131507754325867,0.0,-0.28331825137138367,-2.58,nan,0.0,0.12674564123153687,0,2
1674113039.38198805,61016833,0.0,0.0,0.0,0.26131507754325867,0.0,-0.27537938952445984,-2.5500000000000003,nan,0.0,0.1346845030784607,0,2
1674113039.48195696,61116802,0.0,0.0,0.0,0.26131507754325867,0.0,-0.2677154242992401,-2.2600000000000002,nan,0.0,0.14234846830368042,0,2
1674113039.58198595,61216831,0.0,0.0,0.0,0.26131507754325867,0.0,-0.2589218318462372,-2.57,nan,0.0,0.15114206075668335,0,1
1674113039.68196392,61316809,0.0,0.0,0.0,0.26131507754325867,0.0,-0.24873563647270203,-2.27,nan,0.0,0.1613282561302185,0,2
1674113039.78200793,61416853,0.0,0.0,0.0,0.26131507754325867,0.0,-0.23879501223564148,-2.41,nan,0.0,0.17126888036727905,0,2
1674113039.88194895,61516794,0.0,0.0,0.0,0.26131507754325867,0.0,-0.23013301193714142,-2.46,nan,0.0,0.17970675230026245,0,2
1674113039.98192286,61616768,0.0,0.0,0.0,0.26131507754325867,0.0,-0.22223897278308868,-2.62,nan,0.0,0.18760079145431519,0,2
1674113040.08197498,61716820,0.0,0.0,0.0,0.26131507754325867,0.0,-0.21850676834583282,-2.42,nan,0.0,0.19133299589157104,0,2
1674113040.18197894,61816824,0.0,0.0,0.0,0.26131507754325867,0.0,-0.21431848406791687,-2.2800000000000002,nan,0.0,0.1955212950706482,0,1
1674113040.28197193,61916817,0.0,0.0,0.0,0.26131507754325867,0.0,-0.21109220385551453,-2.56,nan,0.0,0.19874757528305054,0,1
1674113040.38199091,62016836,0.0,0.0,0.0,0.26131507754325867,0.0,-0.2074262797832489,-2.56,nan,0.0,0.20241349935531616,0,1
1674113040.48198295,62116828,0.0,0.0,0.0,0.26131507754325867,0.0,-0.2067060023546219,-2.33,nan,0.0,0.20313376188278198,0,0
1674113040.58198500,62216830,0.003755937796086073,6.5194908529520035e-06,0.0037624340038746595,0.26131507754325867,0.0,-0.20463033020496368,-2.46,nan,0.0,0.20520943403244019,0,0
1674113040.68197703,62316822,0.007892494089901447,1.3542361557483673e-05,0.007906036451458931,0.26131507754325867,0.0,-0.20427508652210236,-2.45,nan,0.0,0.205274760723114,0,1
1674113040.78200197,62416847,0.01734238862991333,2.9550865292549133e-05,0.017372122034430504,0.26131507754325867,0.0,-0.2022828608751297,-2.21,nan,0.0,0.20726698637008667,0,1
1674113040.88200903,62516854,0.017722465097904205,2.9820948839187622e-05,0.017752736806869507,0.26131507754325867,0.0,-0.198238804936409,-2.65,nan,0.0,0.21131104230880737,0,0
1674113040.98197198,62616817,0.026141652837395668,4.476867616176605e-05,0.026185447350144386,0.26131507754325867,0.0,-0.1939227283000946,-2.57,nan,0.0,0.21562713384628296,0,0
1674113041.08199000,62716835,0.0331326425075531,5.55478036403656e-05,0.03318838030099869,0.26131507754325867,0.0,-0.18933959305286407,-2.89,nan,0.0,0.2199956774711609,0,0
1674113041.18200493,62816850,0.03706623613834381,6.127357482910156e-05,0.03712822124361992,0.26131507754325867,0.0,-0.18632598221302032,-2.5,nan,0.0,0.22300928831100464,0,0
1674113041.28197193,62916817,0.05449884012341499,9.109079837799072e-05,0.05458942428231239,0.26131507754325867,0.0,-0.18429920077323914,-2.5,nan,0.0,0.22503608465194702,0,0
1674113041.38198400,63016829,0.06295804679393768,0.00010573863983154297,0.06306219100952148,0.26131507754325867,0.0,-0.18221542239189148,-2.19,nan,0.0,0.22711986303329468,0,-1
1674113041.48197699,63116822,0.07661455124616623,0.00012706220149993896,0.07674233615398407,0.26131507754325867,0.0,-0.18195243179798126,-2.56,nan,0.0,0.2273828387260437,0,0
1674113041.58198309,63216828,0.07706727087497711,0.00012609362602233887,0.07719310373067856,0.26131507754325867,0.0,-0.1800217181444168,-2.52,nan,0.0,0.22931355237960815,0,0
1674113041.68199301,63316838,0.09834051132202148,0.0001585632562637329,0.09849962592124939,0.26131507754325867,0.0,-0.17644855380058289,-2.59,nan,0.0,0.23223155736923218,0,-1
1674113041.78197908,63416824,0.09933005273342133,0.00015800446271896362,0.09948845207691193,0.26131507754325867,0.0,-0.17299911379814148,-2.27,nan,0.0,0.23568099737167358,0,0
1674113041.88197088,63516816,0.10332879424095154,0.0001584962010383606,0.10048148036003113,0.26131507754325867,0.0,-0.16856929659843445,-2.67,nan,0.0,0.24011081457138062,0,0
1674113041.98200607,63616851,0.11626370996236801,0.0001764744520187378,0.11644235998392105,0.26131507754325867,0.0,-0.16474147140979767,-2.5,nan,0.0,0.2439386248588562,0,0
1674113042.08205295,63716898,0.12436401098966599,0.000180169939994812,0.12453924864530563,0.26131507754325867,0.0,-0.16243739426136017,-2.35,nan,0.0,0.2462427020072937,0,0
1674113042.18198109,63816826,0.12491355091333389,0.0001635625958442688,0.125077024102211,0.26131507754325867,0.0,-0.15941187739372253,-2.66,nan,0.0,0.24905365705490112,0,-1
1674113042.28200507,63916850,0.12879443168640137,0.0001548081636428833,0.12894964218139648,0.26131507754325867,0.0,-0.1589357554912567,-2.27,nan,0.0,0.24938005208969116,0,-1
1674113042.38198590,64016831,0.13444450497627258,0.00015336275100708008,0.13459694385528564,0.26131507754325867,0.0,-0.15747663378715515,-2.59,nan,0.0,0.2508391737937927,0,0
1674113042.48196387,64116809,0.1396392583847046,0.00015465915203094482,0.1397930234670639,0.26131507754325867,0.0,-0.1566743552684784,-2.5300000000000002,nan,0.0,0.2514163851737976,0,0
1674113042.58198309,64216828,0.15402376651763916,0.0001512765884399414,0.15417422354221344,0.26131507754325867,0.0,-0.15509125590324402,-2.42,nan,0.0,0.252999484539032,0,0
1674113042.68198204,64316827,0.1552586704492569,0.00011292099952697754,0.15537284314632416,0.26131507754325867,0.0,-0.1520693004131317,-2.33,nan,0.0,0.2558717131614685,0,0
1674113042.78197098,64416816,0.1647053211927414,7.639825344085693e-05,0.1647844910621643,0.26131507754325867,0.0,-0.14696404337882996,-2.72,nan,0.0,0.2607519030570984,0,1
1674113042.88196206,64516807,0.1647053211927414,3.4421682357788086e-05,0.16473907232284546,0.26131507754325867,0.0,-0.14108678698539734,-2.42,nan,0.0,0.2664794325828552,0,1
1674113042.98199296,64616838,0.1647053211927414,9.804964065551758e-06,0.16471533477306366,0.26131507754325867,0.0,-0.13542458415031433,-2.27,nan,0.0,0.27199190855026245,0,1
1674113043.08199596,64716841,0.1647053211927414,5.692243576049805e-06,0.1647104024887085,0.26131507754325867,0.0,-0.1317107379436493,-2.44,nan,0.0,0.2755550742149353,0,0
1674113043.18201995,64816865,0.16663455963134766,4.5746564865112305e-06,0.16663891077041626,0.26131507754325867,0.0,-0.12883707880973816,-2.87,nan,0.0,0.27842873334884644,0,-2
1674113043.28197289,64916818,0.18531009554862976,5.0514936447143555e-06,0.18531319499015808,0.26131507754325867,0.0,-0.12767574191093445,-2.35,nan,0.0,0.2795805335044861,0,-2
1674113043.38191795,65016763,0.1866917461156845,1.4975666999816895e-05,0.18670903146266937,0.26131507754325867,0.0,-0.1272878348827362,-2.5,nan,0.0,0.2799684405326843,0,-4
1674113043.48191595,65116761,0.19228392839431763,2.8908252716064453e-05,0.1923132687807083,0.26131507754325867,0.0,-0.12405440211296082,-2.19,nan,0.0,0.28348320722579956,0,0
1674113043.58197498,65216820,0.19870281219482422,1.983344554901123e-05,0.19872145354747772,0.26131507754325867,0.0,-0.11844989657402039,-2.25,nan,0.0,0.2888626456260681,0,1
1674113043.68196297,65316808,0.19870281219482422,1.4662742614746094e-05,0.1987190842628479,0.26131507754325867,0.0,-0.11143824458122253,-2.06,nan,0.0,0.2957245707511902,0,0
1674113043.78197098,65416816,0.19870281219482422,2.454221248626709e-05,0.19872277975082397,0.26131507754325867,0.0,-0.10299298167228699,-1.99,nan,0.0,0.30402010679244995,0,0
1674113043.88202596,65516871,0.19870281219482422,2.899765968322754e-05,0.19873054325580597,0.26131507754325867,0.0,-0.09042951464653015,-2.44,nan,0.0,0.3166484236717224,0,0
1674113043.98210502,65616950,0.19870281219482422,2.7105212211608887e-05,0.19873471558094025,0.26131507754325867,0.0,-0.0806569755077362,-2.43,nan,0.0,0.3261968493461609,0,-2
1674113044.08199286,65716838,0.19942449033260345,2.0802021026611328e-05,0.19944550096988678,0.26131507754325867,0.0,-0.07511851191520691,-2.27,nan,0.0,0.3317353129386902,0,-3
1674113044.18196702,65816812,0.21422263979911804,1.3381242752075195e-05,0.21423831582069397,0.26131507754325867,0.0,-0.07038137316703796,-2.4,nan,0.0,0.33647245168685913,0,-3
1674113044.28198600,65916831,0.22111386060714722,3.7401914596557617e-06,0.22112075984477997,0.26131507754325867,0.0,-0.06319615244865417,-2.32,nan,0.0,0.3436576724052429,0,0
1674113044.38198090,66016826,0.22111386060714722,4.351139068603516e-06,0.221114382147789,0.26131507754325867,0.0,-0.05677291750907898,-1.8800000000000001,nan,0.0,0.3499302268028259,0,-5
1674113044.48196507,66116810,0.22111386060714722,5.751848220825195e-06,0.2211172878742218,0.26131507754325867,0.0,-0.048382729291915894,-2.33,nan,0.0,0.358320415019989,0,-2
1674113044.58194304,66216788,0.22188866138458252,3.089010715484619e-05,0.22191905975341797,0.26131507754325867,0.0,-0.0408916175365448,-2.24,nan,0.0,0.3658115267753601,0,-2
1674113044.68199587,66316841,0.22344374656677246,5.1841139793395996e-05,0.22350892424583435,0.26131507754325867,0.0,-0.03517100214958191,-1.92,nan,0.0,0.3716828227043152,0,-4
1674113044.78198695,66416832,0.229738250374794,4.89652156829834e-05,0.22977067530155182,0.26131507754325867,0.0,-0.02935740351676941,-2.4,nan,0.0,0.3774964213371277,0,-4
1674113044.88197589,66516821,0.23696331679821014,1.8477439880371094e-05,0.2369832843542099,0.26131507754325867,0.0,-0.020451992750167847,-2.56,nan,0.0,0.38640183210372925,0,0
1674113044.98198104,66616826,0.24186603724956512,3.427267074584961e-07,0.24186794459819794,0.26131507754325867,0.0,-0.009477110579609871,-2.7800000000000002,nan,0.0,0.3973767161369324,0,4
1674113045.08200097,66716846,0.2493514120578766,5.2228569984436035e-05,0.24940423667430878,0.26131507754325867,0.0,0.0013585370033979416,-2.23,nan,0.0,0.408061683177948,0,4
1674113045.18197894,66816824,0.25188201665878296,0.00018039345741271973,0.2520603537559509,0.26131507754325867,0.0,0.010359075851738453,-2.22,nan,0.0,0.4166225790977478,0,4
1674113045.28197408,66916819,0.2604474127292633,0.0003591775894165039,0.2608078420162201,0.26131507754325867,0.0,0.01856425032019615,-2.12,nan,0.0,0.4248277544975281,0,2
1674113045.38198090,67016826,0.2621307671070099,0.00047594308853149414,0.26259690523147583,0.26131507754325867,0.0,0.026098517701029778,-2.34,nan,0.0,0.43193191289901733,0,2
1674113045.48199105,67116836,0.26294827461242676,0.00044918060302734375,0.2625787556171417,0.26131507754325867,0.0,0.032964255660772324,-1.98,nan,0.0,0.43864697217941284,0,-1
1674113045.58199787,67216843,0.2712228000164032,0.0003317296504974365,0.27155470848083496,0.26131507754325867,0.0,0.04405262693762779,-1.98,nan,0.0,0.4497353434562683,0,-1
1674113045.68199301,67316838,0.27797433733940125,0.00023362040519714355,0.2781999409198761,0.26131507754325867,0.0,0.057183291763067245,-1.32,nan,0.0,0.46286600828170776,0,-1
1674113045.78194189,67416787,0.2883257269859314,0.00014972686767578125,0.2884676456451416,0.26131507754325867,0.0,0.08615496754646301,-1.24,nan,0.0,0.49183768033981323,0,1
1674113045.88198495,67516830,0.2971610426902771,0.00010013580322265625,0.2972654700279236,0.26131507754325867,0.0,0.1295786201953888,-1.09,nan,0.0,0.535261332988739,0,7
1674113045.98198700,67616832,0.30619028210639954,0.00014191865921020508,0.3063225746154785,0.26131507754325867,0.0,0.18891766667366028,-0.7000000000000001,nan,0.0,0.594376266002655,0,14
1674113046.08198500,67716830,0.3071039915084839,0.00013256072998046875,0.3072305917739868,0.26131507754325867,0.0,0.2657056152820587,-0.79,nan,0.0,0.6706482768058777,0,23
1674113046.18198895,67816834,0.3071039915084839,0.0001862943172454834,0.30729979276657104,0.26131507754325867,0.0,0.35798025131225586,-1.0,nan,0.0,0.7625481486320496,0,33
1674113046.28197193,67916817,0.3071039915084839,0.00020706653594970703,0.30728715658187866,0.26131507754325867,0.0,0.45880556106567383,-1.35,nan,0.0,0.8629986643791199,0,43
1674113046.38197088,68016816,0.3071039915084839,0.0001227855682373047,0.30723023414611816,0.26131507754325867,0.0,0.5645401477813721,-1.53,nan,0.0,0.9678539037704468,0,55
1674113046.48195505,68116800,0.30619028210639954,0.00012376904487609863,0.3063194453716278,0.26131507754325867,0.0,0.6686647534370422,-2.07,nan,0.0,1.0712289810180664,0,62
1674113046.58203101,68216876,0.2980552017688751,6.020069122314453e-05,0.29811325669288635,0.26131507754325867,0.0,0.7669752240180969,-2.32,nan,0.0,1.1686487197875977,0,69
1674113046.68200397,68316849,0.29537859559059143,4.2319297790527344e-05,0.295425146818161,0.26131507754325867,0.0,0.8545801639556885,-1.96,nan,0.0,1.2551482915878296,0,71
1674113046.78198695,68416832,0.294490247964859,0.0004394948482513428,0.2948911488056183,0.26131507754325867,0.0,0.935430645942688,-1.6500000000000001,nan,0.0,1.3352491855621338,0,75
1674113046.88198209,68516827,0.2883257269859314,0.0007980763912200928,0.2891238331794739,0.26131507754325867,0.0,1.0163967609405518,-1.9100000000000001,nan,0.0,1.41531503200531,0,73
1674113046.98198795,68616833,0.2728995978832245,0.0011992454528808594,0.27409833669662476,0.26131507754325867,0.0,1.093343734741211,-1.79,nan,0.0,1.4917374849319458,0,75
1674113047.08200288,68716848,0.2712228000164032,0.0015538036823272705,0.272745817899704,0.26131507754325867,0.0,1.1643729209899902,-1.79,nan,0.0,1.5618749856948853,0,71
1674113047.18192601,68816771,0.2712228000164032,0.0014362633228302002,0.2726685106754303,0.26131507754325867,0.0,1.2282578945159912,-1.51,nan,0.0,1.6256017684936523,0,69
1674113047.28194594,68916791,0.2728995978832245,0.0014279484748840332,0.27266377210617065,0.26131507754325867,0.0,1.285866618156433,-1.34,nan,0.0,1.6829110383987427,0,65
1674113047.38197994,69016825,0.2754286527633667,0.0016352534294128418,0.27710288763046265,0.26131507754325867,0.0,1.3418564796447754,-1.33,nan,0.0,1.738525152206421,0,63
1674113047.48198891,69116834,0.2762753665447235,0.0014401674270629883,0.27772146463394165,0.26131507754325867,0.0,1.3953683376312256,-1.1300000000000001,nan,0.0,1.792244791984558,0,58
1674113047.58198309,69216828,0.2762753665447235,0.0014015436172485352,0.27766847610473633,0.26131507754325867,0.0,1.4483518600463867,-1.11,nan,0.0,1.845875859260559,0,52
1674113047.68197107,69316816,0.27712392807006836,0.0011509060859680176,0.27823901176452637,0.26131507754325867,0.0,1.499167561531067,-1.01,nan,0.0,1.896908164024353,0,52
1674113047.78198099,69416826,0.27712392807006836,0.00039839744567871094,0.2775271236896515,0.26131507754325867,0.0,1.5503207445144653,-0.87,nan,0.0,1.94893479347229,0,49
1674113047.88197494,69516820,0.27712392807006836,3.0547380447387695e-05,0.27716097235679626,0.26131507754325867,0.0,1.6013189554214478,-0.6900000000000001,nan,0.0,2.0005815029144287,0,50
1674113047.98197103,69616816,0.2762753665447235,8.404254913330078e-06,0.27628570795059204,0.26131507754325867,0.0,1.6532682180404663,-0.61,nan,0.0,2.053544759750366,0,47
1674113048.08196688,69716812,0.27712392807006836,8.225440979003906e-06,0.2771327495574951,0.26131507754325867,0.0,1.7049192190170288,-0.61,nan,0.0,2.106060743331909,0,44
1674113048.18199897,69816844,0.27712392807006836,7.0035457611083984e-06,0.27628207206726074,0.26131507754325867,0.0,1.754868984222412,-0.28,nan,0.0,2.157090902328491,0,38
1674113048.28197289,69916818,0.27712392807006836,4.9442052841186523e-05,0.27717074751853943,0.26131507754325867,0.0,1.803804874420166,-0.47000000000000003,nan,0.0,2.206956624984741,0,35
1674113048.38199186,70016837,0.27712392807006836,0.0001550614833831787,0.27728471159935,0.26131507754325867,0.0,1.8491919040679932,-0.23,nan,0.0,2.2536416053771973,0,32
1674113048.48200107,70116846,0.27712392807006836,0.0004981458187103271,0.2776086628437042,0.26131507754325867,0.0,1.8895760774612427,-0.8,nan,0.0,2.295097589492798,0,25
1674113048.58200002,70216845,0.2762753665447235,0.000788956880569458,0.2770419120788574,0.26131507754325867,0.0,1.9230679273605347,-0.35000000000000003,nan,0.0,2.329671859741211,0,22
1674113048.68198895,70316834,0.2762753665447235,0.0006854236125946045,0.27696263790130615,0.26131507754325867,0.0,1.9496901035308838,-0.44,nan,0.0,2.3575901985168457,0,20
1674113048.78197408,70416819,0.2762753665447235,0.000606536865234375,0.27688637375831604,0.26131507754325867,0.0,1.9732177257537842,-0.45,nan,0.0,2.382631301879883,0,17
1674113048.88198900,70516834,0.27712392807006836,0.0003578662872314453,0.27749255299568176,0.26131507754325867,0.0,1.9909212589263916,-0.87,nan,0.0,2.4016318321228027,0,13
1674113048.98196793,70616813,0.2762753665447235,0.0003025829792022705,0.27657726407051086,0.26131507754325867,0.0,2.0028984546661377,-0.51,nan,0.0,2.415344715118408,0,9
1674113049.08197689,70716822,0.27712392807006836,0.00019064545631408691,0.27730947732925415,0.26131507754325867,0.0,2.0099363327026367,-0.5,nan,0.0,2.4238951206207275,0,7
1674113049.18190694,70816752,0.27712392807006836,6.645917892456055e-06,0.2771297097206116,0.26131507754325867,0.0,2.0133440494537354,-0.22,nan,0.0,2.4293227195739746,0,2
1674113049.28209209,70916937,0.2799711525440216,5.960464477539062e-07,0.27712684869766235,0.26131507754325867,2.0122554302215576,2.012901544570923,0.0,nan,0.0,2.430541515350342,-2,1
1674113049.38209891,71016944,0.28908297419548035,0.00010457634925842285,0.28336989879608154,0.26131507754325867,2.0100414752960205,2.010127544403076,-0.42,nan,0.0,2.429502248764038,-2,-5
1674113049.48220706,71117052,0.2905518412590027,0.0005950927734375,0.2883668541908264,0.26131507754325867,2.0081682205200195,2.0002176761627197,-0.03,nan,0.0,2.421536922454834,0,-9
1674113049.58210897,71216954,0.2915331721305847,0.0010877251625061035,0.2916015088558197,0.26131507754325867,2.0066354274749756,1.989518404006958,0.28,nan,0.0,2.411991596221924,0,-9
1674113049.68205810,71316903,0.2938939034938812,0.0010568499565124512,0.29277732968330383,0.26131507754325867,2.005380153656006,1.9789642095565796,0.14,nan,0.0,2.402876377105713,1,-9
1674113049.78210092,71416946,0.2957560420036316,0.0009146630764007568,0.29502514004707336,0.26131507754325867,2.0043537616729736,1.970881462097168,-0.06,nan,0.0,2.395874261856079,2,-8
1674113049.88215089,71516996,0.2958906590938568,0.0006545186042785645,0.2965448498725891,0.26131507754325867,2.003513813018799,1.963888168334961,-0.39,nan,0.0,2.389744997024536,3,-8
1674113049.98207903,71616924,0.2966069281101227,0.0006420612335205078,0.2965688705444336,0.26131507754325867,2.002826452255249,1.9578336477279663,-0.06,nan,0.0,2.3843343257904053,3,-6
1674113050.08215904,71717004,0.2989833354949951,0.000546574592590332,0.29739680886268616,0.26131507754325867,2.0022919178009033,1.9519816637039185,-0.18,nan,0.0,2.3793461322784424,4,-6
1674113050.18214607,71816991,0.30074501037597656,0.0004558861255645752,0.29977545142173767,0.26131507754325867,2.002415657043457,1.9502931833267212,-0.09,nan,0.0,2.3781585693359375,5,-4
1674113050.28221703,71917062,0.3038751184940338,0.00047218799591064453,0.30237600207328796,0.26131507754325867,2.0032808780670166,1.953132152557373,-0.34,nan,0.0,2.381577253341675,6,-7
1674113050.38208103,72016926,0.3050766885280609,0.00041243433952331543,0.3033984303474426,0.26131507754325867,2.0047168731689453,1.9578815698623657,-0.24,nan,0.0,2.3868274688720703,6,-3
1674113050.48208499,72116930,0.3082294166088104,0.00045812129974365234,0.30710315704345703,0.26131507754325867,2.0075225830078125,1.9636119604110718,-0.09,nan,0.0,2.392990827560425,8,-3
1674113050.58208203,72216927,0.3088507056236267,0.0004937052726745605,0.3085048794746399,0.26131507754325867,2.012524127960205,1.9727261066436768,-0.22,nan,0.0,2.4025368690490723,10,-1
1674113050.68206787,72316913,0.3065265417098999,0.00044974684715270996,0.3081602156162262,0.26131507754325867,2.019582748413086,1.9831653833389282,-0.21,nan,0.0,2.413191795349121,11,1
1674113050.78207397,72416919,0.31040555238723755,0.0004936158657073975,0.3077278733253479,0.26131507754325867,2.028510093688965,1.9973456859588623,-0.16,nan,0.0,2.427804946899414,13,2
1674113050.88209105,72516936,0.3136543929576874,0.0004629194736480713,0.3120326101779938,0.26131507754325867,2.040640115737915,2.014331579208374,-0.15,nan,0.0,2.4445695877075195,16,7
1674113050.98210788,72616953,0.3146369457244873,0.00039774179458618164,0.31355834007263184,0.26131507754325867,2.0569546222686768,2.0350501537323,-0.33,nan,0.0,2.4655046463012695,20,8
1674113051.08213401,72716979,0.3129383623600006,0.0004076659679412842,0.31380894780158997,0.26131507754325867,2.0771172046661377,2.057705879211426,-0.4,nan,0.0,2.4883806705474854,23,11
1674113051.18212104,72816966,0.3122849464416504,0.0004360675811767578,0.31314346194267273,0.26131507754325867,2.100494861602783,2.0824344158172607,-0.14,nan,0.0,2.5135421752929688,26,16
1674113051.28210688,72916952,0.3147260248661041,0.00044286251068115234,0.31412965059280396,0.26131507754325867,2.1265034675598145,2.1102659702301025,-0.32,nan,0.0,2.5413737297058105,28,17
1674113051.38213801,73016983,0.3117325007915497,0.00042110681533813477,0.31347671151161194,0.26131507754325867,2.1546664237976074,2.1404294967651367,-0.35000000000000003,nan,0.0,2.5716841220855713,30,23
1674113051.48211694,73116962,0.3101235330104828,0.00036785006523132324,0.31207236647605896,0.26131507754325867,2.184591054916382,2.1720151901245117,0.13,nan,0.0,2.6032698154449463,31,27
1674113051.58209109,73216936,0.30655553936958313,0.0003256499767303467,0.30932480096817017,0.26131507754325867,2.215956926345825,2.208177328109741,-0.22,nan,0.0,2.6396474838256836,32,31
1674113051.68214488,73316990,0.30602937936782837,0.00039961934089660645,0.30733245611190796,0.26131507754325867,2.2485034465789795,2.2476577758789062,-0.38,nan,0.0,2.6791279315948486,33,30
1674113051.78211308,73416958,0.30360904335975647,0.0003323853015899658,0.3055388927459717,0.26131507754325867,2.282015562057495,2.287311553955078,-0.14,nan,0.0,2.7190029621124268,33,37
1674113051.88203692,73516882,0.302666574716568,0.000376284122467041,0.30376261472702026,0.26131507754325867,2.316317558288574,2.3254306316375732,-0.02,nan,0.0,2.757122039794922,33,35
1674113051.98210502,73616950,0.302287757396698,0.0003871917724609375,0.30322977900505066,0.26131507754325867,2.3512659072875977,2.365325927734375,0.2,nan,0.0,2.797090768814087,33,39
1674113052.08207989,73716925,0.3038420081138611,0.00049591064453125,0.3037501871585846,0.26131507754325867,2.3867428302764893,2.406646251678467,0.12,nan,0.0,2.8384110927581787,33,35
1674113052.18209100,73816936,0.302377849817276,0.0005841255187988281,0.30342960357666016,0.26131507754325867,2.4226527214050293,2.4500465393066406,-0.35000000000000003,nan,0.0,2.8820316791534424,33,34
1674113052.28206706,73916912,0.2995763421058655,0.0006616413593292236,0.3016331195831299,0.26131507754325867,2.4589173793792725,2.490211009979248,-0.17,nan,0.0,2.922779083251953,33,37
1674113052.38214803,74016993,0.29905474185943604,0.00067099928855896,0.3000311851501465,0.26131507754325867,2.495471477508545,2.5285189151763916,-0.06,nan,0.0,2.9612345695495605,33,35
1674113052.48208404,74116929,0.29704785346984863,0.0007165968418121338,0.29873108863830566,0.26131507754325867,2.5322632789611816,2.565530300140381,-0.02,nan,0.0,2.9984664916992188,33,38
1674113052.58211899,74216964,0.29675716161727905,0.0007246434688568115,0.29793328046798706,0.26131507754325867,2.5692496299743652,2.6031713485717773,0.11,nan,0.0,3.0364010334014893,33,37
1674113052.68211293,74316958,0.2974076569080353,0.0007881224155426025,0.2978579103946686,0.26131507754325867,2.6063942909240723,2.6401660442352295,0.14,nan,0.0,3.073763847351074,33,40
1674113052.78203297,74416878,0.29732435941696167,0.0008184611797332764,0.2978295087814331,0.26131507754325867,2.643669605255127,2.678176164627075,0.31,nan,0.0,3.1121411323547363,33,42
1674113052.88211393,74516959,0.29662469029426575,0.0008623600006103516,0.29742294549942017,0.26131507754325867,2.681051015853882,2.7158381938934326,0.98,nan,0.0,3.150096893310547,33,39
1674113052.98215604,74617001,0.29678964614868164,0.000936359167098999,0.29756784439086914,0.26131507754325867,2.7185192108154297,2.7589967250823975,0.59,nan,0.0,3.1936237812042236,33,36
1674113053.08216906,74717014,0.2961158752441406,0.0009296536445617676,0.29760435223579407,0.26131507754325867,2.756058931350708,2.8080339431762695,0.62,nan,0.0,3.2431750297546387,32,39
1674113053.18213105,74816976,0.293205201625824,0.0009540915489196777,0.2959999144077301,0.26131507754325867,2.793656826019287,2.8576860427856445,0.8,nan,0.0,3.293342113494873,31,31
1674113053.28208709,74916932,0.2939944565296173,0.0009088218212127686,0.29525288939476013,0.26131507754325867,2.8313024044036865,2.906714677810669,0.9500000000000001,nan,0.0,3.3431060314178467,30,35
1674113053.38210702,75016952,0.29359906911849976,0.0009420216083526611,0.29471489787101746,0.26131507754325867,2.8689868450164795,2.956909418106079,0.85,nan,0.0,3.393742084503174,28,34
1674113053.48207092,75116916,0.29251083731651306,0.0008824467658996582,0.29389673471450806,0.26131507754325867,2.9067039489746094,3.005472421646118,1.0,nan,0.0,3.4434704780578613,27,36
1674113053.58208394,75216929,0.2919151484966278,0.0008828639984130859,0.2937556505203247,0.26131507754325867,2.944446563720703,3.054002285003662,0.8200000000000001,nan,0.0,3.49288272857666,26,33
1674113053.68208098,75316926,0.29202353954315186,0.0009922385215759277,0.2934737801551819,0.26131507754325867,2.982210397720337,3.1010146141052246,0.97,nan,0.0,3.5405566692352295,25,31
1674113053.78210688,75416952,0.2928367257118225,0.0009976327419281006,0.2934463620185852,0.26131507754325867,3.0199923515319824,3.146979331970215,1.18,nan,0.0,3.587402582168579,25,29
1674113053.88207698,75516922,0.2938140332698822,0.0008898675441741943,0.2941001057624817,0.26131507754325867,3.057788610458374,3.1933236122131348,1.24,nan,0.0,3.6346232891082764,24,30
1674113053.98216987,75617015,0.2938780188560486,0.000844120979309082,0.2944343686103821,0.26131507754325867,3.0955958366394043,3.239125967025757,0.85,nan,0.0,3.681307792663574,23,28
1674113054.08210707,75716952,0.29412102699279785,0.0008935332298278809,0.29437223076820374,0.26131507754325867,3.133413314819336,3.281803607940674,1.31,nan,0.0,3.7247931957244873,22,24
1674113054.18210602,75816951,0.2959800362586975,0.0008137524127960205,0.29566630721092224,0.26131507754325867,3.1712398529052734,3.322399139404297,0.97,nan,0.0,3.766700267791748,22,24
1674113054.28210306,75916948,0.296880841255188,0.0008468329906463623,0.2968881130218506,0.26131507754325867,3.2090694904327393,3.361774206161499,1.02,nan,0.0,3.8071041107177734,22,23
1674113054.38206697,76016912,0.2982487976551056,0.000814288854598999,0.2980974614620209,0.26131507754325867,3.246908187866211,3.3967463970184326,1.1300000000000001,nan,0.0,3.8429574966430664,22,23
1674113054.48223710,76117082,0.3001917004585266,0.000805199146270752,0.2993009090423584,0.26131507754325867,3.284749984741211,3.4260270595550537,0.96,nan,0.0,3.873481035232544,23,18
1674113054.58212805,76216973,0.30050280690193176,0.0007102489471435547,0.3009595572948456,0.26131507754325867,3.322591781616211,3.453779935836792,1.25,nan,0.0,3.902261734008789,24,22
1674113054.68212700,76316972,0.3017454743385315,0.000595390796661377,0.3020265996456146,0.26131507754325867,3.360438346862793,3.4806597232818604,1.27,nan,0.0,3.930819034576416,25,24
1674113054.78211594,76416961,0.30227839946746826,0.0004093945026397705,0.3025696873664856,0.26131507754325867,3.3982925415039062,3.5087149143218994,1.0,nan,0.0,3.959902286529541,26,20
1674113054.88221788,76517063,0.30357080698013306,0.00033590197563171387,0.3035183548927307,0.26131507754325867,3.4361464977264404,3.5347740650177,1.26,nan,0.0,3.9873502254486084,27,18
1674113054.98207188,76616917,0.30554014444351196,0.00028130412101745605,0.3046112656593323,0.26131507754325867,3.4740004539489746,3.5612306594848633,1.21,nan,0.0,4.014981269836426,29,22
1674113055.08204508,76716890,0.30224528908729553,0.0002550184726715088,0.30423733592033386,0.26131507754325867,3.511631965637207,3.586174249649048,1.34,nan,0.0,4.040953159332275,29,20
1674113055.18208098,76816926,0.29569920897483826,0.000264585018157959,0.3008979856967926,0.26131507754325867,3.5470733642578125,3.6128387451171875,1.16,nan,0.0,4.06907844543457,26,20
1674113055.28207493,76916920,0.29147255420684814,0.00020939111709594727,0.2953048050403595,0.26131507754325867,3.577754020690918,3.6372365951538086,1.34,nan,0.0,4.094504356384277,22,27
1674113055.38204789,77016893,0.28964388370513916,0.00026798248291015625,0.29190367460250854,0.26131507754325867,3.6031672954559326,3.6616177558898926,1.57,nan,0.0,4.120266437530518,17,19
1674113055.48205304,77116898,0.2883661389350891,0.00024259090423583984,0.290198415517807,0.26131507754325867,3.623967170715332,3.684532642364502,1.24,nan,0.0,4.1442084312438965,12,18
1674113055.58211708,77216962,0.2871800363063812,0.0002904236316680908,0.2886134684085846,0.26131507754325867,3.64098858833313,3.7073135375976562,1.5,nan,0.0,4.16787052154541,8,15
1674113055.68208504,77316930,0.28705498576164246,0.00025585293769836426,0.2878229320049286,0.26131507754325867,3.6549177169799805,3.7265729904174805,1.4000000000000001,nan,0.0,4.188150882720947,5,12
1674113055.78211594,77416961,0.288141131401062,0.00016060471534729004,0.2877533435821533,0.26131507754325867,3.666315793991089,3.7443301677703857,1.67,nan,0.0,4.206788063049316,2,9
1674113055.88204789,77516893,0.28627005219459534,0.00010976195335388184,0.2875334620475769,0.26131507754325867,3.675642728805542,3.758589029312134,1.85,nan,0.0,4.221928119659424,0,10
1674113055.98204803,77616893,0.28729456663131714,0.00017258524894714355,0.2862766683101654,0.26131507754325867,3.683274507522583,3.7751269340515137,1.74,nan,0.0,4.2389140129089355,-2,5
1674113056.08212495,77716970,0.28700223565101624,0.00013133883476257324,0.28706344962120056,0.26131507754325867,3.6895201206207275,3.7910478115081787,1.51,nan,0.0,4.255422592163086,-4,3
1674113056.18212295,77816968,0.2854251265525818,6.961822509765625e-05,0.2860860228538513,0.26131507754325867,3.6946330070495605,3.8050312995910645,1.9000000000000001,nan,0.0,4.26934814453125,-6,0
1674113056.28204703,77916892,0.2874827980995178,5.447864532470703e-05,0.2869489789009094,0.26131507754325867,3.6988155841827393,3.81598162651062,1.6300000000000001,nan,0.0,4.280452728271484,-7,0
1674113056.38207793,78016923,0.2874392569065094,4.646182060241699e-05,0.28749144077301025,0.26131507754325867,3.7022390365600586,3.8258354663848877,1.9000000000000001,nan,0.0,4.290673732757568,-9,-4
1674113056.48211408,78116959,0.2910756766796112,3.8623809814453125e-05,0.28862741589546204,0.26131507754325867,3.7050399780273438,3.831753730773926,1.6,nan,0.0,4.296885967254639,-10,-4
1674113056.58213806,78216983,0.2941228151321411,8.067488670349121e-05,0.2923952639102936,0.26131507754325867,3.70733380317688,3.83522367477417,1.45,nan,0.0,4.300510883331299,-10,-10
1674113056.68209600,78316941,0.29644864797592163,8.738040924072266e-05,0.2947918176651001,0.26131507754325867,3.7092092037200928,3.8321480751037598,0.9,nan,0.0,4.297231197357178,-10,-13
1674113056.78207302,78416918,0.2978209853172302,7.50422477722168e-05,0.2967393696308136,0.26131507754325867,3.7107436656951904,3.8227670192718506,1.41,nan,0.0,4.287996292114258,-9,-17
1674113056.88207698,78516922,0.30042997002601624,7.69495964050293e-05,0.2989172637462616,0.26131507754325867,3.7119991779327393,3.8055644035339355,1.31,nan,0.0,4.270729064941406,-8,-11
1674113056.98204494,78616890,0.3052334785461426,0.00011199712753295898,0.3018743395805359,0.26131507754325867,3.713027000427246,3.7882418632507324,1.1500000000000001,nan,0.0,4.253764629364014,-6,-16
1674113057.08206797,78716913,0.30657583475112915,0.00014895200729370117,0.30468472838401794,0.26131507754325867,3.7138683795928955,3.7677717208862305,1.25,nan,0.0,4.233516216278076,-4,-18
1674113057.18209696,78816942,0.30756664276123047,0.00013515353202819824,0.3062247633934021,0.26131507754325867,3.7145564556121826,3.748307704925537,1.59,nan,0.0,4.214051723480225,-2,-13
1674113057.28209805,78916943,0.3090965449810028,0.00012752413749694824,0.3079055845737457,0.26131507754325867,3.7151198387145996,3.7295656204223633,1.28,nan,0.0,4.195244789123535,0,-15
1674113057.38210297,79016948,0.3103826344013214,0.0002016127109527588,0.30904868245124817,0.26131507754325867,3.715580940246582,3.715125322341919,1.51,nan,0.0,4.181016445159912,0,-16
1674113057.48204088,79116886,0.3117283582687378,0.0002504289150238037,0.31103605031967163,0.26131507754325867,3.7159583568573,3.703228712081909,1.56,nan,0.0,4.169119834899902,1,-13
1674113057.58215594,79217001,0.31257864832878113,0.0003285706043243408,0.31216034293174744,0.26131507754325867,3.7162671089172363,3.6962742805480957,1.43,nan,0.0,4.162165641784668,2,-12
1674113057.68211794,79316963,0.31183651089668274,0.0003228485584259033,0.31264883279800415,0.26131507754325867,3.716519594192505,3.6924943923950195,1.16,nan,0.0,4.158810138702393,2,-8
1674113057.78212500,79416970,0.31153571605682373,0.00035506486892700195,0.31217628717422485,0.26131507754325867,3.716726303100586,3.68998122215271,1.24,nan,0.0,4.156296730041504,2,-6
1674113057.88210988,79516955,0.31015563011169434,0.00032639503479003906,0.31149888038635254,0.26131507754325867,3.7168960571289062,3.687238931655884,1.17,nan,0.0,4.153554439544678,3,-4
1674113057.98214197,79616987,0.30726468563079834,0.0003145933151245117,0.3092378079891205,0.26131507754325867,3.717033863067627,3.6864242553710938,0.98,nan,0.0,4.152739524841309,3,-2
1674113058.08210492,79716950,0.3059528172016144,0.00026106834411621094,0.30750787258148193,0.26131507754325867,3.7171473503112793,3.6848485469818115,1.1300000000000001,nan,0.0,4.1511640548706055,3,0
1674113058.18206096,79816906,0.3027638792991638,0.00026488304138183594,0.3053246736526489,0.26131507754325867,3.7172396183013916,3.684882402420044,1.18,nan,0.0,4.15140962600708,3,1
1674113058.28207994,79916925,0.30333197116851807,0.00027441978454589844,0.30450043082237244,0.26131507754325867,3.717316150665283,3.686220407485962,1.18,nan,0.0,4.152747631072998,3,3
1674113058.38206697,80016912,0.30150359869003296,0.00029534101486206055,0.30313941836357117,0.26131507754325867,3.7173783779144287,3.689728260040283,1.28,nan,0.0,4.156255722045898,2,1
1674113058.48207998,80116925,0.3001701235771179,0.0002942085266113281,0.3019581735134125,0.26131507754325867,3.71742844581604,3.6959123611450195,0.92,nan,0.0,4.162439823150635,2,3
1674113058.58204699,80216892,0.2994079291820526,0.0003096163272857666,0.3009006381034851,0.26131507754325867,3.7174694538116455,3.7021772861480713,1.16,nan,0.0,4.16891622543335,1,5
1674113058.68213391,80316979,0.2987290322780609,0.00031071901321411133,0.2997293770313263,0.26131507754325867,3.717505931854248,3.7068865299224854,1.26,nan,0.0,4.173625469207764,1,6
1674113058.78209901,80416944,0.29986584186553955,0.0003184080123901367,0.2993595004081726,0.26131507754325867,3.7175307273864746,3.7119481563568115,1.12,nan,0.0,4.17868709564209,0,7
1674113058.88208604,80516931,0.3000839054584503,0.00031822919845581055,0.2999146282672882,0.26131507754325867,3.717555046081543,3.7135989665985107,0.86,nan,0.0,4.180835723876953,0,3
1674113058.98204088,80616886,0.2989766001701355,0.0002811849117279053,0.2994576394557953,0.26131507754325867,3.71757435798645,3.7138609886169434,0.91,nan,0.0,4.181097507476807,0,5
1674113059.08208394,80716929,0.29952219128608704,0.00027751922607421875,0.29949691891670227,0.26131507754325867,3.7175865173339844,3.710533618927002,1.42,nan,0.0,4.177770614624023,0,5
1674113059.18217301,80817018,0.2994847297668457,0.0002905130386352539,0.29939132928848267,0.26131507754325867,3.7175986766815186,3.7099740505218506,1.2,nan,0.0,4.177422523498535,0,6
1674113059.28211594,80916961,0.2994500696659088,0.0002923905849456787,0.29942384362220764,0.26131507754325867,3.717611074447632,3.7124927043914795,1.36,nan,0.0,4.179941177368164,0,3
1674113059.38209200,81016937,0.2991025149822235,0.0002980232238769531,0.29968029260635376,0.26131507754325867,3.717623233795166,3.716362476348877,1.29,nan,0.0,4.183810710906982,0,1
1674113059.48207593,81116921,0.2969343662261963,0.00031825900077819824,0.298539936542511,0.26131507754325867,3.7176353931427,3.7215023040771484,1.46,nan,0.0,4.1895952224731445,0,4
1674113059.58211303,81216958,0.2955068051815033,0.0003425776958465576,0.2967989444732666,0.26131507754325867,3.7176361083984375,3.7290468215942383,1.28,nan,0.0,4.197140216827393,-1,2
1674113059.68209195,81316937,0.29559680819511414,0.00034311413764953613,0.2964564263820648,0.26131507754325867,3.7176361083984375,3.73781418800354,1.46,nan,0.0,4.206119060516357,-2,1
1674113059.78205895,81416904,0.2940427362918854,0.0002846717834472656,0.29571807384490967,0.26131507754325867,3.7176361083984375,3.7468528747558594,1.3900000000000001,nan,0.0,4.215157985687256,-2,2
1674113059.88204908,81516894,0.29551026225090027,0.0002740323543548584,0.2955247759819031,0.26131507754325867,3.7176361083984375,3.754950523376465,0.9400000000000001,nan,0.0,4.223255157470703,-3,2
1674113059.98206306,81616908,0.29604870080947876,0.00027114152908325195,0.29605716466903687,0.26131507754325867,3.7176361083984375,3.759653329849243,1.1,nan,0.0,4.228382587432861,-4,0
1674113060.08208799,81716933,0.2953246235847473,0.000294417142868042,0.29560917615890503,0.26131507754325867,3.7176361083984375,3.7597625255584717,0.9500000000000001,nan,0.0,4.22849178314209,-4,-2
1674113060.18205690,81816902,0.2963006794452667,0.0003102719783782959,0.2958391010761261,0.26131507754325867,3.7176361083984375,3.7576634883880615,1.1,nan,0.0,4.22639274597168,-4,1
1674113060.28211188,81916957,0.2970900237560272,0.00028586387634277344,0.2968408167362213,0.26131507754325867,3.7176361083984375,3.754300117492676,1.03,nan,0.0,4.223239898681641,-3,0
1674113060.38207006,82016915,0.297551691532135,0.00032523274421691895,0.29770660400390625,0.26131507754325867,3.7176361083984375,3.7494184970855713,1.24,nan,0.0,4.218358516693115,-3,-4
1674113060.48210287,82116948,0.2982507050037384,0.0002757906913757324,0.29824498295783997,0.26131507754325867,3.7176361083984375,3.7445194721221924,1.24,nan,0.0,4.213459491729736,-2,-2
1674113060.58205605,82216901,0.2975310683250427,0.0002983510494232178,0.2979315519332886,0.26131507754325867,3.7176361083984375,3.7413878440856934,1.18,nan,0.0,4.210328102111816,-2,-3
1674113060.68208098,82316926,0.29678452014923096,0.00029397010803222656,0.29762300848960876,0.26131507754325867,3.7176361083984375,3.7394838333129883,1.08,nan,0.0,4.208424091339111,-2,-1
1674113060.78221989,82417065,0.2967996597290039,0.00028082728385925293,0.29720839858055115,0.26131507754325867,3.7176361083984375,3.737260341644287,1.07,nan,0.0,4.206200122833252,-1,-3
1674113060.88210797,82516953,0.2990923523902893,0.0002790093421936035,0.29767942428588867,0.26131507754325867,3.7176361083984375,3.7321507930755615,1.04,nan,0.0,4.2010908126831055,-1,-3
1674113060.98211598,82616961,0.2995634078979492,0.00023850798606872559,0.2990945875644684,0.26131507754325867,3.7176361083984375,3.7259459495544434,1.28,nan,0.0,4.194886207580566,0,-4
1674113061.08213902,82716984,0.30045488476753235,0.0002644360065460205,0.300313264131546,0.26131507754325867,3.7176361083984375,3.718909740447998,1.03,nan,0.0,4.187849998474121,0,-5
1674113061.18219995,82817045,0.3005388081073761,0.0002637505531311035,0.3004220128059387,0.26131507754325867,3.7176361083984375,3.7131078243255615,1.11,nan,0.0,4.18183708190918,0,-2
1674113061.28205299,82916898,0.30022063851356506,0.00026282668113708496,0.30062246322631836,0.26131507754325867,3.7176361083984375,3.7056851387023926,1.4000000000000001,nan,0.0,4.174414157867432,1,-2
1674113061.38207507,83016920,0.3014964461326599,0.000257343053817749,0.30139636993408203,0.26131507754325867,3.7176361083984375,3.701606273651123,1.41,nan,0.0,4.17033576965332,1,-2
1674113061.48206496,83116910,0.2999258041381836,0.0002601146697998047,0.30166515707969666,0.26131507754325867,3.7176361083984375,3.7001333236694336,1.2,nan,0.0,4.168862342834473,1,-2
1674113061.58207703,83216922,0.2975059449672699,0.0002719759941101074,0.2998504936695099,0.26131507754325867,3.7176361083984375,3.701713800430298,1.23,nan,0.0,4.170443058013916,1,0
1674113061.68206787,83316913,0.2981296479701996,0.00026476383209228516,0.29846295714378357,0.26131507754325867,3.7176361083984375,3.703730583190918,1.59,nan,0.0,4.172460079193115,1,2
1674113061.78207088,83416916,0.29846692085266113,0.00026232004165649414,0.298211932182312,0.26131507754325867,3.7176361083984375,3.7091870307922363,1.37,nan,0.0,4.177916049957275,0,1
1674113061.88211799,83516963,0.29777148365974426,0.00022327899932861328,0.29828596115112305,0.26131507754325867,3.7176361083984375,3.7156665325164795,1.03,nan,0.0,4.184395790100098,0,1
1674113061.98210287,83616948,0.29898855090141296,0.00023826956748962402,0.2982383668422699,0.26131507754325867,3.7176361083984375,3.7210185527801514,1.45,nan,0.0,4.1897478103637695,0,0
1674113062.08213091,83716976,0.29726943373680115,0.0002027451992034912,0.2982548177242279,0.26131507754325867,3.7176361083984375,3.725536346435547,1.16,nan,0.0,4.194265842437744,0,0
1674113062.18205905,83816904,0.29804396629333496,0.00020942091941833496,0.2983250916004181,0.26131507754325867,3.7176361083984375,3.730205535888672,1.31,nan,0.0,4.19851016998291,-1,1
1674113062.28211188,83916957,0.2987477779388428,0.00018262863159179688,0.29855573177337646,0.26131507754325867,3.7176361083984375,3.7340290546417236,1.43,nan,0.0,4.202333927154541,-1,0
1674113062.38210702,84016952,0.2963634133338928,0.00020143389701843262,0.2984314262866974,0.26131507754325867,3.7176361083984375,3.7382149696350098,1.35,nan,0.0,4.206519603729248,-2,-1
1674113062.48209310,84116938,0.2954471707344055,0.0001882016658782959,0.2970235347747803,0.26131507754325867,3.7176361083984375,3.742525815963745,1.11,nan,0.0,4.2108306884765625,-2,0
1674113062.58213902,84216984,0.29462704062461853,0.00020244717597961426,0.29619070887565613,0.26131507754325867,3.7176361083984375,3.746194362640381,1.22,nan,0.0,4.214499473571777,-2,-1
1674113062.68208504,84316930,0.2944670617580414,0.000232011079788208,0.2954295575618744,0.26131507754325867,3.7176361083984375,3.7477405071258545,1.3,nan,0.0,4.216045379638672,-3,0
1674113062.78207803,84416923,0.2941504120826721,0.00019657611846923828,0.2947748899459839,0.26131507754325867,3.7176361083984375,3.7495949268341064,1.0,nan,0.0,4.217899799346924,-3,0
1674113062.88212299,84516968,0.29378414154052734,0.0001895427703857422,0.29415401816368103,0.26131507754325867,3.7176361083984375,3.750840663909912,1.62,nan,0.0,4.219145774841309,-3,0
1674113062.98208094,84616926,0.2952791750431061,0.00020748376846313477,0.29522013664245605,0.26131507754325867,3.7176361083984375,3.752603054046631,1.21,nan,0.0,4.220907688140869,-3,0
1674113063.08208990,84716935,0.2959369421005249,0.00020501017570495605,0.2955271601676941,0.26131507754325867,3.7176361083984375,3.7548892498016357,1.26,nan,0.0,4.222982406616211,-3,0
1674113063.18207097,84816916,0.2968132495880127,0.00021123886108398438,0.29620662331581116,0.26131507754325867,3.7176361083984375,3.7558674812316895,1.49,nan,0.0,4.2239603996276855,-3,-3
1674113063.28204608,84916891,0.2982623875141144,0.00023108720779418945,0.2973766624927521,0.26131507754325867,3.7176361083984375,3.7575011253356934,1.35,nan,0.0,4.2255940437316895,-3,-4
1674113063.38205600,85016901,0.298843652009964,0.00022050738334655762,0.2980862557888031,0.26131507754325867,3.7176361083984375,3.7591142654418945,1.18,nan,0.0,4.227207660675049,-4,0
1674113063.48214102,85116986,0.29828208684921265,0.00023156404495239258,0.2984406352043152,0.26131507754325867,3.7176361083984375,3.75813364982605,1.25,nan,0.0,4.226006507873535,-4,-4
1674113063.58209896,85216944,0.2992886006832123,0.0002409815788269043,0.29879245162010193,0.26131507754325867,3.7176361083984375,3.755275249481201,1.25,nan,0.0,4.223147869110107,-3,-4
1674113063.68206787,85316913,0.3005469739437103,0.00024011731147766113,0.29960504174232483,0.26131507754325867,3.7176361083984375,3.7498059272766113,1.48,nan,0.0,4.217678546905518,-3,-4
1674113063.78208089,85416926,0.30137234926223755,0.0002606809139251709,0.30065006017684937,0.26131507754325867,3.7176361083984375,3.746002435684204,1.29,nan,0.0,4.2138752937316895,-2,-7
1674113063.88221908,85517064,0.3013993799686432,0.0002536773681640625,0.30152273178100586,0.26131507754325867,3.7176361083984375,3.742432117462158,1.43,nan,0.0,4.210305213928223,-2,-7
1674113063.98209906,85616944,0.3008299767971039,0.0002421736717224121,0.3016274571418762,0.26131507754325867,3.7176361083984375,3.740251064300537,1.17,nan,0.0,4.208123683929443,-2,-4
1674113064.08204603,85716891,0.29949188232421875,0.0002262890338897705,0.3005845248699188,0.26131507754325867,3.7176361083984375,3.738788366317749,1.48,nan,0.0,4.206661224365234,-2,-3
1674113064.18212295,85816968,0.3008538782596588,0.00020650029182434082,0.30074480175971985,0.26131507754325867,3.7176361083984375,3.7387776374816895,0.9500000000000001,nan,0.0,4.206650257110596,-2,-6
1674113064.28208995,85916935,0.30125758051872253,0.00021123886108398438,0.30142346024513245,0.26131507754325867,3.7176361083984375,3.739802122116089,0.79,nan,0.0,4.207886695861816,-2,-3
1674113064.38207889,86016924,0.29980984330177307,0.0002440810203552246,0.30039864778518677,0.26131507754325867,3.7176361083984375,3.73726224899292,1.1400000000000001,nan,0.0,4.205346584320068,-1,-2
1674113064.48206902,86116914,0.2990185022354126,0.00027686357498168945,0.2994872033596039,0.26131507754325867,3.7176361083984375,3.7344868183135986,1.11,nan,0.0,4.2024245262146,-1,-2
1674113064.58210087,86216946,0.3008790612220764,0.00028267502784729004,0.29993510246276855,0.26131507754325867,3.7176361083984375,3.7322545051574707,1.42,nan,0.0,4.200191974639893,-1,-2
1674113064.68206406,86316909,0.3013223111629486,0.0002791285514831543,0.3006479740142822,0.26131507754325867,3.7176361083984375,3.7322022914886475,1.33,nan,0.0,4.200139999389648,-1,-1
1674113064.78209400,86416939,0.30011242628097534,0.0002937912940979004,0.30059221386909485,0.26131507754325867,3.7176361083984375,3.7336502075195312,1.37,nan,0.0,4.201587677001953,-1,-2
1674113064.88206601,86516911,0.29849597811698914,0.00030434131622314453,0.29949697852134705,0.26131507754325867,3.7176361083984375,3.734635829925537,1.2,nan,0.0,4.20299768447876,-1,-3
1674113064.98215604,86617001,0.3000253140926361,0.00028628110885620117,0.29939568042755127,0.26161688566207886,3.7176361083984375,3.7364349365234375,1.11,nan,0.0,4.20479679107666,-1,1
1674113065.08211708,86716962,0.30057454109191895,0.00026616454124450684,0.3000185191631317,0.2619960904121399,3.7176361083984375,3.736807107925415,1.43,nan,0.0,4.205169200897217,-1,0
1674113065.18208408,86816929,0.3014369010925293,0.00022491812705993652,0.3005620837211609,0.2623765170574188,3.7176361083984375,3.7372283935546875,1.1500000000000001,nan,0.0,4.20559024810791,-1,-1
1674113065.28203106,86916876,0.30255162715911865,0.00022494792938232422,0.3015691041946411,0.2627614140510559,3.7176361083984375,3.7364089488983154,1.33,nan,0.0,4.2051286697387695,-1,-3
1674113065.38207507,87016920,0.30195754766464233,0.00022417306900024414,0.3018794655799866,0.26315003633499146,3.7176361083984375,3.7361812591552734,1.26,nan,0.0,4.204900741577148,-1,-2
1674113065.48212504,87116970,0.3025866150856018,0.000205308198928833,0.30191245675086975,0.263534814119339,3.7176361083984375,3.737600088119507,1.0,nan,0.0,4.206319808959961,-1,0
1674113065.58212209,87216967,0.30275923013687134,0.0001913607120513916,0.30247196555137634,0.2639191150665283,3.7176361083984375,3.7376744747161865,1.3,nan,0.0,4.206394195556641,-2,0
1674113065.68212509,87316970,0.30260297656059265,0.00020053982734680176,0.30296680331230164,0.2643055021762848,3.7176361083984375,3.7367777824401855,1.3,nan,0.0,4.205718040466309,-1,-4
1674113065.78209686,87416942,0.3005063533782959,0.00021436810493469238,0.30238452553749084,0.2646885812282562,3.7176361083984375,3.7369017601013184,1.32,nan,0.0,4.205842018127441,-1,-2
1674113065.88208604,87516931,0.2998359501361847,0.00022926926612854004,0.3012024760246277,0.26505720615386963,3.7176361083984375,3.737389326095581,1.07,nan,0.0,4.206329345703125,-1,-2
1674113065.98205709,87616902,0.3017881512641907,0.00022241473197937012,0.3012787103652954,0.2654150128364563,3.7176361083984375,3.7381398677825928,1.26,nan,0.0,4.207226753234863,-2,-2
1674113066.08204603,87716891,0.30394503474235535,0.00016754865646362305,0.3031576871871948,0.2657805383205414,3.7176361083984375,3.737161874771118,1.24,nan,0.0,4.206248760223389,-1,-2
1674113066.18208504,87816930,0.30231139063835144,0.0001582801342010498,0.30371174216270447,0.2661581039428711,3.7176361083984375,3.7364983558654785,1.03,nan,0.0,4.20558500289917,-1,0
1674113066.28205991,87916905,0.30128082633018494,0.00014969706535339355,0.30280500650405884,0.2665271759033203,3.7176361083984375,3.7348341941833496,1.44,nan,0.0,4.203709125518799,-1,0
1674113066.38211608,88016961,0.2975846827030182,0.0001468658447265625,0.30072370171546936,0.2668796479701996,3.7176361083984375,3.7354044914245605,1.57,nan,0.0,4.2044267654418945,-1,0
1674113066.48206902,88116914,0.29717114567756653,0.00015586614608764648,0.29833149909973145,0.2672022879123688,3.7176361083984375,3.7397499084472656,1.32,nan,0.0,4.2087721824646,-2,1
1674113066.58212209,88216967,0.2972825765609741,0.0001430809497833252,0.29750171303749084,0.26750725507736206,3.7176361083984375,3.746833086013794,1.48,nan,0.0,4.215855121612549,-2,0
1674113066.68210101,88316946,0.2978060841560364,0.00012552738189697266,0.2975296378135681,0.2678054869174957,3.7176361083984375,3.75449538230896,1.47,nan,0.0,4.223664283752441,-3,3
1674113066.78203106,88416876,0.2996116578578949,0.00010585784912109375,0.29939350485801697,0.2681092619895935,3.7176361083984375,3.7623207569122314,1.25,nan,0.0,4.231489658355713,-4,0
1674113066.88203597,88516881,0.299026221036911,0.0001462697982788086,0.29896220564842224,0.2684187591075897,3.7176361083984375,3.7686030864715576,1.78,nan,0.0,4.237771987915039,-5,0
1674113066.98216796,88617013,0.2997438311576843,0.00015091896057128906,0.2999838590621948,0.2687266767024994,3.7176361083984375,3.775587320327759,1.81,nan,0.0,4.24475622177124,-5,-3
1674113067.08222198,88717067,0.2999609112739563,0.00017940998077392578,0.30017203092575073,0.2690379023551941,3.7176361083984375,3.7843880653381348,1.68,nan,0.0,4.253556728363037,-6,-1
1674113067.18209791,88816943,0.3031679689884186,0.00019851326942443848,0.30162057280540466,0.2693532109260559,3.7176361083984375,3.79366135597229,1.95,nan,0.0,4.2628302574157715,-7,-1
1674113067.28215289,88916998,0.3019513487815857,0.0002446472644805908,0.30204418301582336,0.26967790722846985,3.7176361083984375,3.803931713104248,1.46,nan,0.0,4.273532867431641,-8,-4
1674113067.38208389,89016929,0.30090829730033875,0.00023749470710754395,0.30160748958587646,0.2699985206127167,3.7176361083984375,3.813369035720825,1.92,nan,0.0,4.282969951629639,-9,-6
1674113067.48205709,89116902,0.3003261685371399,0.00026404857635498047,0.30106672644615173,0.27031031250953674,3.7176361083984375,3.822071075439453,1.6400000000000001,nan,0.0,4.291451930999756,-10,-6
1674113067.58206487,89216910,0.3014577031135559,0.00024107098579406738,0.30131128430366516,0.27061599493026733,3.7176361083984375,3.8303771018981934,1.55,nan,0.0,4.299757480621338,-11,-5
1674113067.68208909,89316934,0.30204084515571594,0.0002532005310058594,0.3019843101501465,0.27092352509498596,3.7176361083984375,3.834909677505493,1.68,nan,0.0,4.304502010345459,-11,-8
1674113067.78206396,89416909,0.3001764416694641,0.00024569034576416016,0.3019028902053833,0.27123361825942993,3.7176361083984375,3.83811354637146,1.42,nan,0.0,4.307705879211426,-12,-8
1674113067.88207006,89516915,0.3007851243019104,0.0002529621124267578,0.3012070059776306,0.27153339982032776,3.7176361083984375,3.8406004905700684,1.24,nan,0.0,4.310193061828613,-12,-8
1674113067.98206306,89616908,0.3005527853965759,0.00029850006103515625,0.3013738989830017,0.2718297839164734,3.7176361083984375,3.839813470840454,1.67,nan,0.0,4.309683322906494,-12,-6
1674113068.08212090,89716966,0.30124473571777344,0.0003521144390106201,0.3011537790298462,0.272121787071228,3.7176361083984375,3.8383004665374756,1.97,nan,0.0,4.308170318603516,-12,-11
1674113068.18212700,89816972,0.3048539459705353,0.00034552812576293945,0.3031936287879944,0.2724184989929199,3.7176361083984375,3.838804006576538,1.01,nan,0.0,4.308673858642578,-12,-12
1674113068.28210998,89916955,0.3070395290851593,0.0003445744514465332,0.3052584230899811,0.27273547649383545,3.7176361083984375,3.8371965885162354,0.9500000000000001,nan,0.0,4.307066440582275,-11,-11
1674113068.38204408,90016889,0.310392826795578,0.0003648996353149414,0.30826687812805176,0.273072212934494,3.7176361083984375,3.828559160232544,1.55,nan,0.0,4.298494815826416,-11,-15
1674113068.48205495,90116900,0.3099748194217682,0.00035625696182250977,0.31000903248786926,0.27343320846557617,3.7176361083984375,3.817350387573242,1.93,nan,0.0,4.287285804748535,-9,-15
1674113068.58210707,90216952,0.31121981143951416,0.0004074275493621826,0.31080928444862366,0.27379944920539856,3.7176361083984375,3.8102149963378906,1.48,nan,0.0,4.280150890350342,-9,-13
1674113068.68211389,90316959,0.311761736869812,0.00036072731018066406,0.3118089735507965,0.2741720974445343,3.7176361083984375,3.80578875541687,1.54,nan,0.0,4.276147842407227,-8,-11
1674113068.78210092,90416946,0.311122328042984,0.0004457831382751465,0.3121887445449829,0.2745489478111267,3.7176361083984375,3.8013360500335693,1.47,nan,0.0,4.271548271179199,-8,-11
1674113068.88213706,90516982,0.31516581773757935,0.00048619508743286133,0.3138054609298706,0.2749287188053131,3.7176361083984375,3.796847105026245,1.62,nan,0.0,4.267059326171875,-7,-12
1674113068.98207808,90616923,0.3153648376464844,0.00041541457176208496,0.31493043899536133,0.2753218710422516,3.7176361083984375,3.792916774749756,1.54,nan,0.0,4.263341426849365,-7,-12
1674113069.08209205,90716937,0.31579864025115967,0.0004469454288482666,0.31549331545829773,0.27571800351142883,3.7176361083984375,3.790680170059204,1.06,nan,0.0,4.261105060577393,-7,-11
1674113069.18213296,90816978,0.31662824749946594,0.00038623809814453125,0.31644105911254883,0.27611708641052246,3.7176361083984375,3.7867467403411865,1.16,nan,0.0,4.257171630859375,-6,-10
1674113069.28217697,90917022,0.31519126892089844,0.0004621446132659912,0.31667596101760864,0.2765214741230011,3.7176361083984375,3.780582904815674,1.34,nan,0.0,4.250999927520752,-6,-12
1674113069.38206387,91016909,0.3145850598812103,0.0004919469356536865,0.31572869420051575,0.2769169211387634,3.7176361083984375,3.7748937606811523,1.33,nan,0.0,4.2453107833862305,-5,-8
1674113069.48206401,91116909,0.3138425648212433,0.0004445314407348633,0.31449928879737854,0.2772970199584961,3.7176361083984375,3.769991636276245,1.26,nan,0.0,4.240408897399902,-5,-6
1674113069.58208704,91216932,0.31278330087661743,0.00042447447776794434,0.3139554560184479,0.27766433358192444,3.7176361083984375,3.7666563987731934,1.22,nan,0.0,4.23707389831543,-4,-6
1674113069.68210888,91316954,0.31121331453323364,0.0004024207592010498,0.31262683868408203,0.2780189514160156,3.7176361083984375,3.7642784118652344,1.34,nan,0.0,4.234695911407471,-4,-4
