timestamp,TimeUS,ThI,ABst,ThO,ThH,DAlt,Alt,BAlt,DSAlt,SAlt,TAlt,DCRt,CRt
1674112508.74441195,76064561,0.0,0.0,0.0,0.2137499898672104,0.0,-0.5516838431358337,-2.75,nan,0.0,0.008316144347190857,0,0
1674112508.84247613,76162625,0.0,0.0,0.0,0.2137499898672104,0.0,-0.528474748134613,-2.66,nan,0.0,0.03152523934841156,0,16
1674112508.94246197,76262611,0.0,0.0,0.0,0.2137499898672104,0.0,-0.5074369311332703,-2.79,nan,0.0,0.052563056349754333,0,16
1674112509.04244113,76362590,0.0,0.0,0.0,0.2137499898672104,0.0,-0.4902595281600952,-2.66,nan,0.0,0.06952489912509918,0,16
1674112509.14245200,76462601,0.0,0.0,0.0,0.2137499898672104,0.0,-0.47709837555885315,-2.65,nan,0.0,0.08268608152866364,0,15
1674112509.24253201,76562681,0.0,0.0,0.0,0.2137499898672104,0.0,-0.46721112728118896,-2.66,nan,0.0,0.09257330000400543,0,15
1674112509.34248900,76662638,0.0,0.0,0.0,0.2137499898672104,0.0,-0.4578183889389038,-2.5300000000000002,nan,0.0,0.10153497755527496,0,15
1674112509.44246602,76762615,0.0,0.0,0.0,0.2137499898672104,0.0,-0.44880616664886475,-2.47,nan,0.0,0.11054719984531403,0,14
1674112509.54247117,76862620,0.0,0.0,0.0,0.2137499898672104,0.0,-0.4410325586795807,-2.63,nan,0.0,0.11832083761692047,0,14
1674112509.64247704,76962626,0.0,0.0,0.0,0.2137499898672104,0.0,-0.4348350763320923,-2.42,nan,0.0,0.12430371344089508,0,14
1674112509.74249005,77062639,0.0,0.0,0.0,0.2137499898672104,0.0,-0.4277693033218384,-2.69,nan,0.0,0.131369486451149,0,13
1674112509.84247398,77162623,0.0,0.0,0.0,0.2137499898672104,0.0,-0.4229320287704468,-2.67,nan,0.0,0.1362067610025406,0,13
1674112509.94250011,77262649,0.0,0.0,0.0,0.2137499898672104,0.0,-0.41802898049354553,-2.5300000000000002,nan,0.0,0.14089526236057281,0,12
1674112510.04245901,77362608,0.0,0.0,0.0,0.2137499898672104,0.0,-0.4179340600967407,-2.88,nan,0.0,0.140768900513649,0,12
1674112510.14249015,77462639,0.0,0.0,0.0,0.2137499898672104,0.0,-0.41867461800575256,-2.44,nan,0.0,0.14002837240695953,0,11
1674112510.24247313,77562622,0.0,0.0,0.0,0.2137499898672104,0.0,-0.4183753728866577,-2.57,nan,0.0,0.140327587723732,0,11
1674112510.34249711,77662646,0.0,0.0,0.0,0.2137499898672104,0.0,-0.41583743691444397,-2.52,nan,0.0,0.14243640005588531,0,10
1674112510.44247699,77762626,0.0,0.0,0.0,0.2137499898672104,0.0,-0.4145559072494507,-2.69,nan,0.0,0.1437178999185562,0,10
1674112510.54247808,77862627,0.0,0.0,0.0,0.2137499898672104,0.0,-0.41264453530311584,-2.65,nan,0.0,0.14562930166721344,0,9
1674112510.64242911,77962578,0.0,0.0,0.0,0.2137499898672104,0.0,-0.4114586114883423,-2.61,nan,0.0,0.1468151956796646,0,9
1674112510.74245000,78062599,0.0,0.0,0.0,0.2137499898672104,0.0,-0.4091626703739166,-2.67,nan,0.0,0.14911116659641266,0,9
1674112510.84248304,78162632,0.0,0.0,0.0,0.2137499898672104,0.0,-0.4075819253921509,-2.61,nan,0.0,0.1504753977060318,0,8
1674112510.94243813,78262587,0.0,0.0,0.0,0.2137499898672104,0.0,-0.40507498383522034,-2.34,nan,0.0,0.15298236906528473,0,8
1674112511.04250097,78362650,0.0,0.0,0.0,0.2137499898672104,0.0,-0.4014641046524048,-2.5500000000000003,nan,0.0,0.1565932184457779,0,8
1674112511.14248395,78462633,0.0,0.0,0.0,0.2137499898672104,0.0,-0.39640894532203674,-2.59,nan,0.0,0.16150058805942535,0,7
1674112511.24250317,78562652,0.0,0.0,0.0,0.2137499898672104,0.0,-0.39054957032203674,-2.37,nan,0.0,0.16692985594272614,0,7
1674112511.34248805,78662637,0.0,0.0,0.0,0.2137499898672104,0.0,-0.3832453787326813,-2.61,nan,0.0,0.1742340475320816,0,7
1674112511.44246197,78762611,0.0,0.0,0.0,0.2137499898672104,0.0,-0.3794163763523102,-2.5100000000000002,nan,0.0,0.1780630499124527,0,7
1674112511.54248714,78862636,0.0,0.0,0.0,0.2137499898672104,0.0,-0.3761662542819977,-2.43,nan,0.0,0.18146099150180817,0,7
1674112511.64246511,78962614,0.0,0.0,0.0,0.2137499898672104,0.0,-0.3734644949436188,-2.44,nan,0.0,0.18394722044467926,0,6
1674112511.74248004,79062629,0.0,0.0,0.0,0.2137499898672104,0.0,-0.36981335282325745,-2.75,nan,0.0,0.1875983625650406,0,6
1674112511.84250617,79162655,0.0,0.0,0.0,0.2137499898672104,0.0,-0.3663386404514313,-2.68,nan,0.0,0.19107307493686676,0,5
1674112511.94251108,79262660,0.0,0.0,0.0,0.2137499898672104,0.0,-0.36276569962501526,-2.5500000000000003,nan,0.0,0.19464601576328278,0,5
1674112512.04248500,79362634,0.0,0.0,0.0,0.2137499898672104,0.0,-0.358877569437027,-2.54,nan,0.0,0.19810403883457184,0,5
1674112512.14249301,79462642,0.0,0.0,0.0,0.2137499898672104,0.0,-0.3542002737522125,-2.79,nan,0.0,0.2027813345193863,0,4
1674112512.24242616,79562575,0.0,0.0,0.0,0.2137499898672104,0.0,-0.3519483804702759,-2.25,nan,0.0,0.20503319799900055,0,4
1674112512.34245610,79662605,0.0,0.0,0.0,0.2137499898672104,0.0,-0.3489929437637329,-2.5500000000000003,nan,0.0,0.20798863470554352,0,4
1674112512.44248414,79762633,0.0,0.0,0.0,0.2137499898672104,0.0,-0.34553587436676025,-2.2600000000000002,nan,0.0,0.21144570410251617,0,4
1674112512.54245400,79862603,0.0,0.0,0.0,0.2137499898672104,0.0,-0.34078752994537354,-2.59,nan,0.0,0.2159794718027115,0,4
1674112512.64248395,79962633,0.0,0.0,0.0,0.2137499898672104,0.0,-0.336876779794693,-2.39,nan,0.0,0.21989025175571442,0,3
1674112512.74249411,80062643,0.0,0.0,0.0,0.2137499898672104,0.0,-0.3327580988407135,-2.5,nan,0.0,0.2240089327096939,0,3
1674112512.84249306,80162642,0.0,0.0,0.0,0.2137499898672104,0.0,-0.3277377188205719,-2.48,nan,0.0,0.2290293127298355,0,3
1674112512.94247699,80262626,0.0,0.0,0.0,0.2137499898672104,0.0,-0.3221415579319,-2.33,nan,0.0,0.23440994322299957,0,3
1674112513.04248500,80362634,0.0,0.0,0.0,0.2137499898672104,0.0,-0.3157638609409332,-2.5,nan,0.0,0.24078764021396637,0,3
1674112513.14246702,80462616,0.0014671239769086242,2.660672180354595e-06,0.0014697836013510823,0.2137499898672104,0.0,-0.3090578615665436,-2.37,nan,0.0,0.24749362468719482,0,3
1674112513.24249411,80562643,0.009833474643528461,1.77016481757164e-05,0.009851079434156418,0.2137499898672104,0.0,-0.3034297525882721,-2.29,nan,0.0,0.2531217336654663,0,3
1674112513.34248209,80662631,0.011578422039747238,2.0612962543964386e-05,0.011599049903452396,0.2137499898672104,0.0,-0.29746928811073303,-2.46,nan,0.0,0.25908219814300537,0,3
1674112513.44248700,80762636,0.011578422039747238,2.063717693090439e-05,0.011598851531744003,0.2137499898672104,0.0,-0.2912069857120514,-2.36,nan,0.0,0.2649143934249878,0,3
1674112513.54247594,80862625,0.01561332494020462,2.761930227279663e-05,0.011598782613873482,0.2137499898672104,0.0,-0.28464213013648987,-2.38,nan,0.0,0.2714792490005493,0,2
1674112513.64247894,80962628,0.016378311440348625,2.9165297746658325e-05,0.016406843438744545,0.2137499898672104,0.0,-0.27827587723731995,-2.36,nan,0.0,0.27784550189971924,0,3
1674112513.74250913,81062658,0.024483641609549522,4.3330714106559753e-05,0.024526504799723625,0.2137499898672104,0.0,-0.27173128724098206,-2.38,nan,0.0,0.28439009189605713,0,3
1674112513.84249616,81162645,0.024483641609549522,4.347600042819977e-05,0.024526450783014297,0.2137499898672104,0.0,-0.26771965622901917,-2.22,nan,0.0,0.2881861925125122,0,3
1674112513.94252014,81262669,0.024483641609549522,4.301592707633972e-05,0.02452661097049713,0.2137499898672104,0.0,-0.2636789381504059,-2.22,nan,0.0,0.2922269105911255,0,2
1674112514.04247904,81362628,0.02475213073194027,4.307739436626434e-05,0.02479586936533451,0.2137499898672104,0.0,-0.2590614855289459,-2.31,nan,0.0,0.29684436321258545,0,2
1674112514.14248300,81462632,0.02475213073194027,4.355236887931824e-05,0.024795550853013992,0.2137499898672104,0.0,-0.2539438307285309,-2.2800000000000002,nan,0.0,0.3019620180130005,0,1
1674112514.24247217,81562621,0.03507676720619202,6.143748760223389e-05,0.035138871520757675,0.2137499898672104,0.0,-0.2459818571805954,-2.24,nan,0.0,0.30949389934539795,0,2
1674112514.34247112,81662620,0.03683223947882652,6.410479545593262e-05,0.03689706698060036,0.2137499898672104,0.0,-0.23690931499004364,-2.27,nan,0.0,0.3185664415359497,0,1
1674112514.44249415,81762643,0.04287504404783249,7.36340880393982e-05,0.042950186878442764,0.2137499898672104,0.0,-0.2287389487028122,-2.54,nan,0.0,0.32673680782318115,0,1
1674112514.54246902,81862618,0.04287504404783249,7.448345422744751e-05,0.04294927790760994,0.2137499898672104,0.0,-0.22174589335918427,-2.25,nan,0.0,0.33351433277130127,0,2
1674112514.64249301,81962642,0.05289866030216217,9.040907025337219e-05,0.05298948660492897,0.2137499898672104,0.0,-0.2166256159543991,-2.3000000000000003,nan,0.0,0.3386346101760864,0,1
1674112514.74248314,82062632,0.05289866030216217,9.122863411903381e-05,0.052989453077316284,0.2137499898672104,0.0,-0.21187607944011688,-2.46,nan,0.0,0.34338414669036865,0,1
1674112514.84249616,82162645,0.05289866030216217,8.978322148323059e-05,0.052988916635513306,0.2137499898672104,0.0,-0.20587556064128876,-2.36,nan,0.0,0.34960687160491943,0,0
1674112514.94248104,82262630,0.06311611831188202,0.00010672956705093384,0.06322473287582397,0.2137499898672104,0.0,-0.1995512694120407,-2.42,nan,0.0,0.3559311628341675,0,0
1674112515.04246211,82362611,0.07031149417161942,0.00011923164129257202,0.07043075561523438,0.2137499898672104,0.0,-0.19290225207805634,-2.43,nan,0.0,0.36214911937713623,0,2
1674112515.14247608,82462625,0.07227631658315659,0.00012030452489852905,0.07239612936973572,0.2137499898672104,0.0,-0.18671362102031708,-2.64,nan,0.0,0.3683377504348755,0,0
1674112515.24249601,82562645,0.07711926102638245,0.0001250132918357849,0.07724348455667496,0.2137499898672104,0.0,-0.18021909892559052,-2.42,nan,0.0,0.37483227252960205,0,1
1674112515.34246111,82662610,0.09051644802093506,0.00014302879571914673,0.09020695090293884,0.2137499898672104,0.0,-0.17382018268108368,-2.32,nan,0.0,0.3810156583786011,0,2
1674112515.44250202,82762651,0.09142715483903885,0.00013825297355651855,0.09156575798988342,0.2137499898672104,0.0,-0.16741816699504852,-2.48,nan,0.0,0.38741767406463623,0,1
1674112515.54258895,82862738,0.09940879046916962,0.00014382600784301758,0.09955177456140518,0.2137499898672104,0.0,-0.16170565783977509,-2.5300000000000002,nan,0.0,0.39313018321990967,0,2
1674112515.64247513,82962624,0.11513436585664749,0.00014759600162506104,0.11528298258781433,0.2137499898672104,0.0,-0.15724460780620575,-2.36,nan,0.0,0.397591233253479,0,2
1674112515.74252605,83062675,0.11513436585664749,0.00012905895709991455,0.11526226997375488,0.2137499898672104,0.0,-0.15280453860759735,-2.43,nan,0.0,0.401816725730896,0,2
1674112515.84248209,83162631,0.11620364338159561,0.0001080930233001709,0.11631233245134354,0.2137499898672104,0.0,-0.14835278689861298,-2.2,nan,0.0,0.40626847743988037,0,2
1674112515.94246411,83262613,0.11620364338159561,9.116530418395996e-05,0.1162918284535408,0.2137499898672104,0.0,-0.14317552745342255,-2.47,nan,0.0,0.41122353076934814,0,1
1674112516.04247808,83362627,0.11620364338159561,7.878988981246948e-05,0.11628229916095734,0.2137499898672104,0.0,-0.13711659610271454,-2.2,nan,0.0,0.41685235500335693,0,2
1674112516.14248204,83462631,0.12500835955142975,7.836520671844482e-05,0.12508828938007355,0.2137499898672104,0.0,-0.13069956004619598,-2.2800000000000002,nan,0.0,0.4232693910598755,0,1
1674112516.24249315,83562642,0.14401903748512268,8.405745029449463e-05,0.14410465955734253,0.2137499898672104,0.0,-0.1254815310239792,-2.45,nan,0.0,0.4284874200820923,0,2
1674112516.34247899,83662628,0.14527209103107452,6.110966205596924e-05,0.1453317105770111,0.2137499898672104,0.0,-0.12022367119789124,-2.37,nan,0.0,0.43353068828582764,0,2
1674112516.44248414,83762633,0.14527209103107452,2.314150333404541e-05,0.14529602229595184,0.2137499898672104,0.0,-0.11297455430030823,-2.3000000000000003,nan,0.0,0.44077980518341064,0,5
1674112516.54249215,83862641,0.14527209103107452,4.872679710388184e-06,0.14527583122253418,0.2137499898672104,0.0,-0.10458794236183167,-2.67,nan,0.0,0.4491664171218872,0,4
1674112516.64252305,83962672,0.14527209103107452,1.3530254364013672e-05,0.145286425948143,0.2137499898672104,0.0,-0.0973145067691803,-2.47,nan,0.0,0.4558619260787964,0,4
1674112516.74248505,84062634,0.1549239307641983,5.169212818145752e-05,0.15497660636901855,0.2137499898672104,0.0,-0.09185495972633362,-2.29,nan,0.0,0.4610992670059204,0,3
1674112516.84249306,84162642,0.15558356046676636,6.768107414245605e-05,0.15564711391925812,0.2137499898672104,0.0,-0.08743658661842346,-2.23,nan,0.0,0.46551764011383057,0,0
1674112516.94247699,84262626,0.15558356046676636,4.455447196960449e-05,0.15562668442726135,0.2137499898672104,0.0,-0.08521142601966858,-2.56,nan,0.0,0.46774280071258545,0,-3
1674112517.04248309,84362632,0.1734682023525238,2.1904706954956055e-05,0.1734893023967743,0.2137499898672104,0.0,-0.08618846535682678,-2.36,nan,0.0,0.46676576137542725,0,-5
1674112517.14250207,84462651,0.18370352685451508,1.2531876564025879e-05,0.1837155669927597,0.2137499898672104,0.0,-0.08820381760597229,-1.69,nan,0.0,0.46518051624298096,0,-3
1674112517.24247694,84562626,0.18370352685451508,1.0222196578979492e-05,0.18371284008026123,0.2137499898672104,0.0,-0.08564391732215881,-1.6,nan,0.0,0.46774041652679443,0,0
1674112517.34251094,84662660,0.18445132672786713,6.42240047454834e-06,0.18445849418640137,0.2137499898672104,0.0,-0.07671204954385757,-2.0,nan,0.0,0.47667229175567627,0,4
1674112517.44246602,84762615,0.18445132672786713,1.5541911125183105e-05,0.18446463346481323,0.2137499898672104,0.0,-0.06366721540689468,-2.16,nan,0.0,0.48971712589263916,0,7
1674112517.54248500,84862634,0.18520142138004303,6.540119647979736e-05,0.18526193499565125,0.2137499898672104,0.0,-0.0501202717423439,-1.94,nan,0.0,0.5027605295181274,0,4
1674112517.64246702,84962616,0.18746523559093475,0.00012348592281341553,0.18758854269981384,0.2137499898672104,0.0,-0.03807798773050308,-2.1,nan,0.0,0.5148028135299683,0,3
1674112517.74247813,85062627,0.1882244050502777,0.0001354515552520752,0.1883620023727417,0.2137499898672104,0.0,-0.028909124433994293,-2.3000000000000003,nan,0.0,0.523971676826477,0,1
1674112517.84248614,85162635,0.19672685861587524,0.00010512769222259521,0.19683320820331573,0.2137499898672104,0.0,-0.023784317076206207,-1.74,nan,0.0,0.5288752317428589,0,-1
1674112517.94247317,85262622,0.21532246470451355,6.841123104095459e-05,0.21539315581321716,0.2137499898672104,0.0,-0.01853291131556034,-1.83,nan,0.0,0.5343478918075562,0,-1
1674112518.04247499,85362624,0.2161119282245636,7.273256778717041e-05,0.21618276834487915,0.2137499898672104,0.0,-0.002066531917080283,-1.51,nan,0.0,0.5505987405776978,0,2
1674112518.14249110,85462640,0.2161119282245636,0.00012677907943725586,0.21623164415359497,0.2137499898672104,0.0,0.02991064451634884,-1.46,nan,0.0,0.5825759172439575,0,5
1674112518.24254513,85562694,0.21690355241298676,0.000206679105758667,0.21710464358329773,0.2137499898672104,0.0,0.07310589402914047,-1.29,nan,0.0,0.6255565881729126,0,6
1674112518.34249806,85662647,0.21690355241298676,0.0002551078796386719,0.21716243028640747,0.2137499898672104,0.0,0.124897800385952,-1.3900000000000001,nan,0.0,0.6766961812973022,0,8
1674112518.44252014,85762669,0.22493970394134521,0.00022792816162109375,0.22516505420207977,0.2137499898672104,0.0,0.18105489015579224,-1.05,nan,0.0,0.7326377630233765,0,9
1674112518.54244804,85862597,0.23236094415187836,0.00023026764392852783,0.23259495198726654,0.2137499898672104,0.0,0.24156934022903442,-0.51,nan,0.0,0.7925733327865601,0,11
1674112518.64247108,85962620,0.23236094415187836,0.00024381279945373535,0.2326146960258484,0.2137499898672104,0.0,0.3161340653896332,-1.21,nan,0.0,0.8661233186721802,0,15
1674112518.74248600,86062635,0.23236094415187836,0.0001926720142364502,0.23253655433654785,0.2137499898672104,0.0,0.3950459659099579,-1.19,nan,0.0,0.9443027973175049,0,19
1674112518.84248805,86162637,0.23236094415187836,0.0001458674669265747,0.23252151906490326,0.2137499898672104,0.0,0.46756216883659363,-1.59,nan,0.0,1.0158023834228516,0,22
1674112518.94246697,86262616,0.23236094415187836,0.00010533630847930908,0.23246534168720245,0.2137499898672104,0.0,0.5311159491539001,-1.35,nan,0.0,1.0780439376831055,0,22
1674112519.04250407,86362653,0.23236094415187836,7.678568363189697e-05,0.2324351817369461,0.2137499898672104,0.0,0.5882845520973206,-1.46,nan,0.0,1.1340471506118774,0,21
1674112519.14250016,86462649,0.23236094415187836,0.00012667477130889893,0.23247110843658447,0.2137499898672104,0.0,0.639988124370575,-1.92,nan,0.0,1.1846539974212646,0,23
1674112519.24249005,86562639,0.23236094415187836,9.498000144958496e-05,0.2324615716934204,0.2137499898672104,0.0,0.6823466420173645,-1.8900000000000001,nan,0.0,1.2249716520309448,0,21
1674112519.34249496,86662644,0.23236094415187836,3.454089164733887e-05,0.23239850997924805,0.2137499898672104,0.0,0.7159354090690613,-1.71,nan,0.0,1.2572453022003174,0,23
1674112519.44248915,86762638,0.2331966906785965,1.1816620826721191e-05,0.23321133852005005,0.2137499898672104,0.0,0.7449051737785339,-1.35,nan,0.0,1.2849676609039307,0,23
1674112519.54248095,86862630,0.2408202737569809,3.534555435180664e-05,0.24085915088653564,0.2137499898672104,0.0,0.773880124092102,-1.0,nan,0.0,1.311898946762085,0,23
1674112519.64247513,86962624,0.2408202737569809,4.6387314796447754e-05,0.24086537957191467,0.2137499898672104,0.0,0.8082403540611267,-1.4000000000000001,nan,0.0,1.344503402709961,0,27
1674112519.74252105,87062670,0.24600540101528168,0.00024628639221191406,0.24626387655735016,0.2137499898672104,0.0,0.8472233414649963,-1.93,nan,0.0,1.3821693658828735,0,31
1674112519.84248304,87162632,0.24600540101528168,0.0006645023822784424,0.24665705859661102,0.2137499898672104,0.0,0.8809111714363098,-1.84,nan,0.0,1.414101481437683,0,31
1674112519.94247603,87262625,0.24687767028808594,0.0008875876665115356,0.24779094755649567,0.2137499898672104,0.0,0.9114896059036255,-1.92,nan,0.0,1.4432942867279053,0,39
1674112520.04252601,87362675,0.24687767028808594,0.0009644776582717896,0.2478780597448349,0.2137499898672104,0.0,0.9395900368690491,-2.12,nan,0.0,1.4702244997024536,0,39
1674112520.14246011,87462609,0.2530485987663269,0.0006707608699798584,0.25371986627578735,0.2137499898672104,0.0,0.9648013710975647,-2.0,nan,0.0,1.4940491914749146,0,40
1674112520.24251199,87562661,0.2530485987663269,0.0002503693103790283,0.25329431891441345,0.2137499898672104,0.0,0.9885614514350891,-1.81,nan,0.0,1.5167878866195679,0,46
1674112520.34249496,87662644,0.2530485987663269,0.00021415948867797852,0.2532629072666168,0.2137499898672104,0.0,1.0154255628585815,-1.84,nan,0.0,1.5424197912216187,0,48
1674112520.44250703,87762656,0.2530485987663269,0.00015982985496520996,0.2532017230987549,0.2137499898672104,0.0,1.0439012050628662,-1.46,nan,0.0,1.5702383518218994,0,51
1674112520.54247999,87862629,0.2530485987663269,0.00011295080184936523,0.253156453371048,0.2137499898672104,0.0,1.0780819654464722,-1.55,nan,0.0,1.6038373708724976,0,54
1674112520.64246917,87962618,0.25216004252433777,0.00031444430351257324,0.252487450838089,0.2137499898672104,0.0,1.1217267513275146,-1.5,nan,0.0,1.646831750869751,0,55
1674112520.74247503,88062624,0.2530485987663269,0.0004801452159881592,0.25351598858833313,0.2137499898672104,0.0,1.173053503036499,-1.5,nan,0.0,1.6977922916412354,0,63
1674112520.84248996,88162639,0.2530485987663269,0.0005436241626739502,0.2535739243030548,0.2137499898672104,0.0,1.227587103843689,-1.28,nan,0.0,1.7518938779830933,0,68
1674112520.94249797,88262647,0.2530485987663269,0.0006234645843505859,0.25368157029151917,0.2137499898672104,0.0,1.2871766090393066,-1.56,nan,0.0,1.811483383178711,0,70
1674112521.04248810,88362637,0.25216004252433777,0.0007567703723907471,0.25291958451271057,0.2137499898672104,0.0,1.3515537977218628,-1.0,nan,0.0,1.875860571861267,0,77
1674112521.14248705,88462636,0.2530485987663269,0.0007265806198120117,0.25377753376960754,0.2137499898672104,0.0,1.4221595525741577,-0.96,nan,0.0,1.9470480680465698,0,78
1674112521.24248815,88562637,0.25216004252433777,0.00039499998092651367,0.2525513470172882,0.2137499898672104,0.0,1.4988017082214355,-1.41,nan,0.0,2.023906707763672,0,81
1674112521.34253716,88662686,0.25216004252433777,0.0001404881477355957,0.25230297446250916,0.2137499898672104,0.0,1.5772067308425903,-0.8300000000000001,nan,0.0,2.102311849594116,0,86
1674112521.44248796,88762637,0.25216004252433777,7.593631744384766e-05,0.25222599506378174,0.2137499898672104,0.0,1.6597353219985962,-0.81,nan,0.0,2.1852734088897705,0,90
1674112521.54249001,88862639,0.2530485987663269,8.019804954528809e-05,0.2531425356864929,0.2137499898672104,0.0,1.7474180459976196,-0.32,nan,0.0,2.2731058597564697,0,93
1674112521.64247608,88962625,0.25216004252433777,8.720159530639648e-05,0.2531343996524811,0.2137499898672104,0.0,1.8411153554916382,-0.38,nan,0.0,2.3670196533203125,0,93
1674112521.74251914,89062668,0.2530485987663269,6.696581840515137e-05,0.2531166672706604,0.2137499898672104,0.0,1.9394255876541138,-0.7000000000000001,nan,0.0,2.4657628536224365,0,95
1674112521.84251094,89162660,0.25216004252433777,6.362795829772949e-05,0.2522347867488861,0.2137499898672104,0.0,2.038783550262451,-0.36,nan,0.0,2.5653371810913086,0,99
1674112521.94250417,89262653,0.2454785704612732,6.338953971862793e-05,0.2508851885795593,0.2137499898672104,2.1370294094085693,2.139706611633301,-0.3,nan,0.0,2.666111469268799,96,99
1674112522.04254794,89362697,0.22917793691158295,5.589425563812256e-05,0.24057386815547943,0.2137499898672104,2.232318878173828,2.2424676418304443,0.32,nan,0.0,2.7690889835357666,91,97
1674112522.14258409,89462733,0.21190457046031952,1.093745231628418e-05,0.2252090722322464,0.2137499898672104,2.3203177452087402,2.348539113998413,0.06,nan,0.0,2.875445604324341,79,99
1674112522.24254417,89562693,0.19860324263572693,7.405877113342285e-06,0.20891053974628448,0.2137499898672104,2.396143674850464,2.4537811279296875,0.45,nan,0.0,2.980532169342041,62,94
1674112522.34257007,89662719,0.19725018739700317,0.00011532008647918701,0.20109525322914124,0.2137499898672104,2.458381414413452,2.554231882095337,0.31,nan,0.0,3.0814836025238037,46,85
1674112522.44258904,89762738,0.19732853770256042,0.0002509206533432007,0.1987844854593277,0.2137499898672104,2.509312391281128,2.642115354537964,0.53,nan,0.0,3.169429302215576,32,74
1674112522.54263616,89862785,0.19832317531108856,0.00030815601348876953,0.19804809987545013,0.2137499898672104,2.550990343093872,2.7158498764038086,0.56,nan,0.0,3.2430148124694824,21,62
1674112522.64256907,89962718,0.19891904294490814,0.0003292858600616455,0.19887298345565796,0.2137499898672104,2.5850961208343506,2.7798423767089844,0.98,nan,0.0,3.306852102279663,11,49
1674112522.74260497,90062754,0.2010703831911087,0.0003654211759567261,0.20004154741764069,0.2137499898672104,2.613004684448242,2.834987163543701,0.84,nan,0.0,3.3618412017822266,3,35
1674112522.84259915,90162748,0.20502889156341553,0.0004540979862213135,0.20300358533859253,0.2137499898672104,2.6358439922332764,2.8784544467926025,0.91,nan,0.0,3.405010938644409,-3,24
1674112522.94263196,90262781,0.2079182267189026,0.0005446672439575195,0.20555508136749268,0.2137499898672104,2.6545324325561523,2.9103124141693115,1.05,nan,0.0,3.4364969730377197,-8,13
1674112523.04263115,90362780,0.2127353698015213,0.000538259744644165,0.20944572985172272,0.2137499898672104,2.6698265075683594,2.9333581924438477,0.79,nan,0.0,3.4591708183288574,-12,4
1674112523.14253998,90462689,0.21831537783145905,0.0005517303943634033,0.2144300937652588,0.2137499898672104,2.682342052459717,2.9467060565948486,1.35,nan,0.0,3.472146987915039,-15,-6
1674112523.24256516,90562714,0.22347086668014526,0.0005895942449569702,0.2200220376253128,0.2137499898672104,2.692584276199341,2.9508748054504395,1.18,nan,0.0,3.476167678833008,-16,-13
1674112523.34261298,90662762,0.22804036736488342,0.0006140917539596558,0.22497814893722534,0.2137499898672104,2.700965404510498,2.948941946029663,1.17,nan,0.0,3.4739363193511963,-17,-22
1674112523.44261312,90762762,0.23165562748908997,0.00061778724193573,0.22923843562602997,0.2137499898672104,2.707822561264038,2.941265821456909,1.12,nan,0.0,3.4660379886627197,-17,-25
1674112523.54260397,90862753,0.23761728405952454,0.0006277859210968018,0.23388339579105377,0.2137499898672104,2.7135865688323975,2.9294841289520264,0.85,nan,0.0,3.453890085220337,-16,-29
1674112523.64267015,90962819,0.24174407124519348,0.0006271153688430786,0.23848678171634674,0.2137499898672104,2.7189509868621826,2.913045644760132,1.24,nan,0.0,3.4372293949127197,-14,-29
1674112523.74257803,91062727,0.24829842150211334,0.0006265640258789062,0.24254877865314484,0.2137499898672104,2.7242705821990967,2.8951098918914795,0.99,nan,0.0,3.4192936420440674,-11,-29
1674112523.84264517,91162794,0.24950093030929565,0.0007011592388153076,0.24762368202209473,0.2137499898672104,2.7304704189300537,2.878278970718384,1.24,nan,0.0,3.4025306701660156,-7,-33
1674112523.94258308,91262732,0.2529200315475464,0.0006289780139923096,0.2509852349758148,0.2137499898672104,2.7379438877105713,2.8637609481811523,1.1300000000000001,nan,0.0,3.388012409210205,-4,-25
1674112524.04258108,91362730,0.2524477541446686,0.0006329715251922607,0.25285977125167847,0.2137499898672104,2.7465574741363525,2.8517956733703613,0.6,nan,0.0,3.376047134399414,-1,-24
1674112524.14256716,91462716,0.2568117678165436,0.0006681382656097412,0.2551345229148865,0.2137499898672104,2.756118059158325,2.839470148086548,0.99,nan,0.0,3.3637216091156006,1,-22
1674112524.24258995,91562739,0.25792160630226135,0.0006757974624633789,0.2562175691127777,0.2137499898672104,2.7664525508880615,2.8281242847442627,0.88,nan,0.0,3.3523757457733154,4,-19
1674112524.34259200,91662741,0.2554534077644348,0.000713050365447998,0.25706467032432556,0.2137499898672104,2.777421236038208,2.8198516368865967,0.81,nan,0.0,3.3441030979156494,7,-15
1674112524.44259906,91762748,0.2572537958621979,0.0006342232227325439,0.2574661076068878,0.2137499898672104,2.7889087200164795,2.8155930042266846,1.27,nan,0.0,3.3398444652557373,9,-8
1674112524.54262900,91862778,0.25661879777908325,0.0006813406944274902,0.25736740231513977,0.2137499898672104,2.8008198738098145,2.8165206909179688,1.35,nan,0.0,3.340920925140381,10,-9
1674112524.64267111,91962820,0.25741836428642273,0.0006440281867980957,0.25731393694877625,0.2137499898672104,2.813077926635742,2.824122667312622,1.1400000000000001,nan,0.0,3.348522901535034,11,-3
1674112524.74255109,92062700,0.25469207763671875,0.0006417632102966309,0.2563621699810028,0.2137499898672104,2.825619697570801,2.8365097045898438,1.47,nan,0.0,3.361133098602295,11,2
1674112524.84261012,92162759,0.25325503945350647,0.0006034970283508301,0.25530245900154114,0.2137499898672104,2.8383944034576416,2.8550806045532227,0.85,nan,0.0,3.379703998565674,11,1
1674112524.94264412,92262793,0.2515089809894562,0.000567317008972168,0.25401070713996887,0.2137499898672104,2.8513588905334473,2.876366138458252,0.61,nan,0.0,3.4011383056640625,10,4
1674112525.04260802,92362757,0.24826893210411072,0.0005259811878204346,0.25124213099479675,0.2137499898672104,2.8644800186157227,2.8944714069366455,1.4000000000000001,nan,0.0,3.4194657802581787,10,4
1674112525.14255095,92462700,0.24869698286056519,0.0005348920822143555,0.24965129792690277,0.2137499898672104,2.8777284622192383,2.9141130447387695,1.33,nan,0.0,3.439256191253662,9,7
1674112525.24259901,92562748,0.24553608894348145,0.00047497451305389404,0.247776061296463,0.2137499898672104,2.891080856323242,2.938729763031006,1.32,nan,0.0,3.4640228748321533,8,12
1674112525.34260702,92662756,0.2438846230506897,0.00045789778232574463,0.24604345858097076,0.2137499898672104,2.9045190811157227,2.966383218765259,1.26,nan,0.0,3.4922590255737305,7,13
1674112525.44260216,92762751,0.2408553957939148,0.00043970346450805664,0.2437155842781067,0.2137499898672104,2.918026924133301,2.9947052001953125,1.35,nan,0.0,3.520803928375244,5,10
1674112525.54258108,92862730,0.23972006142139435,0.00043582916259765625,0.24089115858078003,0.2137499898672104,2.931591749191284,3.0239148139953613,1.22,nan,0.0,3.550379753112793,4,15
1674112525.64258909,92962738,0.23722590506076813,0.0004749298095703125,0.23926027119159698,0.2137499898672104,2.9452035427093506,3.052706003189087,1.3800000000000001,nan,0.0,3.5793941020965576,2,16
1674112525.74257302,93062722,0.24023152887821198,0.00045706331729888916,0.2394368052482605,0.2137499898672104,2.9588632583618164,3.0792012214660645,1.49,nan,0.0,3.6060373783111572,1,11
1674112525.84254813,93162697,0.24113121628761292,0.0005004256963729858,0.24076572060585022,0.2137499898672104,2.972566843032837,3.104304790496826,1.26,nan,0.0,3.631575584411621,0,5
1674112525.94258499,93262734,0.24345096945762634,0.0005124062299728394,0.24233023822307587,0.2137499898672104,2.986292600631714,3.126509666442871,1.21,nan,0.0,3.6539292335510254,0,8
1674112526.04261613,93362765,0.24532735347747803,0.0005197823047637939,0.24405725300312042,0.2137499898672104,3.0002167224884033,3.1440768241882324,1.24,nan,0.0,3.671719551086426,0,5
1674112526.14261198,93462761,0.25083187222480774,0.0005206167697906494,0.24789457023143768,0.2137499898672104,3.0153844356536865,3.158224105834961,1.21,nan,0.0,3.6858668327331543,2,1
1674112526.24255705,93562706,0.2533147633075714,0.0004967153072357178,0.25145548582077026,0.2137499898672104,3.033108711242676,3.1708264350891113,1.01,nan,0.0,3.6988344192504883,5,1
1674112526.34264612,93662795,0.2550412118434906,0.0005019903182983398,0.25397711992263794,0.2137499898672104,3.053875684738159,3.1821506023406982,1.23,nan,0.0,3.710306406021118,9,0
1674112526.44262099,93762770,0.25802555680274963,0.0004660487174987793,0.2563033998012543,0.2137499898672104,3.0773110389709473,3.193718194961548,1.26,nan,0.0,3.7218739986419678,12,3
1674112526.54263496,93862784,0.26084741950035095,0.0004749894142150879,0.25891873240470886,0.2137499898672104,3.103175640106201,3.2071495056152344,0.99,nan,0.0,3.735311985015869,16,6
1674112526.64260602,93962755,0.26363229751586914,0.0005356669425964355,0.26228755712509155,0.2137499898672104,3.1319165229797363,3.221726894378662,1.23,nan,0.0,3.749889612197876,21,6
1674112526.74269295,94062842,0.26457300782203674,0.0005659759044647217,0.26441285014152527,0.2137499898672104,3.16383695602417,3.238705635070801,1.05,nan,0.0,3.7668683528900146,25,11
1674112526.84261417,94162763,0.2673073410987854,0.00048083066940307617,0.266144335269928,0.2137499898672104,3.1986095905303955,3.2584829330444336,0.77,nan,0.0,3.7867941856384277,30,16
1674112526.94258094,94262730,0.27115368843078613,0.000514984130859375,0.2692650854587555,0.2137499898672104,3.23665714263916,3.27921724319458,1.1,nan,0.0,3.807528495788574,35,20
1674112527.04258108,94362730,0.27164942026138306,0.0004547238349914551,0.2707608938217163,0.2137499898672104,3.2786853313446045,3.3026247024536133,0.98,nan,0.0,3.831084728240967,41,25
1674112527.14260817,94462757,0.2723105549812317,0.0004474520683288574,0.2718989849090576,0.2137499898672104,3.324308156967163,3.3306901454925537,0.85,nan,0.0,3.8593735694885254,46,30
1674112527.24261594,94562765,0.27135226130485535,0.00041624903678894043,0.2721956670284271,0.2137499898672104,3.3729872703552246,3.3634033203125,0.81,nan,0.0,3.8920865058898926,50,34
1674112527.34257317,94662722,0.2708154320716858,0.00045484304428100586,0.27142268419265747,0.2137499898672104,3.4241769313812256,3.400049924850464,0.85,nan,0.0,3.9287333488464355,54,39
1674112527.44258308,94762732,0.26928794384002686,0.00042495131492614746,0.27076318860054016,0.2137499898672104,3.477421998977661,3.4380128383636475,0.8300000000000001,nan,0.0,3.9668450355529785,58,46
1674112527.54260898,94862758,0.268756628036499,0.000413745641708374,0.26979711651802063,0.2137499898672104,3.532318353652954,3.478325128555298,1.43,nan,0.0,4.007157325744629,60,48
1674112527.64261198,94962761,0.2669714093208313,0.0004166066646575928,0.26848459243774414,0.2137499898672104,3.5884907245635986,3.5261125564575195,1.16,nan,0.0,4.055093765258789,62,54
1674112527.74261808,95062767,0.2638610005378723,0.0004229545593261719,0.2661135196685791,0.2137499898672104,3.6457040309906006,3.5810322761535645,1.06,nan,0.0,4.110013484954834,64,59
1674112527.84258008,95162729,0.2638781666755676,0.0005649030208587646,0.2648983299732208,0.2137499898672104,3.703768014907837,3.638965606689453,1.23,nan,0.0,4.168169021606445,64,60
1674112527.94258595,95262735,0.26314401626586914,0.0007922351360321045,0.26438283920288086,0.2137499898672104,3.762528896331787,3.698132038116455,1.32,nan,0.0,4.227483749389648,65,66
1674112528.04262209,95362771,0.2595299184322357,0.0008870065212249756,0.2627222239971161,0.2137499898672104,3.8218586444854736,3.7601137161254883,1.53,nan,0.0,4.289614200592041,65,66
1674112528.14267612,95462825,0.25628209114074707,0.0008990168571472168,0.260159432888031,0.2137499898672104,3.8816287517547607,3.8249056339263916,1.04,nan,0.0,4.354406356811523,65,70
1674112528.24258614,95562735,0.2508995532989502,0.0008379220962524414,0.2556932270526886,0.2137499898672104,3.941012144088745,3.8890621662139893,1.25,nan,0.0,4.41878604888916,63,69
1674112528.34267998,95662829,0.24686403572559357,0.0006550252437591553,0.2505972683429718,0.2137499898672104,3.998906373977661,3.9509952068328857,1.6500000000000001,nan,0.0,4.480867862701416,61,69
1674112528.44257498,95762724,0.24336034059524536,0.0005259066820144653,0.2468389868736267,0.2137499898672104,4.0545220375061035,4.014509201049805,1.0,nan,0.0,4.544381618499756,58,71
1674112528.54256606,95862715,0.23914481699466705,0.0004648566246032715,0.24276459217071533,0.2137499898672104,4.107533931732178,4.07623815536499,1.51,nan,0.0,4.606259346008301,54,68
1674112528.64258695,95962736,0.23883508145809174,0.0004432201385498047,0.24049901962280273,0.2137499898672104,4.157835483551025,4.134707927703857,1.69,nan,0.0,4.664952278137207,51,67
1674112528.74260402,96062753,0.238401398062706,0.00043536722660064697,0.2395152747631073,0.2137499898672104,4.20587682723999,4.192839622497559,1.48,nan,0.0,4.7233805656433105,48,65
1674112528.84262204,96162771,0.23673400282859802,0.000429689884185791,0.23819534480571747,0.2137499898672104,4.252068519592285,4.2494378089904785,1.8,nan,0.0,4.7802019119262695,45,60
1674112528.94257212,96262721,0.23854249715805054,0.00042964518070220947,0.23843877017498016,0.2137499898672104,4.296746253967285,4.3046369552612305,1.6600000000000001,nan,0.0,4.835549831390381,43,57
1674112529.04262114,96362770,0.24096067249774933,0.00043851137161254883,0.23978103697299957,0.2137499898672104,4.340185642242432,4.35561990737915,1.92,nan,0.0,4.88675594329834,41,52
1674112529.14262414,96462773,0.2412775158882141,0.0004552006721496582,0.2413357049226761,0.2137499898672104,4.382611274719238,4.402074337005615,2.0300000000000002,nan,0.0,4.933359146118164,40,51
1674112529.24262404,96562773,0.24260398745536804,0.0005171000957489014,0.24192851781845093,0.2137499898672104,4.4242072105407715,4.446379661560059,1.68,nan,0.0,4.977813243865967,39,48
1674112529.34262800,96662777,0.24255405366420746,0.000505596399307251,0.24276062846183777,0.2137499898672104,4.465124607086182,4.486668109893799,2.13,nan,0.0,5.018250465393066,38,45
1674112529.44257402,96762723,0.242892786860466,0.0004264563322067261,0.24303178489208221,0.2137499898672104,4.505488872528076,4.525445938110352,2.75,nan,0.0,5.057250499725342,38,43
1674112529.54260898,96862758,0.24653029441833496,0.00040952861309051514,0.2448735386133194,0.2137499898672104,4.54539680480957,4.567070484161377,2.82,nan,0.0,5.099240303039551,37,40
1674112529.64261794,96962767,0.24875414371490479,0.00043098628520965576,0.24715189635753632,0.2137499898672104,4.584932804107666,4.6115288734436035,2.33,nan,0.0,5.1439208984375,36,39
1674112529.74261498,97062764,0.24895380437374115,0.00044237077236175537,0.24898450076580048,0.2137499898672104,4.624164581298828,4.654538154602051,1.75,nan,0.0,5.1871466636657715,36,34
1674112529.84255099,97162700,0.25004562735557556,0.00046572089195251465,0.24966822564601898,0.2137499898672104,4.66314697265625,4.691147327423096,2.07,nan,0.0,5.223904609680176,36,33
1674112529.94261909,97262768,0.25216859579086304,0.0005245804786682129,0.2510872185230255,0.2137499898672104,4.701925754547119,4.72175407409668,2.1,nan,0.0,5.25451135635376,36,34
1674112530.04259205,97362741,0.25363337993621826,0.0005507469177246094,0.25262385606765747,0.2137499898672104,4.740537643432617,4.749138355255127,2.3000000000000003,nan,0.0,5.281895637512207,37,30
1674112530.14259815,97462747,0.2552649676799774,0.0005457699298858643,0.2547306418418884,0.2137499898672104,4.779012680053711,4.774827480316162,2.38,nan,0.0,5.30816650390625,38,29
1674112530.24258900,97562738,0.2563129961490631,0.0005091726779937744,0.25601235032081604,0.2137499898672104,4.817376136779785,4.801339149475098,1.77,nan,0.0,5.3346781730651855,39,33
1674112530.34258604,97662735,0.257803350687027,0.0005244612693786621,0.25720465183258057,0.2137499898672104,4.855648040771484,4.825961112976074,2.22,nan,0.0,5.359300136566162,41,30
1674112530.44256806,97762717,0.2595319151878357,0.0004717111587524414,0.2584235668182373,0.2137499898672104,4.893845558166504,4.847964763641357,2.14,nan,0.0,5.3814520835876465,42,32
1674112530.54257917,97862728,0.26107093691825867,0.000456005334854126,0.26019352674484253,0.2137499898672104,4.931981563568115,4.870074272155762,2.2800000000000002,nan,0.0,5.403784275054932,44,32
1674112530.64259315,97962742,0.2642764449119568,0.00045412778854370117,0.2627239525318146,0.2137499898672104,4.970067977905273,4.894556045532227,2.33,nan,0.0,5.427981853485107,45,34
1674112530.74262810,98062777,0.2650219202041626,0.00041753053665161133,0.2647738456726074,0.2137499898672104,5.008113384246826,4.921130180358887,2.0100000000000002,nan,0.0,5.454555988311768,46,37
1674112530.84264112,98162790,0.26459211111068726,0.00041237473487854004,0.2652256190776825,0.2137499898672104,5.0461249351501465,4.947098255157471,2.35,nan,0.0,5.480747222900391,47,35
1674112530.94268799,98262837,0.26606106758117676,0.00041046738624572754,0.26567184925079346,0.2137499898672104,5.084109306335449,4.973302841186523,2.4,nan,0.0,5.507100582122803,49,37
1674112531.04259515,98362744,0.2639562785625458,0.00034672021865844727,0.26491400599479675,0.2137499898672104,5.122071266174316,5.00398588180542,2.04,nan,0.0,5.537784099578857,49,38
1674112531.14264703,98462796,0.2627107799053192,0.000379025936126709,0.26388466358184814,0.2137499898672104,5.160011291503906,5.036894798278809,2.2600000000000002,nan,0.0,5.5708417892456055,50,42
1674112531.24262309,98562772,0.2621324062347412,0.00038444995880126953,0.263247013092041,0.2137499898672104,5.197940349578857,5.068838119506836,2.17,nan,0.0,5.602784633636475,50,44
1674112531.34262800,98662777,0.26317474246025085,0.00037279725074768066,0.2633516192436218,0.2137499898672104,5.235855579376221,5.101014614105225,2.33,nan,0.0,5.634961128234863,51,47
1674112531.44257307,98762722,0.251362144947052,0.0003891289234161377,0.2587425410747528,0.2137499898672104,5.272854328155518,5.1335625648498535,2.43,nan,0.0,5.667656898498535,49,46
1674112531.54258108,98862730,0.2463960200548172,0.00042669475078582764,0.25130337476730347,0.2137499898672104,5.305301189422607,5.1672844886779785,2.8000000000000003,nan,0.0,5.70137882232666,43,44
1674112531.64257812,98962727,0.24935832619667053,0.00043720006942749023,0.24914272129535675,0.2137499898672104,5.332627296447754,5.202201843261719,2.42,nan,0.0,5.7365193367004395,38,44
1674112531.74260807,99062757,0.251219779253006,0.0004259049892425537,0.25029101967811584,0.2137499898672104,5.355754375457764,5.234525203704834,2.2600000000000002,nan,0.0,5.768842697143555,33,40
1674112531.84259701,99162746,0.2497255802154541,0.0004114806652069092,0.2507183253765106,0.2137499898672104,5.375441074371338,5.2606024742126465,2.74,nan,0.0,5.794919967651367,29,37
1674112531.94258595,99262735,0.2484220713376999,0.00045108795166015625,0.2493176907300949,0.2137499898672104,5.3923163414001465,5.283337116241455,2.91,nan,0.0,5.817655086517334,26,32
1674112532.04259515,99362744,0.24922698736190796,0.00041894614696502686,0.24964262545108795,0.2137499898672104,5.406890869140625,5.305525779724121,2.62,nan,0.0,5.839992523193359,23,28
1674112532.14257503,99462724,0.24726606905460358,0.0003981739282608032,0.24886023998260498,0.2137499898672104,5.419559001922607,5.325674533843994,2.67,nan,0.0,5.860140800476074,21,28
1674112532.24260402,99562753,0.24594803154468536,0.00038264691829681396,0.247696653008461,0.2137499898672104,5.430590629577637,5.345060348510742,3.08,nan,0.0,5.879526615142822,18,25
1674112532.34261417,99662763,0.24524912238121033,0.0003544241189956665,0.24658551812171936,0.2137499898672104,5.440332412719727,5.365757465362549,2.58,nan,0.0,5.900223731994629,16,25
1674112532.44262600,99762775,0.24578768014907837,0.0003597140312194824,0.24595272541046143,0.2137499898672104,5.449067115783691,5.3848557472229,3.08,nan,0.0,5.9193220138549805,14,23
1674112532.54256916,99862718,0.2445121556520462,0.000368461012840271,0.2455986589193344,0.2137499898672104,5.456979274749756,5.402316570281982,3.09,nan,0.0,5.936783313751221,13,20
1674112532.64260817,99962757,0.24464303255081177,0.0003829449415206909,0.24538683891296387,0.2137499898672104,5.464151382446289,5.420561790466309,3.44,nan,0.0,5.954813003540039,11,17
1674112532.74263310,100062782,0.24492493271827698,0.0003921240568161011,0.24511300027370453,0.2137499898672104,5.470622539520264,5.440526485443115,3.59,nan,0.0,5.9745612144470215,9,17
1674112532.84262609,100162775,0.24216200411319733,0.00034439563751220703,0.24423816800117493,0.2137499898672104,5.4764628410339355,5.462181091308594,3.43,nan,0.0,5.996215343475342,6,12
1674112532.94261408,100262763,0.2403266578912735,0.0003328472375869751,0.242056205868721,0.2137499898672104,5.481785297393799,5.484613418579102,3.45,nan,0.0,6.018216133117676,4,16
1674112533.04267907,100362828,0.23738588392734528,0.0003230869770050049,0.23971737921237946,0.2137499898672104,5.486602783203125,5.507179260253906,3.24,nan,0.0,6.04056453704834,2,11
1674112533.14256716,100462716,0.23652967810630798,0.0004101991653442383,0.23781642317771912,0.2137499898672104,5.4909539222717285,5.5280609130859375,3.5300000000000002,nan,0.0,6.0608649253845215,0,10
1674112533.24258900,100562738,0.23865006864070892,0.0004369765520095825,0.23793871700763702,0.2137499898672104,5.494743347167969,5.545489311218262,4.01,nan,0.0,6.078077793121338,-1,11
1674112533.34258008,100662729,0.23907345533370972,0.00044248998165130615,0.23874150216579437,0.2137499898672104,5.497851371765137,5.563086986541748,3.63,nan,0.0,6.095459461212158,-3,9
1674112533.44257617,100762725,0.23908090591430664,0.0004472285509109497,0.23886121809482574,0.2137499898672104,5.50039529800415,5.579400062561035,3.79,nan,0.0,6.111548900604248,-5,2
1674112533.54261398,100862763,0.23889392614364624,0.00044029951095581055,0.2393399327993393,0.2137499898672104,5.502476692199707,5.593262195587158,3.64,nan,0.0,6.12483024597168,-7,2
1674112533.64257717,100962726,0.2416973114013672,0.0004805624485015869,0.24071404337882996,0.2137499898672104,5.504179000854492,5.605068683624268,3.74,nan,0.0,6.136637210845947,-8,-4
1674112533.74261594,101062765,0.24020487070083618,0.0004848092794418335,0.2416328638792038,0.2137499898672104,5.50557279586792,5.614102840423584,3.19,nan,0.0,6.145522117614746,-9,-2
1674112533.84261298,101162762,0.24275504052639008,0.0004937797784805298,0.24184353649616241,0.2137499898672104,5.506712913513184,5.61836051940918,3.67,nan,0.0,6.149563312530518,-10,-7
1674112533.94263315,101262782,0.2425432652235031,0.0005631744861602783,0.24308189749717712,0.2137499898672104,5.507646560668945,5.618875503540039,3.16,nan,0.0,6.150078296661377,-10,-14
1674112534.04255414,101362703,0.2481900304555893,0.0005605816841125488,0.2445177435874939,0.2137499898672104,5.50840950012207,5.615636348724365,3.88,nan,0.0,6.146690845489502,-10,-8
1674112534.14257908,101462728,0.24901288747787476,0.0006178617477416992,0.24832268059253693,0.2137499898672104,5.509033679962158,5.609808444976807,3.47,nan,0.0,6.140862464904785,-9,-11
1674112534.24261594,101562765,0.25153082609176636,0.000632941722869873,0.25002047419548035,0.2137499898672104,5.50954532623291,5.603129863739014,3.67,nan,0.0,6.134183883666992,-8,-16
1674112534.34262204,101662771,0.2531398832798004,0.000724494457244873,0.252692848443985,0.2137499898672104,5.509964466094971,5.594902038574219,3.41,nan,0.0,6.125732898712158,-8,-16
1674112534.44263196,101762781,0.254988431930542,0.0007457137107849121,0.25468340516090393,0.2137499898672104,5.510306358337402,5.585920810699463,3.5100000000000002,nan,0.0,6.116751670837402,-7,-14
1674112534.54257202,101862721,0.2571641206741333,0.000756680965423584,0.2562912404537201,0.2137499898672104,5.510586261749268,5.576410293579102,3.23,nan,0.0,6.107458114624023,-6,-16
1674112534.64262295,101962772,0.25633442401885986,0.0007537305355072021,0.2569321393966675,0.2137499898672104,5.51081657409668,5.565436840057373,3.4,nan,0.0,6.096707344055176,-5,-15
1674112534.74258614,102062735,0.2578091025352478,0.0006709396839141846,0.2579561769962311,0.2137499898672104,5.511002540588379,5.553952693939209,3.75,nan,0.0,6.085371971130371,-4,-12
1674112534.84257102,102162720,0.2582850754261017,0.0005157589912414551,0.2591714859008789,0.2137499898672104,5.511157035827637,5.545820713043213,3.45,nan,0.0,6.077523231506348,-3,-14
1674112534.94259214,102262741,0.2586805820465088,0.0004017949104309082,0.2592891752719879,0.2137499898672104,5.511282920837402,5.540651321411133,3.3200000000000003,nan,0.0,6.072502613067627,-2,-8
1674112535.04258013,102362729,0.2559814453125,0.00036022067070007324,0.2575629651546478,0.2137499898672104,5.511384963989258,5.536512851715088,3.42,nan,0.0,6.068728923797607,-2,-8
1674112535.14263606,102462785,0.25641191005706787,0.00034680962562561035,0.256879061460495,0.2137499898672104,5.511468410491943,5.533975601196289,3.3000000000000003,nan,0.0,6.066556453704834,-2,-7
1674112535.24257302,102562722,0.2564457952976227,0.00036907196044921875,0.2569553256034851,0.2137499898672104,5.511541843414307,5.53228759765625,3.5300000000000002,nan,0.0,6.065091609954834,-2,-5
1674112535.34263301,102662782,0.25601568818092346,0.00036528706550598145,0.2568141520023346,0.2137499898672104,5.511592864990234,5.532176971435547,3.13,nan,0.0,6.065561771392822,-2,-4
1674112535.44261098,102762760,0.2542528510093689,0.00040328502655029297,0.2554304897785187,0.2137499898672104,5.511641502380371,5.533060073852539,3.42,nan,0.0,6.066884517669678,-2,-2
1674112535.54261994,102862769,0.2511237561702728,0.0003820657730102539,0.25348228216171265,0.2137499898672104,5.511682033538818,5.535357475280762,3.5,nan,0.0,6.0691819190979,-2,-1
1674112535.64255095,102962700,0.2532442808151245,0.0003814697265625,0.2529732286930084,0.2137499898672104,5.511706352233887,5.540130615234375,3.5700000000000003,nan,0.0,6.0745368003845215,-2,0
1674112535.74260306,103062752,0.2508576512336731,0.00045949220657348633,0.2523793876171112,0.2137499898672104,5.511730670928955,5.546730041503906,3.25,nan,0.0,6.081136703491211,-3,-3
1674112535.84261703,103162766,0.25108954310417175,0.0004858076572418213,0.25240305066108704,0.2137499898672104,5.511755466461182,5.551344871520996,3.35,nan,0.0,6.086190223693848,-3,-1
1674112535.94261503,103262764,0.2499743103981018,0.0004901587963104248,0.2512047588825226,0.2137499898672104,5.51177978515625,5.554230690002441,3.85,nan,0.0,6.089076042175293,-4,-4
1674112536.04261112,103362760,0.25074851512908936,0.00045230984687805176,0.25129756331443787,0.2137499898672104,5.511804103851318,5.559557914733887,3.5,nan,0.0,6.094403266906738,-4,-2
1674112536.14254498,103462694,0.2502872943878174,0.0004502236843109131,0.2510594427585602,0.2137499898672104,5.511806964874268,5.566777229309082,3.54,nan,0.0,6.101622104644775,-5,-1
1674112536.24263000,103562779,0.2503330409526825,0.00046697258949279785,0.2503817677497864,0.2137499898672104,5.511806964874268,5.574065208435059,3.29,nan,0.0,6.10891056060791,-6,-4
1674112536.34255409,103662703,0.24894863367080688,0.000478208065032959,0.2501796782016754,0.2137499898672104,5.511806964874268,5.579659461975098,3.62,nan,0.0,6.114578723907471,-6,-3
1674112536.44258213,103762731,0.24989613890647888,0.00045242905616760254,0.2503245770931244,0.2137499898672104,5.511806964874268,5.5843706130981445,3.87,nan,0.0,6.119289875030518,-7,-5
1674112536.54258108,103862730,0.2480541169643402,0.0004802197217941284,0.2498960942029953,0.2137499898672104,5.511806964874268,5.591119289398193,3.42,nan,0.0,6.126038551330566,-7,0
1674112536.64258194,103962731,0.249199777841568,0.00046990811824798584,0.24969615042209625,0.2137499898672104,5.511806964874268,5.598052024841309,3.34,nan,0.0,6.13297176361084,-8,-1
1674112536.74256301,104062712,0.25049924850463867,0.0005269646644592285,0.2501700222492218,0.2137499898672104,5.511806964874268,5.601726055145264,3.86,nan,0.0,6.136645317077637,-8,-8
1674112536.84259605,104162745,0.250264972448349,0.000489354133605957,0.2509499192237854,0.2137499898672104,5.511806964874268,5.604869365692139,3.25,nan,0.0,6.1400041580200195,-9,-6
1674112536.94260502,104262754,0.2505508065223694,0.0005186796188354492,0.25068193674087524,0.2137499898672104,5.511806964874268,5.606956481933594,3.2,nan,0.0,6.142091751098633,-9,-7
1674112537.04261708,104362766,0.2515655755996704,0.0005302131175994873,0.25149980187416077,0.2137499898672104,5.511806964874268,5.605613708496094,3.38,nan,0.0,6.140748977661133,-9,-7
1674112537.14262199,104462771,0.252128928899765,0.0005017518997192383,0.25220951437950134,0.2137499898672104,5.511806964874268,5.60235071182251,3.22,nan,0.0,6.137917995452881,-9,-10
1674112537.24266505,104562814,0.25289860367774963,0.00048795342445373535,0.25247037410736084,0.2137499898672104,5.511806964874268,5.596439838409424,3.12,nan,0.0,6.132006645202637,-8,-6
1674112537.34268808,104662837,0.2550186812877655,0.0004786849021911621,0.25394484400749207,0.2137499898672104,5.511806964874268,5.587716579437256,3.45,nan,0.0,6.123506546020508,-7,-9
1674112537.44262409,104762773,0.2542191445827484,0.000466078519821167,0.25464925169944763,0.2137499898672104,5.511806964874268,5.578871726989746,3.34,nan,0.0,6.1148786544799805,-6,-12
1674112537.54260612,104862755,0.2552914619445801,0.00040417909622192383,0.2553495168685913,0.2137499898672104,5.511806964874268,5.571523189544678,3.39,nan,0.0,6.107530117034912,-5,-10
1674112537.64254713,104962696,0.25496160984039307,0.0004068911075592041,0.2555892765522003,0.2137499898672104,5.511806964874268,5.565609455108643,3.22,nan,0.0,6.101763725280762,-5,-8
1674112537.74256516,105062714,0.25615793466567993,0.00037041306495666504,0.2558145523071289,0.2137499898672104,5.511806964874268,5.56071138381958,3.2800000000000002,nan,0.0,6.097088813781738,-4,-9
1674112537.84255910,105162708,0.25521373748779297,0.0003635883331298828,0.25593119859695435,0.2137499898672104,5.511806964874268,5.555483818054199,3.19,nan,0.0,6.092293739318848,-4,-7
1674112537.94255614,105262705,0.25824129581451416,0.00035899877548217773,0.2570454776287079,0.2137499898672104,5.511806964874268,5.549904823303223,3.02,nan,0.0,6.086863040924072,-3,-6
1674112538.04259610,105362745,0.2573135793209076,0.0003609955310821533,0.25732728838920593,0.2137499898672104,5.511806964874268,5.542548656463623,2.98,nan,0.0,6.079506874084473,-3,-7
1674112538.14257312,105462722,0.2574499249458313,0.0003294050693511963,0.257259339094162,0.2137499898672104,5.511806964874268,5.533535480499268,3.11,nan,0.0,6.07071590423584,-2,-6
1674112538.24258614,105562735,0.25882837176322937,0.00032764673233032227,0.25840288400650024,0.2137499898672104,5.511806964874268,5.524650573730469,3.16,nan,0.0,6.061831474304199,-1,-7
1674112538.34257698,105662726,0.2586507201194763,0.0003040730953216553,0.2587893605232239,0.2137499898672104,5.511806964874268,5.51652717590332,2.87,nan,0.0,6.053856372833252,0,-3
1674112538.44258499,105762734,0.2596420347690582,0.0003082454204559326,0.25947651267051697,0.2137499898672104,5.511806964874268,5.50879430770874,3.09,nan,0.0,6.045691967010498,0,-4
1674112538.54261708,105862766,0.2589882016181946,0.00031813979148864746,0.2595672309398651,0.2137499898672104,5.511806964874268,5.501533031463623,3.11,nan,0.0,6.038430213928223,1,-4
1674112538.64260912,105962758,0.25723904371261597,0.0002975165843963623,0.2586655616760254,0.2137499898672104,5.511806964874268,5.497095108032227,3.17,nan,0.0,6.033992767333984,1,-3
1674112538.74256015,106062709,0.25751087069511414,0.00029972195625305176,0.25781989097595215,0.2137499898672104,5.511806964874268,5.495582103729248,3.36,nan,0.0,6.032412528991699,1,0
1674112538.84254813,106162697,0.2582656145095825,0.0003204941749572754,0.25745823979377747,0.2137499898672104,5.511806964874268,5.497835636138916,2.96,nan,0.0,6.034666061401367,1,-2
1674112538.94267106,106262820,0.25624892115592957,0.0003688931465148926,0.25740739703178406,0.2137499898672104,5.511806964874268,5.501143455505371,2.98,nan,0.0,6.037393569946289,1,0
1674112539.04262614,106362775,0.25554579496383667,0.0003961622714996338,0.2566846013069153,0.2137499898672104,5.511806964874268,5.50312614440918,2.5300000000000002,nan,0.0,6.0393757820129395,0,1
1674112539.14262795,106462777,0.2553771734237671,0.00043326616287231445,0.25572389364242554,0.2137499898672104,5.511806964874268,5.501832008361816,3.0100000000000002,nan,0.0,6.037866115570068,0,4
1674112539.24258494,106562734,0.2562849521636963,0.00037980079650878906,0.25645679235458374,0.2137499898672104,5.511806964874268,5.498409748077393,2.95,nan,0.0,6.0344438552856445,1,2
1674112539.34267116,106662820,0.2568156123161316,0.00037473440170288086,0.25683000683784485,0.2137499898672104,5.511806964874268,5.494579792022705,2.92,nan,0.0,6.030398368835449,1,0
1674112539.44254994,106762699,0.2580518424510956,0.00034818053245544434,0.2575536072254181,0.2137499898672104,5.511806964874268,5.490318298339844,2.95,nan,0.0,6.026136875152588,2,1
1674112539.54258299,106862732,0.2576548457145691,0.0003018379211425781,0.2576756477355957,0.2137499898672104,5.511806964874268,5.486104488372803,2.94,nan,0.0,6.0220723152160645,2,2
1674112539.64257503,106962724,0.2563263773918152,0.00028139352798461914,0.2571902573108673,0.2137499898672104,5.511806964874268,5.481626033782959,3.21,nan,0.0,6.0175933837890625,3,0
1674112539.74259806,107062747,0.2574023902416229,0.00028783082962036133,0.2571342885494232,0.2137499898672104,5.511806964874268,5.4786272048950195,2.64,nan,0.0,6.014594554901123,3,2
1674112539.84260106,107162750,0.2585110068321228,0.0002969503402709961,0.25800007581710815,0.2137499898672104,5.511806964874268,5.474771499633789,2.95,nan,0.0,6.010738849639893,3,1
1674112539.94256902,107262718,0.25971439480781555,0.0002829134464263916,0.2586444914340973,0.2137499898672104,5.511806964874268,5.469205379486084,3.09,nan,0.0,6.0051727294921875,4,3
1674112540.04260898,107362758,0.2586512863636017,0.0003008246421813965,0.25898757576942444,0.2137499898672104,5.511806964874268,5.465870380401611,3.36,nan,0.0,6.001837730407715,4,0
1674112540.14260697,107462756,0.25834986567497253,0.0002855360507965088,0.25902849435806274,0.2137499898672104,5.511806964874268,5.46621561050415,2.91,nan,0.0,6.002182960510254,4,3
1674112540.24260497,107562754,0.2594451308250427,0.00032657384872436523,0.25900962948799133,0.2137499898672104,5.511806964874268,5.468104839324951,3.2800000000000002,nan,0.0,6.004072189331055,4,0
1674112540.34261012,107662759,0.25828129053115845,0.00032839179039001465,0.25884532928466797,0.2137499898672104,5.511806964874268,5.470844745635986,3.2800000000000002,nan,0.0,6.00681209564209,4,2
1674112540.44256806,107762717,0.25676611065864563,0.00033915042877197266,0.258147269487381,0.2137499898672104,5.511806964874268,5.476241111755371,2.7800000000000002,nan,0.0,6.012208938598633,3,3
1674112540.54261398,107862763,0.2570510506629944,0.0003611743450164795,0.2573288381099701,0.2137499898672104,5.511806964874268,5.481285095214844,3.0100000000000002,nan,0.0,6.017104148864746,3,5
1674112540.64258599,107962735,0.25711268186569214,0.00040027499198913574,0.2571624517440796,0.2137499898672104,5.511806964874268,5.483470439910889,3.13,nan,0.0,6.019140243530273,2,2
1674112540.74270916,108062858,0.25698012113571167,0.00041601061820983887,0.2570090591907501,0.2137499898672104,5.511806964874268,5.485604763031006,3.1,nan,0.0,6.021274566650391,2,5
1674112540.84258008,108162729,0.2576896548271179,0.00043007731437683105,0.2574765384197235,0.2137499898672104,5.511806964874268,5.487051963806152,3.6,nan,0.0,6.022066593170166,2,3
1674112540.94257712,108262726,0.25848281383514404,0.00045311450958251953,0.2582395672798157,0.2137499898672104,5.511806964874268,5.490054607391357,2.92,nan,0.0,6.025069713592529,2,7
1674112541.04253411,108362683,0.2571284770965576,0.0004208981990814209,0.25804391503334045,0.2137499898672104,5.511806964874268,5.493808269500732,3.0,nan,0.0,6.028674602508545,1,2
1674112541.14257097,108462720,0.25736203789711,0.0004292726516723633,0.2571242153644562,0.2137499898672104,5.511806964874268,5.495941638946533,2.71,nan,0.0,6.0308074951171875,1,3
1674112541.24258208,108562731,0.2569964826107025,0.0004106462001800537,0.2571948170661926,0.2137499898672104,5.511806964874268,5.495583534240723,2.95,nan,0.0,6.030449390411377,1,4
1674112541.34258008,108662729,0.258192241191864,0.00039449334144592285,0.25792384147644043,0.2137499898672104,5.511806964874268,5.493262767791748,3.22,nan,0.0,6.028128623962402,1,-1
1674112541.44263196,108762781,0.25883761048316956,0.00040599703788757324,0.25856050848960876,0.2137499898672104,5.511806964874268,5.491817951202393,3.31,nan,0.0,6.026460647583008,1,1
1674112541.54258800,108862737,0.25735488533973694,0.00043833255767822266,0.25842031836509705,0.2137499898672104,5.511806964874268,5.49288272857666,2.94,nan,0.0,6.027525424957275,1,0
1674112541.64268398,108962833,0.2568762004375458,0.0004449784755706787,0.25791993737220764,0.2137499898672104,5.511806964874268,5.4944634437561035,3.16,nan,0.0,6.028957366943359,1,0
1674112541.74262905,109062778,0.25718608498573303,0.00040856003761291504,0.25762540102005005,0.2137499898672104,5.511806964874268,5.495996475219727,2.7,nan,0.0,6.0309224128723145,1,4
1674112541.84264517,109162794,0.2569916248321533,0.0004089474678039551,0.256677508354187,0.21387864649295807,5.511806964874268,5.496386528015137,3.27,nan,0.0,6.031312465667725,1,4
1674112541.94256902,109262718,0.25701674818992615,0.0004049241542816162,0.25699812173843384,0.21430638432502747,5.511806964874268,5.496872425079346,3.6,nan,0.0,6.031798362731934,1,2
1674112542.04262304,109362772,0.2567203938961029,0.00040200352668762207,0.25737714767456055,0.2147337645292282,5.511806964874268,5.502110004425049,3.22,nan,0.0,6.037035942077637,0,2
1674112542.14261413,109462763,0.2564905285835266,0.00041988492012023926,0.25723546743392944,0.21515581011772156,5.511806964874268,5.510007858276367,3.5,nan,0.0,6.044933795928955,0,-1
1674112542.24259901,109562748,0.25829192996025085,0.0004182755947113037,0.25813955068588257,0.21557796001434326,5.511806964874268,5.518464088439941,3.23,nan,0.0,6.053390026092529,0,0
1674112542.34260297,109662752,0.2554125487804413,0.00040653347969055176,0.25722819566726685,0.21600008010864258,5.511806964874268,5.529133319854736,3.3000000000000003,nan,0.0,6.063837051391602,-1,0
1674112542.44258213,109762731,0.25455236434936523,0.0004495382308959961,0.25564494729042053,0.21640139818191528,5.511806964874268,5.537898540496826,2.89,nan,0.0,6.072817802429199,-2,1
1674112542.54261017,109862759,0.25350916385650635,0.0005040764808654785,0.25440528988838196,0.21678608655929565,5.511806964874268,5.543614387512207,3.65,nan,0.0,6.07853364944458,-3,1
1674112542.64259505,109962744,0.25454530119895935,0.0005546510219573975,0.25459420680999756,0.2171609103679657,5.511806964874268,5.550076007843018,3.7,nan,0.0,6.085211277008057,-3,2
1674112542.74259496,110062744,0.2531454563140869,0.0006058812141418457,0.2540619671344757,0.21753251552581787,5.511806964874268,5.5602569580078125,3.5500000000000003,nan,0.0,6.095391750335693,-4,1
1674112542.84258294,110162732,0.25142702460289,0.000602036714553833,0.2534758448600769,0.21789325773715973,5.511806964874268,5.571854114532471,3.67,nan,0.0,6.106914520263672,-6,1
1674112542.94256806,110262717,0.25047820806503296,0.0005979835987091064,0.2515818178653717,0.2182379812002182,5.511806964874268,5.584029197692871,4.0600000000000005,nan,0.0,6.1190900802612305,-7,0
1674112543.04258513,110362734,0.24764806032180786,0.0005652308464050293,0.24982044100761414,0.218562513589859,5.511806964874268,5.601240634918213,3.96,nan,0.0,6.136301040649414,-8,-1
