timestamp,TimeUS,Instance,Volt,VoltR,Curr,CurrTot,EnrgTot,Temp,Res,RemPct
1674111221.23991704,58924213,0,24.181137084960938,24.215316772460938,0.37056830525398254,5.895992279052734,0.14256055653095245,0.0,0.09223479777574539,99
1674111221.33999515,59024291,0,24.17364501953125,24.20667839050293,0.358139306306839,5.905949115753174,0.14280125498771667,0.0,0.09223479777574539,99
1674111221.43999505,59124291,0,24.126157760620117,24.150331497192383,0.26208311319351196,5.913229942321777,0.14297690987586975,0.0,0.09223479777574539,99
1674111221.53995609,59224252,0,24.164688110351562,24.196611404418945,0.34610244631767273,5.9228410720825195,0.14320915937423706,0.0,0.09223479777574539,99
1674111221.63998222,59324278,0,24.175750732421875,24.20923614501953,0.36304953694343567,5.932929039001465,0.14345304667949677,0.0,0.09223479777574539,99
1674111221.73994923,59424245,0,24.187143325805664,24.223628997802734,0.3955797255039215,5.943912982940674,0.14371871948242188,0.0,0.09223479777574539,99
1674111221.83997202,59524268,0,24.157560348510742,24.187536239624023,0.3249953091144562,5.952944755554199,0.1439369022846222,0.0,0.09223479777574539,99
1674111221.93996620,59624262,0,24.134775161743164,24.160675048828125,0.28080329298973083,5.960744857788086,0.14412516355514526,0.0,0.09223479777574539,99
1674111222.03997803,59724274,0,24.170101165771484,24.202823638916016,0.3547635078430176,5.970601558685303,0.1443634033203125,0.0,0.09223479777574539,99
1674111222.13991714,59824213,0,24.185897827148438,24.221450805664062,0.38545241951942444,5.981302738189697,0.14462222158908844,0.0,0.09223479777574539,99
1674111222.23990703,59924203,0,24.188770294189453,24.225086212158203,0.39373844861984253,5.992239475250244,0.144886776804924,0.0,0.09223479777574539,99
1674111222.33999705,60024293,0,24.183303833007812,24.218183517456055,0.37815529108047485,6.002750873565674,0.14514097571372986,0.0,0.09223479777574539,99
1674111222.43998504,60124281,0,24.15220069885254,24.180025100708008,0.3016717731952667,6.011133193969727,0.14534342288970947,0.0,0.09223479777574539,99
1674111222.54000020,60224296,0,24.153156280517578,24.18199920654297,0.31271976232528687,6.019821643829346,0.14555327594280243,0.0,0.09223479777574539,99
1674111222.63991213,60324208,0,24.17383575439453,24.206981658935547,0.35936686396598816,6.029796123504639,0.14579439163208008,0.0,0.09223479777574539,99
1674111222.73991108,60424207,0,24.18685531616211,24.222322463989258,0.38453173637390137,6.0404767990112305,0.14605273306369781,0.0,0.09223479777574539,99
1674111222.83994508,60524241,0,24.18092155456543,24.215312957763672,0.37286996841430664,6.050839900970459,0.14630332589149475,0.0,0.09223479777574539,99
1674111222.93995714,60624253,0,24.136592864990234,24.162662506103516,0.2826446294784546,6.058692932128906,0.1464928686618805,0.0,0.09223479777574539,99
1674111223.03993702,60724233,0,24.177663803100586,24.211545944213867,0.3673459589481354,6.0688958168029785,0.14673954248428345,0.0,0.09223479777574539,99
1674111223.13999319,60824289,0,24.168378829956055,24.20036506652832,0.34678441286087036,6.0785346031188965,0.14697249233722687,0.0,0.09223479777574539,99
1674111223.23998809,60924284,0,24.18425941467285,24.219484329223633,0.3819061517715454,6.089143753051758,0.14722906053066254,0.0,0.09223479777574539,99
1674111223.33996415,61024260,0,24.157176971435547,24.18638801574707,0.3167093098163605,6.097939968109131,0.1474415510892868,0.0,0.09223479777574539,99
1674111223.43997812,61124274,0,24.097436904907227,24.211515426635742,1.2444343566894531,6.1325154304504395,0.1482747197151184,0.0,0.09167053550481796,99
1674111223.53996420,61224260,0,23.96589469909668,24.28647804260254,4.935080051422119,6.269591331481934,0.15155987441539764,0.0,0.06496009975671768,99
1674111223.63997602,61324272,0,24.051197052001953,24.240367889404297,2.9461331367492676,6.35144567489624,0.15352857112884521,0.0,0.06420981138944626,99
1674111223.73990822,61424204,0,24.103660583496094,24.233497619628906,2.037435293197632,6.4080071449279785,0.15489190816879272,0.0,0.06372544914484024,99
1674111223.83989620,61524192,0,24.112274169921875,24.24490737915039,2.081320285797119,6.465819358825684,0.15628589689731598,0.0,0.06372544914484024,99
1674111223.94000506,61624301,0,24.067087173461914,24.189956665039062,1.9097692966461182,6.518918037414551,0.15756382048130035,0.0,0.06433713436126709,99
1674111224.03994918,61724245,0,24.066715240478516,24.183454513549805,1.795981764793396,6.568794250488281,0.15876418352127075,0.0,0.06500044465065002,99
1674111224.14001012,61824306,0,24.099449157714844,24.21847915649414,1.8312058448791504,6.619696140289307,0.15999089181423187,0.0,0.06500044465065002,99
1674111224.24000311,61924299,0,24.11754035949707,24.23505401611328,1.807882308959961,6.669890403747559,0.16120146214962006,0.0,0.06500044465065002,99
1674111224.33996320,62024259,0,24.11811637878418,24.234352111816406,1.7882415056228638,6.719564437866211,0.1623995006084442,0.0,0.06500044465065002,99
1674111224.43995810,62124254,0,24.071874618530273,24.179853439331055,1.6611894369125366,6.76571798324585,0.1635105013847351,0.0,0.06500044465065002,99
1674111224.53993702,62224233,0,24.106246948242188,24.21993064880371,1.7489597797393799,6.81429386138916,0.16468147933483124,0.0,0.06500044465065002,99
1674111224.63995409,62324250,0,24.109500885009766,24.22446060180664,1.7686004638671875,6.863433361053467,0.1658662110567093,0.0,0.06500044465065002,99
1674111224.73997402,62424270,0,24.121562957763672,24.23883628845215,1.8041996955871582,6.913564682006836,0.16707545518875122,0.0,0.06500044465065002,99
1674111224.83997917,62524275,0,24.086713790893555,24.197643280029297,1.7066088914871216,6.9609761238098145,0.16821743547916412,0.0,0.06500044465065002,99
1674111224.93993402,62624230,0,24.075119018554688,24.18503189086914,1.6909576654434204,7.007930278778076,0.1693478673696518,0.0,0.06500044465065002,99
1674111225.03999209,62724288,0,24.098201751708984,24.21246337890625,1.757859468460083,7.056791305541992,0.17052532732486725,0.0,0.06500044465065002,99
1674111225.13996315,62824259,0,24.100116729736328,24.214258193969727,1.7560181617736816,7.105559825897217,0.17170065641403198,0.0,0.06500044465065002,99
1674111225.23998904,62924285,0,24.11553192138672,24.232465744018555,1.7989825010299683,7.155548572540283,0.17290616035461426,0.0,0.06500044465065002,99
1674111225.34000421,63024300,0,24.115819931030273,24.23351287841797,1.8106443881988525,7.205855369567871,0.17411935329437256,0.0,0.06500044465065002,99
1674111225.43994212,63124238,0,24.071491241455078,24.181264877319336,1.6888093948364258,7.252741813659668,0.17524798214435577,0.0,0.06500044465065002,99
1674111225.53992915,63224225,0,24.090543746948242,24.203569412231445,1.7388322353363037,7.301040172576904,0.17641152441501617,0.0,0.06500044465065002,99
1674111225.63997412,63324270,0,24.103853225708008,24.219690322875977,1.7821037769317627,7.3505539894104,0.17760500311851501,0.0,0.06500044465065002,99
1674111225.73997617,63424272,0,24.118839263916016,24.23644256591797,1.809280276298523,7.400809288024902,0.17881710827350616,0.0,0.06500044465065002,99
1674111225.83989406,63524190,0,24.10672378540039,24.22254180908203,1.7817966938018799,7.450289726257324,0.18000991642475128,0.0,0.06500044465065002,99
1674111225.94003415,63624330,0,24.067663192749023,24.177875518798828,1.6955610513687134,7.497457981109619,0.18114514648914337,0.0,0.06500044465065002,99
1674111226.03998899,63724285,0,24.097246170043945,24.211627960205078,1.759700894355774,7.546320915222168,0.18232260644435883,0.0,0.06500044465065002,99
1674111226.13997006,63824266,0,24.099449157714844,24.214588165283203,1.771362543106079,7.595513820648193,0.18350812792778015,0.0,0.06500044465065002,99
1674111226.23996615,63924262,0,24.118309020996094,24.236042022705078,1.8112581968307495,7.645834922790527,0.18472179770469666,0.0,0.06500044465065002,99
1674111226.33999515,64024291,0,24.082979202270508,24.195405960083008,1.7296255826950073,7.693897724151611,0.18587929010391235,0.0,0.06500044465065002,99
1674111226.43996119,64124257,0,24.081256866455078,24.193742752075195,1.7305463552474976,7.741954326629639,0.18703655898571014,0.0,0.06500044465065002,99
1674111226.53993821,64224234,0,24.10681915283203,24.223134994506836,1.7894688844680786,7.79164981842041,0.18823456764221191,0.0,0.06500044465065002,99
1674111226.63995910,64324255,0,24.11458396911621,24.23165512084961,1.801096796989441,7.8416948318481445,0.18944138288497925,0.0,0.06500044465065002,99
1674111226.73999405,64424290,0,24.1165828704834,24.234275817871094,1.8106443881988525,7.8920183181762695,0.19065500795841217,0.0,0.06500044465065002,99
1674111226.84000015,64524296,0,24.1099796295166,24.226715087890625,1.7959136962890625,7.941911697387695,0.1918579339981079,0.0,0.06500044465065002,99
1674111226.93988419,64624180,0,24.080204010009766,24.19316864013672,1.737911581993103,7.9901347160339355,0.19301915168762207,0.0,0.06500044465065002,99
1674111227.03996301,64724259,0,24.073501586914062,24.185209274291992,1.7185776233673096,8.037914276123047,0.19416937232017517,0.0,0.06500044465065002,99
1674111227.13993406,64824230,0,24.102798461914062,24.219135284423828,1.7897759675979614,8.087620735168457,0.19536742568016052,0.0,0.06500044465065002,99
1674111227.23997521,64924271,0,24.10796546936035,24.224781036376953,1.7971410751342773,8.137565612792969,0.1965714991092682,0.0,0.06500044465065002,99
1674111227.34001207,65024308,0,24.093990325927734,24.209110260009766,1.7710555791854858,8.186783790588379,0.19775736331939697,0.0,0.06500044465065002,99
1674111227.43992710,65124223,0,24.06325912475586,24.1739501953125,1.7029263973236084,8.234050750732422,0.19889476895332336,0.0,0.06500044465065002,99
1674111227.53993607,65224232,0,24.085969924926758,24.2009220123291,1.7652928829193115,8.283095359802246,0.20007604360580444,0.0,0.06511824578046799,99
1674111227.63995600,65324252,0,24.101266860961914,24.2175350189209,1.7854794263839722,8.3327054977417,0.20127172768115997,0.0,0.06511824578046799,99
1674111227.74000216,65424298,0,24.108924865722656,24.226470947265625,1.8051203489303589,8.382874488830566,0.2024812549352646,0.0,0.06511824578046799,99
1674111227.83996701,65524263,0,24.0855655670166,24.200014114379883,1.7575526237487793,8.431682586669922,0.20365682244300842,0.0,0.06511824578046799,99
1674111227.93999505,65624291,0,24.07235336303711,24.184404373168945,1.7207260131835938,8.479497909545898,0.204807847738266,0.0,0.06511824578046799,99
1674111228.03996921,65724265,0,24.09791374206543,24.21380043029785,1.7796486616134644,8.52892017364502,0.20599882304668427,0.0,0.06511824578046799,99
1674111228.13996410,65824260,0,24.093032836914062,24.208919525146484,1.7796486616134644,8.578351020812988,0.20718976855278015,0.0,0.06511824578046799,99
1674111228.23997116,65924267,0,24.110074996948242,24.228260040283203,1.8149408102035522,8.62878131866455,0.20840565860271454,0.0,0.06511824578046799,99
1674111228.33999610,66024292,0,24.10820198059082,24.22593116760254,1.807916283607483,8.679018020629883,0.2096167802810669,0.0,0.06511824578046799,99
1674111228.43992710,66124223,0,24.067758560180664,24.17898941040039,1.7081433534622192,8.726431846618652,0.21075792610645294,0.0,0.06511824578046799,99
1674111228.53992200,66224218,0,24.08135223388672,24.194782257080078,1.7419010400772095,8.774825096130371,0.21192330121994019,0.0,0.06511824578046799,99
1674111228.63998413,66324280,0,24.100500106811523,24.21700668334961,1.7891621589660645,8.824559211730957,0.2131219059228897,0.0,0.06511824578046799,99
1674111228.73997617,66424272,0,24.111797332763672,24.23084259033203,1.8281370401382446,8.875340461730957,0.21434633433818817,0.0,0.06511824578046799,99
1674111228.83997822,66524274,0,24.037792205810547,24.233606338500977,3.029607057571411,8.959505081176758,0.21636945009231567,0.0,0.0646333172917366,99
1674111228.93992805,66624224,0,23.738323211669922,24.28501319885254,8.784080505371094,9.203404426574707,0.2221592217683792,0.0,0.06223637983202934,99
1674111229.03993702,66724233,0,23.777862548828125,24.25674819946289,7.7486371994018555,9.418681144714355,0.22727803885936737,0.0,0.06180262938141823,99
1674111229.13997602,66824272,0,23.87151527404785,24.24134063720703,6.001381874084473,9.58546257019043,0.23125937581062317,0.0,0.06162339076399803,99
1674111229.23995304,66924249,0,23.90988540649414,24.25609588623047,5.648902893066406,9.742354393005371,0.23501063883304596,0.0,0.06128808483481407,99
1674111229.34000015,67024296,0,23.889972686767578,24.240549087524414,5.729921817779541,9.901604652404785,0.23881512880325317,0.0,0.06118331104516983,99
1674111229.43998814,67124284,0,23.87455940246582,24.238235473632812,5.950268268585205,10.066884994506836,0.24276112020015717,0.0,0.06111924722790718,99
1674111229.53999615,67224292,0,23.844207763671875,24.20841407775879,5.929092884063721,10.231606483459473,0.24668878316879272,0.0,0.061426904052495956,99
1674111229.63999701,67324293,0,23.835786819458008,24.25547981262207,6.866638660430908,10.42236328125,0.25123563408851624,0.0,0.061120521277189255,99
1674111229.73998022,67424276,0,23.84842300415039,24.2686710357666,6.924947261810303,10.614706039428711,0.25582268834114075,0.0,0.060686010867357254,99
1674111229.83997703,67524273,0,23.85244369506836,24.26187515258789,6.780402183532715,10.803061485290527,0.2603154480457306,0.0,0.06038442254066467,99
1674111229.93992400,67624220,0,23.776044845581055,24.219480514526367,7.3125481605529785,11.006072044372559,0.2651422321796417,0.0,0.060640327632427216,99
1674111230.03992200,67724218,0,23.748228073120117,24.225107192993164,7.84339714050293,11.223983764648438,0.2703172266483307,0.0,0.060800161212682724,99
1674111230.13995910,67824255,0,23.75938606262207,24.25361442565918,8.157413482666016,11.450677871704102,0.2757033407688141,0.0,0.06058630719780922,99
1674111230.23996305,67924259,0,23.728271484375,24.270429611206055,9.007494926452637,11.700918197631836,0.2816411256790161,0.0,0.060189709067344666,99
1674111230.33995509,68024251,0,23.73162078857422,24.24260711669922,8.49161434173584,11.936796188354492,0.2872388958930969,0.0,0.06017536669969559,99
1674111230.43999720,68124293,0,23.702709197998047,24.20777702331543,8.33602237701416,12.168465614318848,0.29273009300231934,0.0,0.0605885274708271,99
1674111230.53993320,68224229,0,23.726070404052734,24.257617950439453,8.807403564453125,12.412971496582031,0.29853126406669617,0.0,0.06035241857171059,99
1674111230.63996220,68324258,0,23.674467086791992,24.261537551879883,9.766737937927246,12.684381484985352,0.30495673418045044,0.0,0.0601092129945755,99
1674111230.74001122,68424307,0,23.636266708374023,24.27828025817871,10.747554779052734,12.983095169067383,0.31201720237731934,0.0,0.059735849499702454,99
1674111230.83994603,68524242,0,23.573749542236328,24.227136611938477,10.903453826904297,13.285796165466309,0.3191530108451843,0.0,0.05992485582828522,99
1674111230.93997121,68624267,0,23.529094696044922,24.223474502563477,11.549592018127441,13.606698036193848,0.3267035484313965,0.0,0.060121651738882065,99
1674111231.03997421,68724270,0,23.506637573242188,24.25751495361328,12.517996788024902,13.954483032226562,0.3348788022994995,0.0,0.05998377129435539,99
1674111231.13996911,68824265,0,23.3190860748291,24.283580780029297,16.189306259155273,14.40412712097168,0.3453640937805176,0.0,0.059576064348220825,99
1674111231.23995304,68924249,0,23.15614128112793,24.230257034301758,17.9984188079834,14.904128074645996,0.35694217681884766,0.0,0.05967836081981659,99
1674111231.34000421,69024300,0,22.90118980407715,24.209863662719727,21.86337661743164,15.511802673339844,0.37085863947868347,0.0,0.05985691025853157,99
1674111231.43997812,69124274,0,22.87495994567871,24.09053611755371,20.05426597595215,16.06875991821289,0.38359901309013367,0.0,0.06061432510614395,99
1674111231.53992510,69224221,0,22.89879608154297,24.097490310668945,19.56968879699707,16.612123489379883,0.3960413634777069,0.0,0.06125255674123764,99
1674111231.63992500,69324221,0,22.90530776977539,24.106964111328125,19.45184326171875,17.152490615844727,0.4084186255931854,0.0,0.06177600100636482,99
1674111231.73994517,69424241,0,22.8848819732666,24.129337310791016,20.028249740600586,17.70899200439453,0.42115411162376404,0.0,0.06213504448533058,99
1674111231.83998322,69524279,0,22.752031326293945,24.065526962280273,20.921228408813477,18.2904052734375,0.43438243865966797,0.0,0.0627829059958458,99
1674111231.93998408,69624280,0,22.590234756469727,24.041330337524414,22.865062713623047,18.925596237182617,0.44873157143592834,0.0,0.06346342712640762,99
1674111232.03991914,69724215,0,22.58075523376465,24.10914421081543,23.97998809814453,19.591327667236328,0.4637642800807953,0.0,0.06373602896928787,99
1674111232.13991117,69824207,0,22.30120086669922,24.124971389770508,28.549257278442383,20.384363174438477,0.4814499020576477,0.0,0.0638815313577652,99
1674111232.24000621,69924302,0,22.358835220336914,24.111801147460938,27.363439559936523,21.145240783691406,0.4984622597694397,0.0,0.06406234204769135,99
1674111232.33995605,70024252,0,22.36907958984375,24.01373291015625,25.458580017089844,21.85213279724121,0.5142747759819031,0.0,0.06460115313529968,99
1674111232.43997216,70124268,0,22.394065856933594,23.927175521850586,23.436796188354492,22.503311157226562,0.5288572907447815,0.0,0.06541463732719421,99
1674111232.54001212,70224308,0,22.274106979370117,23.911346435546875,24.726036071777344,23.190475463867188,0.5441632866859436,0.0,0.06621520966291428,99
1674111232.64000106,70324297,0,22.15057373046875,24.058435440063477,28.74252700805664,23.988855361938477,0.5618478655815125,0.0,0.066377654671669,99
1674111232.73994923,70424245,0,22.17540168762207,24.087127685546875,28.78494644165039,24.787988662719727,0.5795689821243286,0.0,0.06641410291194916,99
1674111232.83996105,70524257,0,22.164485931396484,24.060993194580078,28.498315811157227,25.579734802246094,0.5971176624298096,0.0,0.06654802709817886,99
1674111232.93997908,70624275,0,22.113170623779297,24.047609329223633,28.993019104003906,26.385435104370117,0.6149342656135559,0.0,0.06672085076570511,99
1674111233.03997517,70724271,0,22.153860092163086,24.059608459472656,28.51519203186035,27.177555084228516,0.6324827671051025,0.0,0.06683270633220673,99
1674111233.14001203,70824308,0,22.21120834350586,24.12553596496582,28.70792007446289,27.975357055664062,0.6502028703689575,0.0,0.06668289005756378,99
1674111233.23993611,70924232,0,22.254384994506836,24.171903610229492,28.892356872558594,28.777376174926758,0.6680513024330139,0.0,0.06636769324541092,99
1674111233.33997512,71024271,0,22.20623016357422,24.19110107421875,30.065902709960938,29.612932205200195,0.6866058707237244,0.0,0.06601734459400177,99
1674111233.43995714,71124253,0,22.132413864135742,24.20575714111328,31.577022552490234,30.489974975585938,0.7060169577598572,0.0,0.06565989553928375,99
1674111233.53995419,71224250,0,22.17791175842285,24.20319366455078,30.994754791259766,31.350982666015625,0.7251123189926147,0.0,0.0653427317738533,99
1674111233.63994622,71324242,0,22.225378036499023,24.23648452758789,30.970916748046875,32.21129608154297,0.7442330718040466,0.0,0.06493530422449112,99
1674111233.73996615,71424262,0,22.23772621154785,24.26426124572754,31.437082290649414,33.08478546142578,0.7636574506759644,0.0,0.06446321308612823,99
1674111233.83999014,71524286,0,22.04596519470215,24.179977416992188,33.17161560058594,34.00651550292969,0.7839778661727905,0.0,0.06433247774839401,99
1674111233.93996501,71624261,0,21.97291374206543,24.168228149414062,34.16593551635742,34.95529556274414,0.8048253059387207,0.0,0.06425446271896362,99
1674111234.04000616,71724302,0,22.045869827270508,24.209552764892578,33.78171157836914,35.894248962402344,0.8255253434181213,0.0,0.06404895335435867,99
1674111234.13998699,71824283,0,22.038400650024414,24.20993995666504,34.005126953125,36.838741302490234,0.8463404178619385,0.0,0.06385917961597443,99
1674111234.23998713,71924283,0,21.96372413635254,24.107402801513672,33.485565185546875,37.76896286010742,0.8667715191841125,0.0,0.06401797384023666,99
1674111234.33996916,72024265,0,21.987606048583984,24.140588760375977,33.61081314086914,38.7025032043457,0.8872978091239929,0.0,0.06405626237392426,99
1674111234.43996406,72124260,0,21.995319366455078,24.114774703979492,33.02614974975586,39.619693756103516,0.9074717164039612,0.0,0.0641750618815422,99
1674111234.53997302,72224269,0,21.95482063293457,24.064634323120117,32.737369537353516,40.529457092285156,0.9274454116821289,0.0,0.06444663554430008,99
1674111234.63995218,72324248,0,22.014371871948242,24.142690658569336,33.02584457397461,41.44656753540039,0.9476349949836731,0.0,0.06444402039051056,99
1674111234.73992801,72424224,0,21.9929256439209,24.128591537475586,33.11760711669922,42.36650848388672,0.9678672552108765,0.0,0.06448730826377869,99
1674111234.83994412,72524240,0,21.927248001098633,24.071746826171875,33.13939666748047,43.287269592285156,0.9880569577217102,0.0,0.06471144407987595,99
1674111234.94000220,72624298,0,21.931556701660156,24.081890106201172,33.140625,44.20844268798828,1.008259654045105,0.0,0.06488511711359024,99
1674111235.03999710,72724293,0,21.90082550048828,24.06104278564453,33.1765251159668,45.13003921508789,1.028443455696106,0.0,0.06511279940605164,99
1674111235.14002919,72824325,0,21.867603302001953,24.049654006958008,33.38521194458008,46.05778503417969,1.0487310886383057,0.0,0.06535980105400085,99
1674111235.23993015,72924226,0,21.945375442504883,24.08043670654297,32.6662712097168,46.96435546875,1.0686261653900146,0.0,0.06535980105400085,99
1674111235.33997416,73024270,0,22.332124710083008,24.032068252563477,26.09721565246582,47.68964767456055,1.084823489189148,0.0,0.06513892114162445,99
1674111235.43996215,73124258,0,22.19828224182129,23.88124656677246,26.0677547454834,48.41373062133789,1.1008968353271484,0.0,0.0645611584186554,99
1674111235.53994823,73224244,0,22.20747184753418,23.95914077758789,27.227794647216797,49.170013427734375,1.117691993713379,0.0,0.06433382630348206,99
1674111235.63995004,73324246,0,22.169178009033203,23.943822860717773,27.677387237548828,49.938907623291016,1.1347377300262451,0.0,0.06411894410848618,99
1674111235.73999405,73424290,0,22.17281723022461,23.962310791015625,27.958803176879883,50.715938568115234,1.1519666910171509,0.0,0.06400467455387115,99
1674111235.83999515,73524291,0,22.012645721435547,23.951631546020508,30.229167938232422,51.55567932128906,1.1704516410827637,0.0,0.0641428753733635,99
1674111235.93997622,73624272,0,22.001062393188477,23.956682205200195,30.436317443847656,52.40107345581055,1.1890511512756348,0.0,0.0642528086900711,99
1674111236.03998518,73724281,0,21.89974021911621,23.956584930419922,31.961454391479492,53.2890510559082,1.2084976434707642,0.0,0.06435394287109375,99
1674111236.13998413,73824280,0,21.807575225830078,24.014842987060547,34.35007095336914,54.2432861328125,1.2293071746826172,0.0,0.06425803899765015,99
1674111236.23993301,73924229,0,21.779237747192383,24.05268669128418,35.492313385009766,55.228641510009766,1.250767469406128,0.0,0.0640546903014183,99
1674111236.33992720,74024223,0,21.741901397705078,24.01152229309082,35.46407699584961,56.21389389038086,1.272188663482666,0.0,0.06399775296449661,99
1674111236.43991709,74124213,0,21.75702667236328,24.01951789855957,35.39533233642578,57.197078704833984,1.2935798168182373,0.0,0.06392060965299606,99
1674111236.53995800,74224254,0,21.730411529541016,23.969955444335938,34.990238189697266,58.16949462890625,1.3147108554840088,0.0,0.06400483846664429,99
1674111236.63998318,74324279,0,21.752910614013672,24.007099151611328,35.240352630615234,59.14872741699219,1.3360120058059692,0.0,0.06396609544754028,99
1674111236.73997903,74424275,0,21.807193756103516,24.05826187133789,35.29958724975586,60.129310607910156,1.3573957681655884,0.0,0.06377038359642029,99
1674111236.83997607,74524272,0,21.71571159362793,23.94072914123535,34.78892135620117,61.095542907714844,1.3783782720565796,0.0,0.06395762413740158,99
1674111236.94001102,74624307,0,21.798192977905273,24.075510025024414,35.74488067626953,62.08906173706055,1.4000351428985596,0.0,0.06371032446622849,99
1674111237.03996205,74724258,0,21.688766479492188,23.92624855041504,34.990238189697266,63.060604095458984,1.4211066961288452,0.0,0.06394591182470322,99
1674111237.13994408,74824240,0,21.75309944152832,23.99857521057129,35.11913299560547,64.03604888916016,1.4423255920410156,0.0,0.06393879652023315,99
1674111237.23999214,74924288,0,21.72667694091797,23.988117218017578,35.35451889038086,65.01866912841797,1.4636746644973755,0.0,0.06396469473838806,99
1674111237.33997607,75024272,0,21.723039627075195,23.99826431274414,35.574249267578125,66.00675201416016,1.4851388931274414,0.0,0.0639570876955986,99
1674111237.43997121,75124267,0,21.79608726501465,24.0782413482666,35.68258285522461,66.99797821044922,1.5067436695098877,0.0,0.0639570876955986,99
1674111237.53995299,75224249,0,21.691734313964844,23.9125919342041,34.72417068481445,67.96231842041016,1.5276618003845215,0.0,0.0639570876955986,99
1674111237.64001203,75324308,0,21.73979377746582,23.970720291137695,34.8816032409668,68.93201446533203,1.5487428903579712,0.0,0.0639570876955986,99
1674111237.73998117,75424277,0,21.692413330078125,23.918588638305664,34.807334899902344,69.8986587524414,1.5697118043899536,0.0,0.0639570876955986,99
1674111237.83997512,75524271,0,21.680627822875977,23.926088333129883,35.02092742919922,70.87149047851562,1.5908033847808838,0.0,0.0641176775097847,99
1674111237.93993306,75624229,0,21.662342071533203,23.919086456298828,35.103790283203125,71.84593200683594,1.6119121313095093,0.0,0.06428774446249008,99
1674111238.03992915,75724225,0,21.644725799560547,23.917377471923828,35.26214599609375,72.82579803466797,1.633121132850647,0.0,0.06445019692182541,99
1674111238.13994813,75824244,0,21.681873321533203,23.967769622802734,35.47113800048828,73.81138610839844,1.6544904708862305,0.0,0.06444385647773743,99
1674111238.24000001,75924296,0,21.65880012512207,23.935361862182617,35.27442169189453,74.79181671142578,1.6757254600524902,0.0,0.06453859061002731,99
1674111238.33999419,76024290,0,21.698436737060547,23.978721618652344,35.332115173339844,75.77318572998047,1.6970196962356567,0.0,0.06453859061002731,99
1674111238.43996906,76124265,0,21.72083854675293,24.006431579589844,35.41436004638672,76.75685119628906,1.7183856964111328,0.0,0.06453859061002731,99
1674111238.54002619,76224322,0,21.666671752929688,23.946969985961914,35.28846740722656,77.73772430419922,1.7396379709243774,0.0,0.06461881846189499,99
1674111238.63993621,76324232,0,21.617155075073242,23.885719299316406,35.10685729980469,78.71211242675781,1.7607015371322632,0.0,0.06461881846189499,99
1674111238.73999119,76424287,0,21.667034149169922,23.951459884643555,35.34347152709961,79.6944808959961,1.7819865942001343,0.0,0.06463500112295151,99
1674111238.83999705,76524293,0,21.653724670410156,23.94600486755371,35.44750213623047,80.67926788330078,1.8033109903335571,0.0,0.06466691195964813,98
1674111238.94000316,76624299,0,21.644821166992188,23.923625946044922,35.23912811279297,81.65827941894531,1.8245015144348145,0.0,0.06466691195964813,98
1674111239.03997517,76724271,0,21.640705108642578,23.911731719970703,35.11882781982422,82.63360595703125,1.8456083536148071,0.0,0.06466691195964813,98
1674111239.13999820,76824294,0,21.685415267944336,23.95583152770996,35.092742919921875,83.60870361328125,1.8667538166046143,0.0,0.06469760090112686,98
1674111239.23999906,76924295,0,21.805564880371094,23.969806671142578,33.42111587524414,84.53713989257812,1.8869988918304443,0.0,0.06475673615932465,98
1674111239.34003520,77024331,0,21.93366241455078,23.881912231445312,30.170244216918945,85.37557220458984,1.9053887128829956,0.0,0.0645751953125,98
1674111239.44003415,77124330,0,22.127172470092773,23.87320327758789,27.10647201538086,86.12859344482422,1.9220508337020874,0.0,0.06441379338502884,98
1674111239.53996611,77224262,0,22.20172882080078,23.847768783569336,25.629518508911133,86.84009552001953,1.9378474950790405,0.0,0.06422434747219086,98
1674111239.64003921,77324335,0,22.17693328857422,23.9288272857666,27.24927520751953,87.59762573242188,1.954647183418274,0.0,0.06429137289524078,98
1674111239.74000406,77424300,0,22.088951110839844,23.891427993774414,28.05608558654785,88.37676239013672,1.9718574285507202,0.0,0.06424549967050552,98
1674111239.84000802,77524304,0,22.040889739990234,23.877531051635742,28.619535446166992,89.17182159423828,1.989381194114685,0.0,0.06417439877986908,98
1674111239.93996406,77624260,0,21.9703311920166,23.836563110351562,29.153522491455078,89.98136901855469,2.007167100906372,0.0,0.06401392817497253,98
1674111240.04004216,77724338,0,21.909345626831055,23.82150650024414,29.87102699279785,90.81183624267578,2.025362014770508,0.0,0.06401392817497253,98
1674111240.13997221,77824268,0,21.865114212036133,23.84539794921875,30.893272399902344,91.6694564819336,2.044114112854004,0.0,0.06410082429647446,98
1674111240.24000716,77924303,0,21.8642520904541,23.877384185791016,31.41498374938965,92.54246520996094,2.063201665878296,0.0,0.06408190727233887,98
1674111240.34002399,78024320,0,21.83782958984375,23.8935546875,32.11319351196289,93.43473052978516,2.0826869010925293,0.0,0.06401494890451431,98
1674111240.44004321,78124339,0,21.75913429260254,23.850971221923828,32.64162063598633,94.34169006347656,2.102421522140503,0.0,0.06408494710922241,98
1674111240.54005504,78224351,0,21.67105484008789,23.783475875854492,32.823604583740234,95.25363159179688,2.1221842765808105,0.0,0.0643567368388176,98
1674111240.64004207,78324338,0,21.928302764892578,24.187053680419922,35.09734344482422,96.22850799560547,2.143561601638794,0.0,0.0643567368388176,98
1674111240.74009013,78424386,0,21.78565216064453,23.984289169311523,34.272735595703125,97.18106842041016,2.164313793182373,0.0,0.06415118277072906,98
1674111240.84008503,78524381,0,21.7674617767334,23.978267669677734,34.5538444519043,98.14091491699219,2.1852073669433594,0.0,0.06398145109415054,98
1674111240.94007206,78624368,0,21.830076217651367,24.0645694732666,35.156883239746094,99.11744689941406,2.2065250873565674,0.0,0.06355778872966766,98
1674111241.04010320,78724399,0,21.66626739501953,23.864763259887695,34.465457916259766,100.07520294189453,2.227276086807251,0.0,0.06378839164972305,98
1674111241.14010501,78824401,0,21.75251579284668,23.975738525390625,34.925315856933594,101.04544830322266,2.2483813762664795,0.0,0.06365647912025452,98
1674111241.24015617,78924452,0,21.73155975341797,23.958757400512695,35.02553176879883,102.01895141601562,2.2695372104644775,0.0,0.06358782202005386,98
1674111241.34005499,79024351,0,21.683307647705078,23.873369216918945,34.3328857421875,102.97174835205078,2.2901968955993652,0.0,0.06378904730081558,98
1674111241.44005799,79124354,0,21.680530548095703,23.87234878540039,34.25923538208008,103.92350006103516,2.310831308364868,0.0,0.06397742033004761,98
1674111241.54007721,79224373,0,21.6680850982666,23.871845245361328,34.35191345214844,104.87797546386719,2.331512928009033,0.0,0.06415247917175293,98
1674111241.64013219,79324428,0,21.64175796508789,23.84107780456543,34.14629364013672,105.82708740234375,2.35205340385437,0.0,0.06440876424312592,98
1674111241.74013209,79424428,0,21.70542335510254,23.951974868774414,34.93776321411133,106.79766082763672,2.373120069503784,0.0,0.06430154293775558,98
1674111241.84005499,79524351,0,21.643098831176758,23.894447326660156,34.96906661987305,107.76835632324219,2.3941287994384766,0.0,0.06438114494085312,98
1674111241.94008112,79624377,0,21.57933807373047,23.81304359436035,34.520565032958984,108.72757720947266,2.414828062057495,0.0,0.06470649689435959,98
1674111242.04009104,79724387,0,21.627016067504883,23.876388549804688,34.70698165893555,109.69147491455078,2.4356744289398193,0.0,0.06481035053730011,98
1674111242.14010310,79824399,0,21.567752838134766,23.827863693237305,34.74073791503906,110.65704345703125,2.4564995765686035,0.0,0.06505648791790009,98
1674111242.24009609,79924392,0,21.56899642944336,23.84091567993164,34.82237243652344,111.62435150146484,2.477363348007202,0.0,0.06524308025836945,98
1674111242.34011102,80024407,0,21.554443359375,23.802274703979492,34.453182220458984,112.58160400390625,2.4979963302612305,0.0,0.06524308025836945,98
1674111242.44003916,80124335,0,21.536924362182617,23.80510711669922,34.64069366455078,113.54322814941406,2.518706798553467,0.0,0.0654774010181427,98
1674111242.54004622,80224342,0,21.47172737121582,23.749738693237305,34.5860710144043,114.50409698486328,2.5393383502960205,0.0,0.06586500257253647,98
1674111242.64004302,80324339,0,21.48503303527832,23.793434143066406,34.929473876953125,115.47439575195312,2.560185432434082,0.0,0.06608746200799942,98
1674111242.74010611,80424402,0,21.491640090942383,23.764528274536133,34.392112731933594,116.43041229248047,2.5807318687438965,0.0,0.06608746200799942,98
1674111242.84012508,80524421,0,21.525829315185547,23.787622451782227,34.2242431640625,117.38135528564453,2.6012015342712402,0.0,0.06608746200799942,98
1674111242.94004512,80624341,0,21.51586151123047,23.77284812927246,34.15151596069336,118.32931518554688,2.6215977668762207,0.0,0.06608746200799942,98
1674111243.04008102,80724377,0,21.584123611450195,23.844709396362305,34.178829193115234,119.27914428710938,2.642098903656006,0.0,0.06613993644714355,98
1674111243.14008617,80824382,0,21.5216064453125,23.72937774658203,33.38029861450195,120.20649719238281,2.6620569229125977,0.0,0.06613993644714355,98
1674111243.24014306,80924439,0,21.60480308532715,23.824329376220703,33.54264831542969,121.13883972167969,2.6822001934051514,0.0,0.06617026031017303,98
1674111243.34014821,81024444,0,21.576560974121094,23.825145721435547,33.96891403198242,122.0825424194336,2.702562093734741,0.0,0.06619538366794586,98
1674111243.44004822,81124344,0,21.564210891723633,23.80457305908203,33.861812591552734,123.02228546142578,2.7228269577026367,0.0,0.06616192311048508,98
1674111243.54007816,81224374,0,21.62931251525879,23.8593807220459,33.64790725708008,123.95731353759766,2.743051052093506,0.0,0.06627658754587173,98
1674111243.64003706,81324333,0,21.655927658081055,23.85993003845215,33.210147857666016,124.8795166015625,2.7630221843719482,0.0,0.0663653165102005,98
1674111243.74008417,81424380,0,21.70494270324707,23.910982131958008,33.141845703125,125.80062866210938,2.783015012741089,0.0,0.06656353920698166,98
1674111243.84007812,81524374,0,21.611312866210938,23.832469940185547,33.39411163330078,126.7282485961914,2.8030622005462646,0.0,0.06651343405246735,98
1674111243.94011116,81624407,0,21.578571319580078,23.846927642822266,34.10302734375,127.67594909667969,2.823512315750122,0.0,0.06651483476161957,98
1674111244.04001808,81724314,0,21.61457061767578,23.888683319091797,34.18956756591797,128.62484741210938,2.844022512435913,0.0,0.06651483476161957,98
1674111244.14009309,81824389,0,21.602312088012695,23.86858558654785,34.09443283081055,129.5727081298828,2.8644983768463135,0.0,0.06647045910358429,98
1674111244.24004507,81924341,0,21.5957088470459,23.87799644470215,34.37155532836914,130.52708435058594,2.8851089477539062,0.0,0.06640046089887619,98
1674111244.34012222,82024418,0,21.524860382080078,23.83817481994629,34.807952880859375,131.49461364746094,2.905935049057007,0.0,0.06645935028791428,98
1674111244.44006515,82124361,0,21.571006774902344,23.88509750366211,34.86748504638672,132.4628448486328,2.926820755004883,0.0,0.06636814028024673,98
1674111244.54004312,82224339,0,21.509235382080078,23.798263549804688,34.39405822753906,133.4180450439453,2.94736647605896,0.0,0.0665530189871788,98
1674111244.64004707,82324343,0,21.541521072387695,23.84305763244629,34.56550598144531,134.37838745117188,2.9680535793304443,0.0,0.0665847659111023,98
1674111244.74013805,82424434,0,21.484556198120117,23.767927169799805,34.29268264770508,135.3319091796875,2.988539457321167,0.0,0.0665847659111023,98
1674111244.84014511,82524441,0,21.48503303527832,23.75649070739746,34.11376953125,136.2796630859375,3.008901834487915,0.0,0.0665847659111023,98
1674111244.94004607,82624342,0,21.55032730102539,23.83568000793457,34.322452545166016,137.23219299316406,3.0294291973114014,0.0,0.0665847659111023,98
1674111245.04009914,82724395,0,21.458995819091797,23.703601837158203,33.710514068603516,138.16917419433594,3.0495357513427734,0.0,0.0665847659111023,98
1674111245.14008999,82824386,0,21.59848403930664,23.896240234375,34.50873565673828,139.12774658203125,3.070239305496216,0.0,0.0665847659111023,98
1674111245.24008703,82924383,0,21.513948440551758,23.811283111572266,34.486637115478516,140.085693359375,3.090848684310913,0.0,0.06661519408226013,98
1674111245.34011221,83024408,0,21.543594360351562,23.83362579345703,34.37700653076172,141.0409698486328,3.111428737640381,0.0,0.06661519408226013,98
1674111245.44008303,83124379,0,21.556549072265625,23.824535369873047,34.043487548828125,141.98643493652344,3.131809711456299,0.0,0.06662024557590485,98
1674111245.54004216,83224338,0,21.50762939453125,23.77248764038086,33.99653244018555,142.9304656982422,3.152113676071167,0.0,0.06662024557590485,98
1674111245.64004517,83324341,0,21.640897750854492,23.92787742614746,34.328590393066406,143.88414001464844,3.1727521419525146,0.0,0.06662024557590485,98
1674111245.74008417,83424380,0,21.676414489746094,23.93747901916504,33.80472946166992,144.8236083984375,3.1931161880493164,0.0,0.0668860375881195,98
1674111245.84006214,83524358,0,21.683116912841797,23.90928077697754,33.218265533447266,145.74620056152344,3.213120937347412,0.0,0.06701627373695374,98
1674111245.94013619,83624432,0,21.650279998779297,23.870132446289062,33.124664306640625,146.66700744628906,3.2330565452575684,0.0,0.06701510399580002,98
1674111246.04005718,83724353,0,21.62529182434082,23.91217041015625,34.124813079833984,147.6143341064453,3.25354266166687,0.0,0.06701510399580002,98
1674111246.14004016,83824336,0,21.50817108154297,23.806245803833008,34.1795768737793,148.56369018554688,3.2739615440368652,0.0,0.0672353059053421,98
1674111246.24007511,83924371,0,21.550519943237305,23.893451690673828,34.8816032409668,149.5330352783203,3.294851541519165,0.0,0.06716813892126083,98
1674111246.34012318,84024419,0,21.51011848449707,23.873592376708984,35.18757247924805,150.51100158691406,3.315887689590454,0.0,0.06716784834861755,98
1674111246.44004917,84124345,0,21.456409454345703,23.81828498840332,35.0743293762207,151.48464965820312,3.3367788791656494,0.0,0.06733914464712143,98
1674111246.54008317,84224379,0,21.381637573242188,23.77788543701172,35.4355354309082,152.46939086914062,3.3578341007232666,0.0,0.06762271374464035,98
1674111246.64012408,84324420,0,21.41619873046875,23.851329803466797,35.99284744262695,153.4696807861328,3.3792564868927,0.0,0.06765599548816681,98
1674111246.74005699,84424353,0,21.424530029296875,23.818531036376953,35.31615447998047,154.45010375976562,3.400261640548706,0.0,0.06778767704963684,98
1674111246.84009719,84524393,0,21.503225326538086,23.88919448852539,35.197696685791016,155.42828369140625,3.421295642852783,0.0,0.06778767704963684,98
1674111246.94009709,84624393,0,21.499011993408203,23.85877799987793,34.81684875488281,156.39505004882812,3.44208025932312,0.0,0.06777653843164444,98
1674111247.04009604,84724392,0,21.48944854736328,23.816144943237305,34.32892990112305,157.34913635253906,3.462583065032959,0.0,0.06777653843164444,98
1674111247.14005899,84824355,0,21.532520294189453,23.883203506469727,34.64560317993164,158.3112335205078,3.483299493789673,0.0,0.06784939020872116,98
1674111247.24007916,84924375,0,21.490110397338867,23.869916915893555,35.088443756103516,159.2861785888672,3.504251003265381,0.0,0.06782306730747223,98
1674111247.34018207,85024478,0,21.464262008666992,23.843412399291992,35.049163818359375,160.26010131835938,3.525155782699585,0.0,0.06788036972284317,97
1674111247.44011402,85124410,0,21.458131790161133,23.81690788269043,34.749027252197266,161.225341796875,3.545868158340454,0.0,0.06788036972284317,97
1674111247.54005313,85224349,0,21.45200538635254,23.827533721923828,34.95494842529297,162.1959686279297,3.566689968109131,0.0,0.06795969605445862,97
1674111247.64005423,85324350,0,21.46914291381836,23.84893226623535,35.01387023925781,163.16867065429688,3.5875730514526367,0.0,0.06796704232692719,97
1674111247.74006510,85424361,0,21.513853073120117,23.85504150390625,34.44091033935547,164.12554931640625,3.608159065246582,0.0,0.0679769441485405,97
1674111247.84014106,85524437,0,21.554550170898438,23.85682487487793,33.862457275390625,165.0669403076172,3.628450393676758,0.0,0.06798900663852692,97
1674111247.94010115,85624397,0,21.466176986694336,23.71687126159668,33.10379409790039,165.98590087890625,3.648176908493042,0.0,0.06798900663852692,97
1674111248.04006410,85724360,0,21.446739196777344,23.73609733581543,33.672462463378906,166.92129516601562,3.6682379245758057,0.0,0.06798900663852692,97
1674111248.14005303,85824349,0,21.413806915283203,23.703060150146484,33.67092514038086,167.8565673828125,3.688265800476074,0.0,0.06798900663852692,97
1674111248.24008918,85924385,0,21.40557098388672,23.67900848388672,33.43830871582031,168.7858123779297,3.7081570625305176,0.0,0.06798900663852692,97
1674111248.34011602,86024412,0,21.381446838378906,23.694110870361328,34.015254974365234,169.73101806640625,3.7283668518066406,0.0,0.06798900663852692,97
1674111248.44011402,86124410,0,21.50992774963379,23.78910255432129,33.48986053466797,170.66134643554688,3.748378276824951,0.0,0.06805568188428879,97
1674111248.54007101,86224367,0,21.577899932861328,23.790985107421875,32.492164611816406,171.56358337402344,3.7678465843200684,0.0,0.0681113600730896,97
1674111248.64010310,86324399,0,21.61906623840332,23.898820877075195,33.316162109375,172.48941040039062,3.7878620624542236,0.0,0.06842786818742752,97
1674111248.74005413,86424350,0,21.55763816833496,23.974756240844727,35.32359313964844,173.47021484375,3.8090057373046875,0.0,0.06842786818742752,97
1674111248.84005713,86524353,0,21.485132217407227,23.86126136779785,34.769588470458984,174.43614196777344,3.829758882522583,0.0,0.0683392733335495,97
1674111248.94007301,86624369,0,21.50533103942871,23.88643455505371,34.923648834228516,175.40647888183594,3.850626230239868,0.0,0.06818024069070816,97
1674111249.04013109,86724427,0,21.472015380859375,23.830810546875,34.583919525146484,176.36778259277344,3.871267318725586,0.0,0.06820494681596756,97
1674111249.14004016,86824336,0,21.438507080078125,23.75445556640625,33.95571517944336,177.3102264404297,3.8914718627929688,0.0,0.06820494681596756,97
1674111249.24003220,86924328,0,21.40336799621582,23.814977645874023,35.34347152709961,178.2919921875,3.912484884262085,0.0,0.06823352724313736,97
1674111249.34020519,87024501,0,21.41352081298828,23.778717041015625,34.59343338012695,179.25465393066406,3.933098793029785,0.0,0.0683712512254715,97
1674111249.44024515,87124541,0,21.441951751708984,23.86141586303711,35.453338623046875,180.2399444580078,3.954225540161133,0.0,0.06824363023042679,97
1674111249.54013109,87224427,0,21.40959358215332,23.74321174621582,34.195396423339844,181.18881225585938,3.9745404720306396,0.0,0.06824363023042679,97
1674111249.64008021,87324376,0,21.47434425354004,23.874622344970703,35.17219161987305,182.16539001464844,3.995512008666992,0.0,0.06824363023042679,97
1674111249.74004817,87424344,0,21.431804656982422,23.806312561035156,34.77204132080078,183.13104248046875,4.016207695007324,0.0,0.06828785687685013,97
1674111249.84004307,87524339,0,21.36402130126953,23.762554168701172,35.03382110595703,184.10423278808594,4.036998748779297,0.0,0.06846335530281067,97
1674111249.94009900,87624395,0,21.371395111083984,23.803325653076172,35.50274658203125,185.09104919433594,4.058088302612305,0.0,0.06849977374076843,97
1674111250.04008317,87724379,0,21.321706771850586,23.724287033081055,34.93315887451172,186.06134033203125,4.078776836395264,0.0,0.06877650320529938,97
1674111250.14008522,87824381,0,21.400976181030273,23.861507415771484,35.863033294677734,187.05763244628906,4.100098609924316,0.0,0.06860914081335068,97
1674111250.24011111,87924407,0,21.341426849365234,23.772151947021484,35.36617660522461,188.0403594970703,4.1210713386535645,0.0,0.06873022019863129,97
1674111250.34005022,88024346,0,21.41945457458496,23.852394104003906,35.39840316772461,189.02313232421875,4.1421217918396,0.0,0.06873022019863129,97
1674111250.44007206,88124368,0,21.419984817504883,23.829683303833008,35.04227828979492,189.99681091308594,4.162978172302246,0.0,0.06876546889543533,97
1674111250.54012012,88224416,0,21.436113357543945,23.855506896972656,35.18327331542969,190.9746856689453,4.1839399337768555,0.0,0.06876546889543533,97
1674111250.64011407,88324410,0,21.50609588623047,23.8929443359375,34.62350845336914,191.9364471435547,4.204623699188232,0.0,0.06893721222877502,97
1674111250.74015903,88424455,0,21.472110748291016,23.837936401367188,34.323062896728516,192.89039611816406,4.225107192993164,0.0,0.06892815977334976,97
1674111250.84010315,88524399,0,21.386425018310547,23.744953155517578,34.21718978881836,193.84036254882812,4.245423316955566,0.0,0.06892815977334976,97
1674111250.94009614,88624392,0,21.37589454650879,23.788949966430664,34.952491760253906,194.8113250732422,4.266178607940674,0.0,0.06903816759586334,97
1674111251.04011703,88724413,0,21.312227249145508,23.753459930419922,35.2529411315918,195.79086303710938,4.287055015563965,0.0,0.06924906373023987,97
1674111251.14006114,88824357,0,21.306100845336914,23.767478942871094,35.466224670410156,196.7755584716797,4.308034896850586,0.0,0.0694006010890007,97
1674111251.24004817,88924344,0,21.371692657470703,23.82049560546875,35.296993255615234,197.75599670410156,4.328988552093506,0.0,0.06937707960605621,97
1674111251.34012008,89024416,0,21.327835083007812,23.748010635375977,34.88436508178711,198.72576904296875,4.349671840667725,0.0,0.06937707960605621,97
1674111251.44008017,89124376,0,21.375320434570312,23.831754684448242,35.40699768066406,199.7089385986328,4.370687484741211,0.0,0.06937707960605621,97
1674111251.54012799,89224424,0,21.334726333618164,23.796524047851562,35.46714401245117,200.69473266601562,4.391719341278076,0.0,0.06941062957048416,97
1674111251.64007616,89324372,0,21.400306701660156,23.861379623413086,35.45671081542969,201.67921447753906,4.412787437438965,0.0,0.06941062957048416,97
1674111251.74008703,89424383,0,21.397245407104492,23.833389282226562,35.07494354248047,202.65370178222656,4.433639049530029,0.0,0.06945537775754929,97
1674111251.84006000,89524356,0,21.37091636657715,23.778839111328125,34.66862106323242,203.6165313720703,4.4542155265808105,0.0,0.06945537775754929,97
1674111251.94007206,89624368,0,21.38182830810547,23.822277069091797,35.136932373046875,204.59275817871094,4.475089073181152,0.0,0.06945537775754929,97
1674111252.04009318,89724389,0,21.33357810974121,23.748491287231445,34.76927947998047,205.55885314941406,4.495699405670166,0.0,0.06945537775754929,97
1674111252.14010501,89824401,0,21.359882354736328,23.808908462524414,35.26869201660156,206.5387420654297,4.516629695892334,0.0,0.06943908333778381,97
1674111252.24013305,89924429,0,21.380680084228516,23.78925323486328,34.704833984375,207.50311279296875,4.537248611450195,0.0,0.06940165162086487,97
1674111252.34006000,90024356,0,21.357797622680664,23.736083984375,34.26844024658203,208.4543914794922,4.557565689086914,0.0,0.06940165162086487,97
1674111252.44011021,90124406,0,21.355119705200195,23.739540100097656,34.3568229675293,209.4093017578125,4.577958106994629,0.0,0.06940165162086487,97
1674111252.54016304,90224459,0,21.330705642700195,23.734039306640625,34.62934112548828,210.37181091308594,4.598488807678223,0.0,0.06940165162086487,97
1674111252.64004302,90324339,0,21.247892379760742,23.676294326782227,34.840476989746094,211.33853149414062,4.619029521942139,0.0,0.06970062106847763,97
1674111252.74004817,90424344,0,21.31653594970703,23.816198348999023,35.94282150268555,212.33706665039062,4.64031457901001,0.0,0.06954552978277206,97
1674111252.84010005,90524396,0,21.282453536987305,23.755050659179688,35.530364990234375,213.32461547851562,4.661332130432129,0.0,0.06959109753370285,97
1674111252.94011402,90624410,0,21.298080444335938,23.736616134643555,35.04091262817383,214.29818725585938,4.682067394256592,0.0,0.06959109753370285,97
1674111253.04009008,90724386,0,21.380491256713867,23.825712203979492,35.05744934082031,215.2718505859375,4.702884674072266,0.0,0.06974898278713226,97
1674111253.14010119,90824397,0,21.430082321166992,23.89366912841797,35.32075881958008,216.253173828125,4.723914623260498,0.0,0.06974898278713226,97
1674111253.24010921,90924405,0,21.36985969543457,23.817703247070312,35.069419860839844,217.22747802734375,4.744735240936279,0.0,0.06979993730783463,97
1674111253.34011507,91024411,0,21.386137008666992,23.83371353149414,35.025840759277344,218.20008850097656,4.765535831451416,0.0,0.06987915933132172,97
1674111253.44004703,91124343,0,21.360095977783203,23.868682861328125,35.89894104003906,219.19717407226562,4.786833763122559,0.0,0.06987915933132172,97
1674111253.54009414,91224390,0,21.30523681640625,23.786317825317383,35.453033447265625,220.18251037597656,4.807826519012451,0.0,0.06998217105865479,97
1674111253.64015317,91324449,0,21.30638885498047,23.794776916503906,35.52238845825195,221.169921875,4.828864574432373,0.0,0.07005127519369125,97
1674111253.74012303,91424419,0,21.32946014404297,23.79566192626953,35.2056770324707,222.1476287841797,4.8497185707092285,0.0,0.07005127519369125,97
1674111253.84016514,91524461,0,21.26584815979004,23.712984085083008,34.93349838256836,223.1184844970703,4.870364665985107,0.0,0.07005127519369125,97
1674111253.94002414,91624320,0,21.298538208007812,23.7470703125,34.95341491699219,224.088134765625,4.891016483306885,0.0,0.07005127519369125,97
1674111254.04008913,91724385,0,21.278718948364258,23.681503295898438,34.30035400390625,225.04161071777344,4.9113054275512695,0.0,0.07005127519369125,97
1674111254.14011407,91824410,0,21.34927749633789,23.753328323364258,34.33902359008789,225.99578857421875,4.931676387786865,0.0,0.07000928372144699,97
1674111254.24012804,91924424,0,21.42337989807129,23.754112243652344,33.306034088134766,226.92115783691406,4.95150089263916,0.0,0.06997931003570557,97
1674111254.34010720,92024403,0,21.417348861694336,23.702932357788086,32.73246383666992,227.83018493652344,4.9709696769714355,0.0,0.0698261708021164,97
1674111254.44008207,92124378,0,21.49125862121582,23.818750381469727,33.24772644042969,228.75367736816406,4.990816593170166,0.0,0.07000453770160675,97
1674111254.54008913,92224385,0,21.442527770996094,23.772228240966797,33.27104949951172,229.67800903320312,5.010636806488037,0.0,0.07002187520265579,97
1674111254.64004517,92324341,0,21.370203018188477,23.749839782714844,33.984188079833984,230.62167358398438,5.030803203582764,0.0,0.07002187520265579,97
1674111254.74011016,92424406,0,21.445114135742188,23.79920768737793,33.57671356201172,231.55503845214844,5.050819396972656,0.0,0.07011090219020844,97
1674111254.84011817,92524414,0,21.389007568359375,23.729501724243164,33.382755279541016,232.48248291015625,5.070656776428223,0.0,0.07011090219020844,97
1674111254.94006014,92624356,0,21.339609146118164,23.680620193481445,33.39012145996094,233.40951538085938,5.090439319610596,0.0,0.07011090219020844,97
1674111255.04004216,92724338,0,21.35885238647461,23.76494598388672,34.33902359008789,234.36328125,5.11081075668335,0.0,0.07006880640983582,97
1674111255.14007401,92824370,0,21.346406936645508,23.739639282226562,34.136478424072266,235.3118896484375,5.1310601234436035,0.0,0.07010779529809952,97
1674111255.24008012,92924376,0,21.467418670654297,23.89143943786621,34.57563400268555,236.2724609375,5.151681423187256,0.0,0.07010779529809952,97
1674111255.34014606,93024442,0,21.392648696899414,23.80094337463379,34.35130310058594,237.22718811035156,5.17210578918457,0.0,0.07010779529809952,97
1674111255.44005013,93124346,0,21.379669189453125,23.756298065185547,33.899627685546875,238.16818237304688,5.192224025726318,0.0,0.07010779529809952,97
1674111255.54004908,93224345,0,21.42098617553711,23.807937622070312,34.0468635559082,239.11399841308594,5.212484359741211,0.0,0.07010779529809952,97
1674111255.64018202,93324478,0,21.450664520263672,23.867565155029297,34.474056243896484,240.07296752929688,5.2330546379089355,0.0,0.07010779529809952,96
1674111255.74017906,93424475,0,21.380298614501953,23.79379653930664,34.42341613769531,241.0292205810547,5.253499507904053,0.0,0.07011207193136215,96
1674111255.84012222,93524418,0,21.365171432495117,23.78249740600586,34.45901870727539,241.98594665527344,5.273940086364746,0.0,0.07015072554349899,96
1674111255.94007611,93624372,0,21.361055374145508,23.837249755859375,35.365257263183594,242.96792602539062,5.294916152954102,0.0,0.07001771777868271,96
1674111256.04005218,93724348,0,21.304378509521484,23.79961395263672,35.640541076660156,243.95779418945312,5.316004753112793,0.0,0.07001114636659622,96
1674111256.14003301,93824329,0,21.295473098754883,23.79486083984375,35.695472717285156,244.94921875,5.337117671966553,0.0,0.07001974433660507,96
1674111256.24005008,93924346,0,21.37034034729004,23.861196517944336,35.57363510131836,245.9375762939453,5.35823917388916,0.0,0.07001974433660507,96
1674111256.34008121,94024377,0,21.354352951049805,23.82360076904297,35.28915023803711,246.918212890625,5.379179954528809,0.0,0.06997188180685043,96
1674111256.44009209,94124388,0,21.322471618652344,23.79634666442871,35.335182189941406,247.8999786376953,5.400113582611084,0.0,0.070011667907238,96
1674111256.54010201,94224398,0,21.352628707885742,23.798486709594727,34.935001373291016,248.87057495117188,5.420838356018066,0.0,0.070011667907238,96
1674111256.64001918,94324315,0,21.366989135742188,23.81255340576172,34.92333984375,249.83993530273438,5.4415507316589355,0.0,0.07002664357423782,96
1674111256.74011016,94424406,0,21.361534118652344,23.813953399658203,35.021236419677734,250.81370544433594,5.462352275848389,0.0,0.07002664357423782,96
1674111256.84010506,94524401,0,21.379243850708008,23.820228576660156,34.84385681152344,251.7816162109375,5.4830451011657715,0.0,0.07005497068166733,96
1674111256.94003701,94624333,0,21.34343719482422,23.747465133666992,34.31631088256836,252.73428344726562,5.503378391265869,0.0,0.07005497068166733,96
1674111257.04005122,94724347,0,21.35234260559082,23.7829647064209,34.6959342956543,253.69827270507812,5.523962020874023,0.0,0.07005497068166733,96
1674111257.14005804,94824354,0,21.33414077758789,23.801198959350586,35.220951080322266,254.67677307128906,5.544837474822998,0.0,0.07004517316818237,96
1674111257.24013519,94924431,0,21.292600631713867,23.75735855102539,35.12496566772461,255.65330505371094,5.5656304359436035,0.0,0.07017111033201218,96
1674111257.34015608,95024452,0,21.34506607055664,23.833145141601562,35.45732498168945,256.6385192871094,5.5866594314575195,0.0,0.07017111033201218,96
1674111257.44006515,95124361,0,21.299877166748047,23.77684783935547,35.26091766357422,257.6171875,5.607504844665527,0.0,0.07024689018726349,96
1674111257.54006910,95224365,0,21.33846092224121,23.786890029907227,34.87055206298828,258.5856018066406,5.628169059753418,0.0,0.07021479308605194,96
1674111257.64005208,95324348,0,21.397340774536133,23.85591697692871,34.940216064453125,259.5564270019531,5.648941993713379,0.0,0.07036523520946503,96
1674111257.74009204,95424388,0,21.37866973876953,23.793075561523438,34.33441925048828,260.5106201171875,5.669341087341309,0.0,0.070320263504982,96
1674111257.84012413,95524420,0,21.3933162689209,23.864154815673828,35.136932373046875,261.487060546875,5.690229892730713,0.0,0.070320263504982,96
1674111257.94006705,95624363,0,21.316587448120117,23.70530891418457,33.96918869018555,262.43017578125,5.710333824157715,0.0,0.070320263504982,96
1674111258.04004121,95724337,0,21.413806915283203,23.816225051879883,34.141082763671875,263.3783874511719,5.73063850402832,0.0,0.07036734372377396,96
1674111258.14004111,95824337,0,21.376850128173828,23.822175979614258,34.7508659362793,264.3437805175781,5.751275062561035,0.0,0.07036734372377396,96
1674111258.24006414,95924360,0,21.375320434570312,23.828529357910156,34.86288070678711,265.3125,5.771981716156006,0.0,0.07036734372377396,96
1674111258.34012103,96024417,0,21.345735549926758,23.811182022094727,35.039649963378906,266.2864685058594,5.792771339416504,0.0,0.07036159187555313,96
1674111258.44011021,96124406,0,21.320077896118164,23.752119064331055,34.56489181518555,267.24639892578125,5.813237190246582,0.0,0.07036159187555313,96
1674111258.54004622,96224342,0,21.36469268798828,23.805612564086914,34.683963775634766,268.20947265625,5.833812713623047,0.0,0.07037606090307236,96
1674111258.64005423,96324350,0,21.391210556030273,23.807891845703125,34.33135223388672,269.16326904296875,5.854215621948242,0.0,0.07039284706115723,96
1674111258.74006510,96424361,0,21.409975051879883,23.82063865661621,34.22393798828125,270.1141052246094,5.874573230743408,0.0,0.0704379454255104,96
1674111258.84013915,96524435,0,21.347970962524414,23.726470947265625,33.7673225402832,271.0522766113281,5.894601345062256,0.0,0.0704379454255104,96
1674111258.94003916,96624335,0,21.37340545654297,23.753746032714844,33.84217071533203,271.9920654296875,5.914687633514404,0.0,0.07033651322126389,96
1674111259.04004216,96724338,0,21.246553421020508,23.65188980102539,34.197547912597656,272.94207763671875,5.934872627258301,0.0,0.07033651322126389,96
1674111259.14006901,96824365,0,21.219457626342773,23.618684768676758,34.11069869995117,273.8899230957031,5.954985618591309,0.0,0.07033651322126389,96
1674111259.24008918,96924385,0,21.2948055267334,23.7493839263916,34.91474533081055,274.86004638671875,5.975644111633301,0.0,0.07030205428600311,96
1674111259.34006214,97024358,0,21.245882034301758,23.687057495117188,34.64529800415039,275.8222351074219,5.996086597442627,0.0,0.0704619437456131,96
1674111259.44008613,97124382,0,21.263212203979492,23.657442092895508,33.979042053222656,276.7663879394531,6.016162395477295,0.0,0.0704619437456131,96
1674111259.54004407,97224340,0,21.343053817749023,23.811800003051758,35.036582946777344,277.73931884765625,6.036927223205566,0.0,0.0704619437456131,96
1674111259.64005113,97324347,0,21.3227596282959,23.756820678710938,34.54433059692383,278.6990051269531,6.0573906898498535,0.0,0.0704619437456131,96
1674111259.74003506,97424331,0,21.32988739013672,23.761505126953125,34.5096549987793,279.65753173828125,6.077836036682129,0.0,0.0704619437456131,96
1674111259.84007406,97524370,0,21.307823181152344,23.724411010742188,34.296363830566406,280.610595703125,6.098143577575684,0.0,0.0704619437456131,96
1674111259.94017100,97624467,0,21.32122802734375,23.706369400024414,33.89188766479492,281.5530700683594,6.11823844909668,0.0,0.0703750029206276,96
1674111260.04004312,97724339,0,21.284847259521484,23.693313598632812,34.223323822021484,282.5025939941406,6.138448715209961,0.0,0.0703750029206276,96
1674111260.14006805,97824364,0,21.247604370117188,23.680044174194336,34.49492263793945,283.4610900878906,6.158814907073975,0.0,0.07051588594913483,96
1674111260.24004102,97924337,0,21.276708602905273,23.724708557128906,34.719261169433594,284.4253234863281,6.179330825805664,0.0,0.07050842046737671,96
1674111260.34019113,98024487,0,21.330801010131836,23.795917510986328,34.96200942993164,285.39801025390625,6.200078964233398,0.0,0.07050842046737671,96
1674111260.44012117,98124417,0,21.209020614624023,23.663084030151367,34.69685745239258,286.3612060546875,6.220507621765137,0.0,0.07072866708040237,96
1674111260.54006004,98224356,0,21.194576263427734,23.68177604675293,35.093082427978516,287.33551025390625,6.241157531738281,0.0,0.07087438553571701,96
1674111260.64010406,98324400,0,21.186620712280273,23.715145111083984,35.66018295288086,288.3265686035156,6.262154579162598,0.0,0.07090607285499573,96
1674111260.74004507,98424341,0,21.113187789916992,23.763080596923828,37.43215560913086,289.3658447265625,6.284097194671631,0.0,0.07079190760850906,96
1674111260.84008408,98524380,0,21.190736770629883,23.87204360961914,38.10240173339844,290.42474365234375,6.306535720825195,0.0,0.07037104666233063,96
1674111260.94005513,98624351,0,21.055076599121094,23.715087890625,37.761756896972656,291.4734802246094,6.328616619110107,0.0,0.07044191658496857,96
