timestamp,TimeUS,Instance,Volt,VoltR,Curr,CurrTot,EnrgTot,Temp,Res,RemPct
1667891929.16013312,162214297,0,24.74539566040039,24.800580978393555,0.35116854310035706,21.481643676757812,0.5330403447151184,0.0,0.15714816749095917,99
1667891929.26012802,162314292,0,24.736223220825195,24.78744125366211,0.32591596245765686,21.490697860717773,0.5332643389701843,0.0,0.15714816749095917,99
1667891929.36045098,162414615,0,24.777620315551758,24.844173431396484,0.42350664734840393,21.502500534057617,0.5335568189620972,0.0,0.15714816749095917,99
1667891929.46030903,162514473,0,24.809341430664062,24.887130737304688,0.49501171708106995,21.516231536865234,0.5338975191116333,0.0,0.15714816749095917,99
1667891929.56023502,162614399,0,24.794198989868164,24.866056442260742,0.45726439356803894,21.5289249420166,0.5342122316360474,0.0,0.15714816749095917,99
1667891929.66027308,162714437,0,24.72165870666504,24.76887321472168,0.30044421553611755,21.537275314331055,0.5344186425209045,0.0,0.15714816749095917,99
1667891929.76025605,162814420,0,24.760086059570312,24.820804595947266,0.3863731026649475,21.548006057739258,0.5346843600273132,0.0,0.15714816749095917,99
1667891929.86026716,162914431,0,24.81183433532715,24.891263961791992,0.5054459571838379,21.562049865722656,0.5350328087806702,0.0,0.15714816749095917,99
1667891929.96026301,163014427,0,24.795000076293945,24.86712646484375,0.4589693546295166,21.574798583984375,0.5353489518165588,0.0,0.15714816749095917,99
1667891930.06034708,163114511,0,24.79966163635254,24.87412452697754,0.47383639216423035,21.58797264099121,0.5356756448745728,0.0,0.15714816749095917,99
1667891930.16029406,163214458,0,24.75634765625,24.815185546875,0.3744044303894043,21.59836769104004,0.5359330177307129,0.0,0.15714816749095917,99
1667891930.26029110,163314455,0,24.7412052154541,24.794784545898438,0.340953528881073,21.607839584350586,0.536167323589325,0.0,0.15714816749095917,99
1667891930.36032605,163414490,0,24.787588119506836,24.859397888183594,0.45695748925209045,21.62053871154785,0.5364820957183838,0.0,0.15714816749095917,99
1667891930.46030211,163514466,0,24.80838394165039,24.885305404663086,0.48948773741722107,21.63413429260254,0.536819338798523,0.0,0.15714816749095917,99
1667891930.56033206,163614496,0,24.802536010742188,24.879650115966797,0.49071529507637024,21.647769927978516,0.5371575355529785,0.0,0.15714816749095917,99
1667891930.66027904,163714443,0,24.71878433227539,24.762285232543945,0.2768137454986572,21.65545654296875,0.5373474955558777,0.0,0.15714816749095917,99
1667891930.76027703,163814441,0,24.76209831237793,24.823829650878906,0.39281773567199707,21.66636848449707,0.5376176834106445,0.0,0.15714816749095917,99
1667891930.86024618,163914410,0,24.78275489807129,24.850915908813477,0.43373623490333557,21.67841339111328,0.5379161834716797,0.0,0.15714816749095917,99
1667891930.96026707,164014431,0,24.80196189880371,24.8785457611084,0.48733949661254883,21.691946029663086,0.5382518172264099,0.0,0.15714816749095917,99
1667891931.06019998,164114364,0,24.777334213256836,24.842681884765625,0.4158344268798828,21.7034969329834,0.5385380387306213,0.0,0.15714816749095917,99
1667891931.16035318,164214517,0,24.732006072998047,24.780763626098633,0.3102646470069885,21.712129592895508,0.5387515425682068,0.0,0.15714816749095917,99
1667891931.26027203,164314436,0,24.77618408203125,24.84061622619629,0.41000354290008545,21.7235107421875,0.5390335321426392,0.0,0.15714816749095917,99
1667891931.36025715,164414421,0,24.80129051208496,24.877681732177734,0.48611193895339966,21.73701286315918,0.5393683910369873,0.0,0.15714816749095917,99
1667891931.46038318,164514547,0,24.77676010131836,24.91237449645996,0.8629715442657471,21.761016845703125,0.5399631261825562,0.0,0.15714816749095917,99
1667891931.56030607,164614470,0,24.536518096923828,24.987607955932617,2.964853286743164,21.84331703186035,0.5419825315475464,0.0,0.15214572846889496,99
1667891931.66031408,164714478,0,24.585771560668945,24.89548110961914,2.0459258556365967,21.900157928466797,0.5433800220489502,0.0,0.15137888491153717,99
1667891931.76027012,164814434,0,24.59832763671875,24.80319595336914,1.330363154411316,21.93709945678711,0.544288694858551,0.0,0.15399441123008728,99
1667891931.86030602,164914470,0,24.667226791381836,24.90444564819336,1.5537782907485962,21.98027801513672,0.5453538298606873,0.0,0.15267249941825867,99
1667891931.96027613,165014440,0,24.6926212310791,24.94609832763672,1.660268783569336,22.026386260986328,0.5464923977851868,0.0,0.15267249941825867,99
1667891932.06033397,165114498,0,24.707380294799805,24.95284652709961,1.6077908277511597,22.071077346801758,0.5475965738296509,0.0,0.15267249941825867,99
1667891932.16033411,165214498,0,24.639148712158203,24.8558292388916,1.4061648845672607,22.110139846801758,0.5485590696334839,0.0,0.1540926694869995,99
1667891932.26023912,165314403,0,24.672306060791016,24.89658546447754,1.457415223121643,22.15058708190918,0.5495570302009583,0.0,0.15388861298561096,99
1667891932.36025500,165414419,0,24.683805465698242,24.909029006958008,1.4635529518127441,22.191251754760742,0.5505607724189758,0.0,0.15388861298561096,99
1667891932.46025395,165514418,0,24.702470779418945,24.93057632446289,1.4822732210159302,22.23242950439453,0.5515779852867126,0.0,0.15388861298561096,99
1667891932.56030107,165614465,0,24.689842224121094,24.91265869140625,1.4479016065597534,22.27267074584961,0.5525715351104736,0.0,0.15388861298561096,99
1667891932.66021800,165714382,0,24.65122413635254,24.861005783081055,1.363200306892395,22.310508728027344,0.5535042881965637,0.0,0.15388861298561096,99
1667891932.76027012,165814434,0,24.673839569091797,24.894086837768555,1.4307159185409546,22.35027503967285,0.5544854402542114,0.0,0.1539423167705536,99
1667891932.86012197,165914286,0,24.706708908081055,24.937917709350586,1.5019140243530273,22.391937255859375,0.5555147528648376,0.0,0.1539423167705536,99
1667891932.96021509,166014379,0,24.693004608154297,24.91840171813965,1.4641668796539307,22.432649612426758,0.5565200448036194,0.0,0.1539423167705536,99
1667891933.06039596,166114560,0,24.702205657958984,24.932279586791992,1.4945487976074219,22.474241256713867,0.5575474500656128,0.0,0.1539423167705536,99
1667891933.16035509,166214519,0,24.659082412719727,24.872337341308594,1.38529634475708,22.512710571289062,0.5584960579872131,0.0,0.1539423167705536,99
1667891933.26028800,166314452,0,24.65860366821289,24.87053680419922,1.3767035007476807,22.55093002319336,0.5594384670257568,0.0,0.1539423167705536,99
1667891933.36026597,166414430,0,24.690332412719727,24.91505241394043,1.4597680568695068,22.591472625732422,0.5604395270347595,0.0,0.1539423167705536,99
1667891933.46033001,166514494,0,24.706613540649414,24.93829345703125,1.5049829483032227,22.63330841064453,0.5614731311798096,0.0,0.1539423167705536,99
1667891933.56038809,166614552,0,24.700288772583008,24.930883407592773,1.497924566268921,22.674945831298828,0.5625015497207642,0.0,0.1539423167705536,99
1667891933.66035414,166714518,0,24.63512420654297,24.840679168701172,1.3352733850479126,22.712026596069336,0.5634150505065918,0.0,0.1539423167705536,99
1667891933.76032996,166814494,0,24.658220291137695,24.873743057250977,1.4000270366668701,22.750904083251953,0.5643736720085144,0.0,0.1539423167705536,99
1667891933.86042714,166914591,0,24.673839569091797,24.892858505249023,1.4227367639541626,22.79046058654785,0.5653496980667114,0.0,0.1539423167705536,99
1667891933.96032500,167014489,0,24.69731903076172,24.926448822021484,1.4884110689163208,22.831775665283203,0.5663700699806213,0.0,0.1539423167705536,99
1667891934.06030202,167114466,0,24.669334411621094,24.88854217529297,1.423964262008667,22.871328353881836,0.5673457980155945,0.0,0.1539423167705536,99
1667891934.16029811,167214462,0,24.642122268676758,24.851409912109375,1.3595176935195923,22.909093856811523,0.5682764053344727,0.0,0.1539423167705536,99
1667891934.26024914,167314413,0,24.668506622314453,24.888338088989258,1.427374243736267,22.948726654052734,0.5692541003227234,0.0,0.15401172637939453,99
1667891934.36035895,167414523,0,24.707475662231445,24.93987464904785,1.5089725255966187,22.990684509277344,0.5702908039093018,0.0,0.15401172637939453,99
1667891934.46028900,167514453,0,24.683229446411133,24.908586502075195,1.4632461071014404,23.03131103515625,0.5712935924530029,0.0,0.15401172637939453,99
1667891934.56033015,167614494,0,24.695402145385742,24.925722122192383,1.4954694509506226,23.072872161865234,0.5723199844360352,0.0,0.15401172637939453,99
1667891934.66035104,167714515,0,24.67182731628418,24.89132308959961,1.425191879272461,23.112472534179688,0.5732969641685486,0.0,0.15401172637939453,99
1667891934.76041007,167814574,0,24.6395320892334,24.849197387695312,1.3613590002059937,23.150314331054688,0.57422935962677,0.0,0.15401172637939453,99
1667891934.86037302,167914537,0,24.680931091308594,24.90869903564453,1.4788973331451416,23.191383361816406,0.5752429366111755,0.0,0.15401172637939453,99
1667891934.96031618,168014480,0,24.691471099853516,24.921506881713867,1.4936281442642212,23.232852935791016,0.576266884803772,0.0,0.15401172637939453,99
1667891935.06039715,168114561,0,24.694345474243164,24.926225662231445,1.5055967569351196,23.27471160888672,0.5773005485534668,0.0,0.15401172637939453,99
1667891935.16035604,168214520,0,24.373245239257812,25.02957534790039,4.359867572784424,23.39577865600586,0.5802513360977173,0.0,0.15053915977478027,99
1667891935.26037097,168314535,0,24.12493324279785,25.010478973388672,7.48317813873291,23.60369300842285,0.5852672457695007,0.0,0.11833826452493668,99
1667891935.36035013,168414514,0,24.012144088745117,25.008556365966797,8.65733528137207,23.84414291381836,0.5910409688949585,0.0,0.11509452015161514,99
1667891935.46038699,168514551,0,24.064273834228516,25.0065975189209,8.429316520690918,24.078393936157227,0.5966780185699463,0.0,0.11179114878177643,99
1667891935.56029105,168614455,0,24.128767013549805,24.937196731567383,7.258228778839111,24.279836654663086,0.6015385389328003,0.0,0.1113811507821083,99
1667891935.66046596,168714630,0,23.875972747802734,24.92800521850586,9.464759826660156,24.543228149414062,0.6078272461891174,0.0,0.11115249991416931,99
1667891935.76032114,168814485,0,23.581584930419922,24.954954147338867,12.3998441696167,24.887195587158203,0.6159385442733765,0.0,0.11075697094202042,99
1667891935.86027408,168914438,0,23.35744285583496,24.948291778564453,14.39554214477539,25.286916732788086,0.6252750158309937,0.0,0.11050979793071747,99
1667891935.96039701,169014561,0,22.98277473449707,24.853269577026367,16.858768463134766,25.755828857421875,0.6360519528388977,0.0,0.11095084249973297,99
1667891936.06033802,169114502,0,22.373476028442383,24.764087677001953,21.398441314697266,26.34992027282715,0.6493438482284546,0.0,0.11171899735927582,99
1667891936.16033816,169214502,0,21.849578857421875,24.6514892578125,24.839277267456055,27.039749145507812,0.6644163131713867,0.0,0.11280159652233124,99
1667891936.26035595,169314520,0,21.637798309326172,24.690155029296875,26.888681411743164,27.78707504272461,0.6805868148803711,0.0,0.11351829767227173,99
1667891936.36036801,169414532,0,21.654666900634766,24.733875274658203,27.018495559692383,28.53774642944336,0.69684237241745,0.0,0.11396671086549759,99
1667891936.46030903,169514473,0,21.59908676147461,24.683181762695312,26.918142318725586,29.285091400146484,0.7129843235015869,0.0,0.11457312852144241,99
1667891936.56040812,169614572,0,21.56036949157715,24.677953720092773,27.07741928100586,30.038040161132812,0.7292181849479675,0.0,0.11513595283031464,99
1667891936.66037297,169714537,0,21.495973587036133,24.615163803100586,26.91292381286621,30.78542709350586,0.7452840209007263,0.0,0.11589930951595306,99
1667891936.76035118,169814515,0,21.498945236206055,24.588436126708984,26.474382400512695,31.520715713500977,0.761091947555542,0.0,0.11669737100601196,99
1667891936.86035895,169914523,0,21.499561309814453,24.580963134765625,26.23558807373047,32.24960708618164,0.7767627835273743,0.0,0.1174512505531311,99
1667891936.96036696,170014531,0,21.497028350830078,24.606977462768555,26.34855842590332,32.98162841796875,0.7924990653991699,0.0,0.1180310919880867,99
1667891937.06038713,170114551,0,21.617961883544922,24.658803939819336,25.694271087646484,33.695556640625,0.8079327940940857,0.0,0.11834707111120224,99
1667891937.16030002,170214464,0,21.59630584716797,24.564775466918945,24.94147300720215,34.3878288269043,0.8228833079338074,0.0,0.11901739239692688,99
1667891937.26032805,170314492,0,21.708709716796875,24.67931365966797,24.9285831451416,35.08053970336914,0.837921142578125,0.0,0.11916455626487732,99
1667891937.36032414,170414488,0,21.76592254638672,24.69896125793457,24.602052688598633,35.7639045715332,0.8527951836585999,0.0,0.11921924352645874,99
1667891937.46042109,170514585,0,21.782020568847656,24.665739059448242,24.188365936279297,36.43655776977539,0.8674468994140625,0.0,0.11921924352645874,99
1667891937.56043696,170614601,0,21.813549041748047,24.673158645629883,24.006996154785156,37.103580474853516,0.8819969892501831,0.0,0.11911564320325851,99
1667891937.66036105,170714525,0,21.872676849365234,24.666147232055664,23.472087860107422,37.75514602661133,0.896248459815979,0.0,0.11901245266199112,99
1667891937.76057816,170814742,0,21.911624908447266,24.567089080810547,22.390954971313477,38.378509521484375,0.9099074006080627,0.0,0.11859535425901413,99
1667891937.86003399,170914198,0,21.96524429321289,24.564735412597656,21.979686737060547,38.98579025268555,0.923246443271637,0.0,0.11826788634061813,99
1667891937.96040416,171014568,0,22.01287078857422,24.567657470703125,21.64579200744629,39.58933639526367,0.936532199382782,0.0,0.11802692711353302,99
1667891938.05991507,171114079,0,22.13323211669922,24.6954402923584,21.662364959716797,40.188167572021484,0.9497863054275513,0.0,0.11827924847602844,99
1667891938.16030812,171214472,0,22.12748146057129,24.616653442382812,21.058406829833984,40.775474548339844,0.9627819657325745,0.0,0.11820325255393982,99
1667891938.25996113,171314125,0,22.191497802734375,24.65013885498047,20.790185928344727,41.35102081298828,0.9755542278289795,0.0,0.11825969815254211,99
1667891938.36035299,171414517,0,22.124895095825195,24.580875396728516,20.801847457885742,41.93115997314453,0.988389790058136,0.0,0.11806552857160568,99
1667891938.45996118,171514125,0,22.127674102783203,24.622461318969727,21.131752014160156,42.515899658203125,1.001328706741333,0.0,0.11805874109268188,99
1667891938.56026506,171614429,0,22.067611694335938,24.544246673583984,21.026660919189453,43.1017951965332,1.0142580270767212,0.0,0.11778546124696732,99
1667891938.65999103,171714155,0,22.042388916015625,24.542680740356445,21.266477584838867,43.69095993041992,1.0272445678710938,0.0,0.11756964772939682,99
1667891938.76026416,171814428,0,21.986135482788086,24.50800323486328,21.449996948242188,44.28840255737305,1.0403800010681152,0.0,0.11756964772939682,99
1667891938.86000705,171914171,0,22.005014419555664,24.555490493774414,21.677093505859375,44.88911056518555,1.0535986423492432,0.0,0.11765763908624649,99
1667891938.96022010,172014384,0,22.037212371826172,24.5970401763916,21.75657844543457,45.494789123535156,1.0669461488723755,0.0,0.11765763908624649,99
1667891939.05998898,172114153,0,22.017183303833008,24.574975967407227,21.736324310302734,46.09722900390625,1.0802102088928223,0.0,0.11767363548278809,99
1667891939.16024113,172214405,0,21.951541900634766,24.52251434326172,21.806602478027344,46.70447540283203,1.0935401916503906,0.0,0.1178988516330719,99
1667891939.25994015,172314104,0,21.944738388061523,24.527515411376953,21.872583389282227,47.310340881347656,1.1068357229232788,0.0,0.11808283627033234,99
1667891939.36035013,172414514,0,21.955949783325195,24.538471221923828,21.84772491455078,47.91975784301758,1.1202161312103271,0.0,0.11820550262928009,99
1667891939.45998001,172514144,0,21.974763870239258,24.57548713684082,22.008705139160156,48.52889633178711,1.1336017847061157,0.0,0.1181679293513298,99
1667891939.56028199,172614446,0,21.953073501586914,24.55658531188965,22.024492263793945,49.14258575439453,1.1470741033554077,0.0,0.11820986866950989,99
1667891939.65991998,172714084,0,21.88637924194336,24.44770050048828,21.66758155822754,49.742332458496094,1.1602003574371338,0.0,0.11820986866950989,99
1667891939.76031995,172814484,0,21.912731170654297,24.518123626708984,22.019275665283203,50.356475830078125,1.1736578941345215,0.0,0.11832322180271149,99
1667891939.86008906,172914253,0,21.918575286865234,24.507431030273438,21.852636337280273,50.962135314941406,1.1869330406188965,0.0,0.11846884340047836,99
1667891939.96028900,173014453,0,21.953554153442383,24.55684471130371,21.974470138549805,51.573814392089844,1.2003614902496338,0.0,0.11846884340047836,99
1667891940.05996418,173114128,0,21.9952392578125,24.539438247680664,21.47792625427246,52.16852569580078,1.213442325592041,0.0,0.11845649033784866,99
1667891940.16037011,173214534,0,22.038841247558594,24.53394889831543,21.06853485107422,52.75619125366211,1.2263938188552856,0.0,0.11842813342809677,99
1667891940.25999999,173314164,0,22.04014015197754,24.427507400512695,20.224998474121094,53.315956115722656,1.2387311458587646,0.0,0.11804042756557465,99
1667891940.36019897,173414363,0,22.127099990844727,24.524614334106445,20.304994583129883,53.881141662597656,1.2512370347976685,0.0,0.11807509511709213,99
1667891940.45994806,173514112,0,22.14626693725586,24.49857521057129,19.9327392578125,54.43349838256836,1.2634696960449219,0.0,0.11801231652498245,99
1667891940.56024003,173614404,0,22.216506958007812,24.533655166625977,19.622779846191406,54.98020935058594,1.2756156921386719,0.0,0.11808457225561142,99
1667891940.66000915,173714173,0,22.20596694946289,24.47756004333496,19.25942611694336,55.51398849487305,1.2874687910079956,0.0,0.11794707924127579,99
1667891940.76026011,173814424,0,22.213727951049805,24.47097396850586,19.15876579284668,56.04756546020508,1.2993215322494507,0.0,0.1178179606795311,99
1667891940.85996199,173914126,0,22.208267211914062,24.463579177856445,19.16275405883789,56.57831573486328,1.3111085891723633,0.0,0.1176924780011177,99
1667891940.96029997,174014464,0,22.250240325927734,24.516511917114258,19.241931915283203,57.11466979980469,1.323042631149292,0.0,0.11777777969837189,99
1667891941.06008410,174114248,0,22.221393585205078,24.49185562133789,19.28059959411621,57.64912414550781,1.3349189758300781,0.0,0.11775891482830048,99
1667891941.16032004,174214484,0,22.189952850341797,24.428447723388672,19.046886444091797,58.17949676513672,1.346687912940979,0.0,0.11752547323703766,99
1667891941.26025200,174314416,0,22.224748611450195,24.489356994628906,19.26433563232422,58.71429443359375,1.3585736751556396,0.0,0.11755440384149551,99
1667891941.36032510,174414489,0,22.209129333496094,24.48870277404785,19.38831901550293,59.2532958984375,1.37054443359375,0.0,0.11757460981607437,99
1667891941.45991611,174514080,0,22.23902702331543,24.515533447265625,19.344432830810547,59.788490295410156,1.3824466466903687,0.0,0.11768278479576111,99
1667891941.56032801,174614492,0,22.23030662536621,24.484216690063477,19.156309127807617,60.3227653503418,1.394323706626892,0.0,0.11765887588262558,99
1667891941.65996408,174714128,0,22.197917938232422,24.447572708129883,19.143728256225586,60.852718353271484,1.4060875177383423,0.0,0.11751389503479004,99
1667891941.76028109,174814445,0,22.198396682739258,24.463220596313477,19.282442092895508,61.39008712768555,1.4180163145065308,0.0,0.11745520681142807,99
1667891941.85996413,174914128,0,22.220914840698242,24.502010345458984,19.40642547607422,61.92748260498047,1.4299577474594116,0.0,0.11754326522350311,99
1667891941.96036816,175014532,0,22.221107482910156,24.509235382080078,19.46626853942871,62.47021484375,1.4420177936553955,0.0,0.11754326522350311,99
1667891942.05997396,175114138,0,22.228389739990234,24.51157569885254,19.410037994384766,63.00753402709961,1.4539614915847778,0.0,0.11762914061546326,99
1667891942.16025996,175214424,0,22.148086547851562,24.442228317260742,19.470256805419922,63.549964904785156,1.465975284576416,0.0,0.11782799661159515,99
1667891942.26001215,175314176,0,22.155752182006836,24.452970504760742,19.473939895629883,64.08960723876953,1.4779314994812012,0.0,0.1179637610912323,99
1667891942.36020899,175414373,0,22.190828323364258,24.489709854125977,19.492046356201172,64.63216400146484,1.4899712800979614,0.0,0.11793945729732513,99
1667891942.46004701,175514211,0,22.203380584716797,24.494050979614258,19.416858673095703,65.17068481445312,1.5019283294677734,0.0,0.11797331273555756,99
1667891942.56032705,175614491,0,22.230785369873047,24.50432586669922,19.261571884155273,65.707275390625,1.513857126235962,0.0,0.11803507804870605,99
1667891942.66026115,175714425,0,22.174631118774414,24.388004302978516,18.751829147338867,66.22785186767578,1.5254007577896118,0.0,0.11803507804870605,99
1667891942.76028419,175814448,0,22.236631393432617,24.42409896850586,18.559104919433594,66.74348449707031,1.5368666648864746,0.0,0.11786489933729172,99
1667891942.85997701,175914141,0,22.25522232055664,24.4888916015625,18.9364070892334,67.26798248291016,1.5485395193099976,0.0,0.11795636266469955,99
1667891942.96029997,176014464,0,22.275634765625,24.485496520996094,18.725130081176758,67.78978729248047,1.5601630210876465,0.0,0.11801585555076599,99
1667891943.05994701,176114111,0,22.3175106048584,24.514177322387695,18.59040641784668,68.3044662475586,1.571649432182312,0.0,0.11816129088401794,99
1667891943.16031313,176214477,0,22.327190399169922,24.494827270507812,18.337528228759766,68.81573486328125,1.5830645561218262,0.0,0.1182076707482338,99
1667891943.25996995,176314134,0,22.284162521362305,24.422679901123047,18.12393569946289,69.31749725341797,1.5942459106445312,0.0,0.11799407005310059,99
1667891943.36027718,176414441,0,22.308313369750977,24.449708938598633,18.159534454345703,69.82352447509766,1.605534553527832,0.0,0.11792127043008804,99
1667891943.45991707,176514081,0,22.358718872070312,24.494550704956055,18.09723663330078,70.32444763183594,1.6167346239089966,0.0,0.11801975965499878,99
1667891943.56022811,176614392,0,22.353927612304688,24.48670768737793,18.06378746032715,70.82781982421875,1.627987027168274,0.0,0.11806938052177429,99
1667891943.65995502,176714119,0,22.318758010864258,24.426198959350586,17.875049591064453,71.32303619384766,1.6390395164489746,0.0,0.11789847165346146,99
1667891943.76039100,176814555,0,22.281095504760742,24.37883186340332,17.792734146118164,71.81939697265625,1.6500989198684692,0.0,0.11789847165346146,99
1667891943.86000705,176914171,0,22.334665298461914,24.45926856994629,18.015911102294922,72.31803131103516,1.6612358093261719,0.0,0.11792927235364914,99
1667891943.96022701,177014391,0,22.37031364440918,24.459915161132812,17.715160369873047,72.81124877929688,1.672269344329834,0.0,0.11795558780431747,99
1667891944.06011796,177114282,0,22.389957427978516,24.444448471069336,17.422388076782227,73.29471588134766,1.6830941438674927,0.0,0.11792247742414474,99
1667891944.16030407,177214468,0,22.332460403442383,24.341876983642578,17.095552444458008,73.77051544189453,1.6937198638916016,0.0,0.11754027754068375,99
1667891944.26022911,177314393,0,22.401264190673828,24.37509536743164,16.81904411315918,74.23739624023438,1.7041785717010498,0.0,0.11735693365335464,99
1667891944.36029100,177414455,0,22.600494384765625,24.44906234741211,15.736340522766113,74.6748275756836,1.7140647172927856,0.0,0.11747126281261444,99
1667891944.46002316,177514187,0,22.446495056152344,24.473093032836914,17.226591110229492,75.15203857421875,1.7247765064239502,0.0,0.11764362454414368,99
1667891944.56031299,177614477,0,22.263273239135742,24.4190673828125,18.3154354095459,75.6623764038086,1.7361382246017456,0.0,0.1177036464214325,99
1667891944.65999603,177714160,0,22.11872100830078,24.350177764892578,18.905717849731445,76.18592071533203,1.747718334197998,0.0,0.11803074926137924,99
1667891944.76035404,177814518,0,22.091835021972656,24.39032554626465,19.45184326171875,76.72822570800781,1.7596988677978516,0.0,0.11816316843032837,99
1667891944.85996699,177914131,0,22.10678482055664,24.459808349609375,19.94010353088379,77.28002166748047,1.7718971967697144,0.0,0.11800453811883926,99
1667891944.96028614,178014450,0,22.055036544799805,24.430482864379883,20.134363174438477,77.84114074707031,1.7842726707458496,0.0,0.1179797351360321,99
1667891945.05995703,178114121,0,22.025808334350586,24.4520320892334,20.583650588989258,78.41106414794922,1.7968257665634155,0.0,0.11787139624357224,99
1667891945.16033912,178214503,0,21.937551498413086,24.370145797729492,20.59745979309082,78.9854507446289,1.8094263076782227,0.0,0.11810168623924255,99
1667891945.25997496,178314139,0,21.91158103942871,24.392019271850586,20.98137855529785,79.56620025634766,1.8221514225006104,0.0,0.11822090297937393,99
1667891945.36029696,178414461,0,21.911867141723633,24.406675338745117,21.094314575195312,80.15409088134766,1.8350331783294678,0.0,0.11826924979686737,99
1667891945.45993400,178514098,0,21.8765926361084,24.42583465576172,21.56064796447754,80.75086212158203,1.8480886220932007,0.0,0.11823589354753494,99
1667891945.56037903,178614543,0,21.894428253173828,24.45937728881836,21.723743438720703,81.35704040527344,1.8613605499267578,0.0,0.11807119101285934,99
1667891945.66012096,178714285,0,21.947229385375977,24.48226547241211,21.514137268066406,81.95316314697266,1.874443769454956,0.0,0.11783117055892944,99
1667891945.76029897,178814463,0,22.019195556640625,24.568552017211914,21.635665893554688,82.5552749633789,1.8877017498016357,0.0,0.11783117055892944,99
1667891945.86002302,178914187,0,22.03213119506836,24.61558723449707,21.925060272216797,83.16267395019531,1.9010839462280273,0.0,0.11783117055892944,99
1667891945.96028399,179014448,0,22.02484893798828,24.62678337097168,22.081880569458008,83.77770233154297,1.9146299362182617,0.0,0.11783117055892944,99
1667891946.06001711,179114181,0,21.9987850189209,24.661115646362305,22.716835021972656,84.40708923339844,1.9284757375717163,0.0,0.11719635874032974,98
1667891946.16041017,179214574,0,21.938508987426758,24.595001220703125,22.726655960083008,85.04092407226562,1.9423811435699463,0.0,0.11688882857561111,98
1667891946.25997496,179314139,0,21.93419647216797,24.59862518310547,22.851865768432617,85.67298889160156,1.956244945526123,0.0,0.11659569293260574,98
1667891946.36033201,179414496,0,21.811534881591797,24.499162673950195,23.024030685424805,86.31477355957031,1.970243215560913,0.0,0.11673139780759811,98
1667891946.45999217,179514156,0,21.865201950073242,24.617298126220703,23.648174285888672,86.96959686279297,1.9845610857009888,0.0,0.11637672036886215,98
1667891946.56030416,179614468,0,21.831851959228516,24.559467315673828,23.455516815185547,87.62322235107422,1.998831033706665,0.0,0.11628890037536621,98
1667891946.66001201,179714176,0,21.818435668945312,24.539018630981445,23.394445419311523,88.27091979980469,2.012962818145752,0.0,0.11629180610179901,98
1667891946.76025796,179814422,0,21.69108009338379,24.399612426757812,23.178089141845703,88.91668701171875,2.026970148086548,0.0,0.11685748398303986,98
1667891946.85999203,179914156,0,21.63626480102539,24.374839782714844,23.3125057220459,89.56259155273438,2.040945053100586,0.0,0.11747236549854279,98
1667891946.96028399,180014448,0,21.52519989013672,24.2545166015625,23.028940200805664,90.2042007446289,2.054755687713623,0.0,0.11851685494184494,98
1667891947.05996609,180114130,0,21.48207664489746,24.166584014892578,22.65085220336914,90.8314437866211,2.068230152130127,0.0,0.11851685494184494,98
1667891947.16036105,180214525,0,21.394393920898438,24.05591583251953,22.456899642944336,91.457763671875,2.081629753112793,0.0,0.11851685494184494,98
1667891947.26005006,180314214,0,21.420236587524414,24.08990478515625,22.52564239501953,92.08157348632812,2.09499192237854,0.0,0.11851685494184494,98
1667891947.36033607,180414500,0,21.441734313964844,24.112384796142578,22.5339298248291,92.70936584472656,2.108452796936035,0.0,0.11851685494184494,98
1667891947.46003914,180514203,0,21.423717498779297,24.086219787597656,22.465185165405273,93.33158874511719,2.1217830181121826,0.0,0.11851685494184494,98
1667891947.56033897,180614503,0,21.472591400146484,24.122982025146484,22.362991333007812,93.95469665527344,2.135162830352783,0.0,0.11851685494184494,98
1667891947.66000009,180714164,0,21.486295700073242,24.091949462890625,21.985517501831055,94.56339263916016,2.1482412815093994,0.0,0.11851685494184494,98
1667891947.76028895,180814453,0,21.481021881103516,24.08514976501465,21.97262954711914,95.1755599975586,2.161391258239746,0.0,0.11851685494184494,98
1667891947.85999799,180914162,0,21.502967834472656,24.072141647338867,21.677709579467773,95.77600860595703,2.174302577972412,0.0,0.11851685494184494,98
1667891947.96032715,181014491,0,21.565448760986328,24.14082908630371,21.748292922973633,96.38217163085938,2.1873748302459717,0.0,0.11841760575771332,98
1667891948.06000900,181114173,0,21.654804229736328,24.237215042114258,21.761146545410156,96.98477172851562,2.2004239559173584,0.0,0.11867068707942963,98
1667891948.16026998,181214434,0,21.658979415893555,24.16642951965332,21.137889862060547,97.57319641113281,2.2131686210632324,0.0,0.1186235100030899,98
1667891948.25995517,181314119,0,21.76525115966797,24.20750617980957,20.570146560668945,98.14314270019531,2.225573778152466,0.0,0.11872808635234833,98
1667891948.36027598,181414440,0,21.86088752746582,24.297483444213867,20.455371856689453,98.71321868896484,2.2380361557006836,0.0,0.11911765486001968,98
1667891948.46000695,181514171,0,21.8886775970459,24.315845489501953,20.31420135498047,99.27600860595703,2.250354766845703,0.0,0.11948129534721375,98
1667891948.56033301,181614497,0,21.845266342163086,24.260828018188477,20.201574325561523,99.83905792236328,2.2626547813415527,0.0,0.1195729598402977,98
1667891948.65999198,181714156,0,21.776464462280273,24.134204864501953,19.77837371826172,100.38662719726562,2.274578809738159,0.0,0.11920804530382156,98
1667891948.76037312,181814537,0,21.770999908447266,24.129995346069336,19.83821678161621,100.93982696533203,2.2866225242614746,0.0,0.11891163140535355,98
1667891948.86000395,181914168,0,21.82102394104004,24.219717025756836,20.15860939025879,101.49776458740234,2.298797369003296,0.0,0.11899103224277496,98
1667891948.96030617,182014470,0,21.788965225219727,24.17735481262207,20.086217880249023,102.05744934082031,2.3109922409057617,0.0,0.11890684813261032,98
1667891949.06001115,182114175,0,21.82179069519043,24.2372989654541,20.290264129638672,102.61908721923828,2.3232481479644775,0.0,0.11904767155647278,98
1667891949.16039300,182214557,0,21.807992935180664,24.125350952148438,19.51107406616211,103.16352844238281,2.3351213932037354,0.0,0.11877137422561646,98
1667891949.25999117,182314155,0,21.783363342285156,24.065532684326172,19.28305435180664,103.69705963134766,2.346743583679199,0.0,0.11835099011659622,98
1667891949.36033297,182414497,0,21.87190818786621,24.10431671142578,18.8933048248291,104.22370910644531,2.358262300491333,0.0,0.11815868318080902,98
1667891949.45999599,182514160,0,22.018526077270508,24.22332191467285,18.61833381652832,104.73918914794922,2.369612455368042,0.0,0.11842065304517746,98
1667891949.56036997,182614534,0,21.996294021606445,24.197540283203125,18.570459365844727,105.25672149658203,2.3809962272644043,0.0,0.11853484064340591,98
1667891949.66000915,182714173,0,21.95614242553711,24.140859603881836,18.447704315185547,105.76763153076172,2.392213821411133,0.0,0.1184275671839714,98
1667891949.76022696,182814391,0,21.933622360229492,24.04026222229004,17.853567123413086,106.26468658447266,2.40311598777771,0.0,0.11799550801515579,98
1667891949.86001897,182914183,0,22.04727554321289,24.139387130737305,17.729310989379883,106.75614929199219,2.4139513969421387,0.0,0.11800303310155869,98
1667891949.96033716,183014501,0,22.089534759521484,24.16741371154785,17.59332275390625,107.2464828491211,2.4247825145721436,0.0,0.11810607463121414,98
1667891950.06001616,183114180,0,22.085124969482422,24.156150817871094,17.529184341430664,107.73185729980469,2.435502052307129,0.0,0.11814727634191513,98
1667891950.16033101,183214495,0,22.025714874267578,24.0537166595459,17.212169647216797,108.21153259277344,2.4460673332214355,0.0,0.11782373487949371,98
1667891950.26003218,183314196,0,22.017183303833008,24.06205940246582,17.388322830200195,108.6931381225586,2.4566709995269775,0.0,0.11760050803422928,98
1667891950.36050105,183414665,0,22.042675018310547,24.127731323242188,17.721912384033203,109.18775939941406,2.467573881149292,0.0,0.11765411496162415,98
1667891950.46000814,183514172,0,21.998306274414062,24.081363677978516,17.72283172607422,109.67762756347656,2.4783501625061035,0.0,0.11753525584936142,98
1667891950.56037998,183614544,0,21.985370635986328,24.109926223754883,18.076982498168945,110.18163299560547,2.4894309043884277,0.0,0.11752822995185852,98
1667891950.65996814,183714132,0,21.86030387878418,23.97589874267578,18.0007381439209,110.67969512939453,2.500318765640259,0.0,0.11752822995185852,98
1667891950.76032805,183814492,0,21.72701644897461,23.881956100463867,18.21017074584961,111.1873550415039,2.5113487243652344,0.0,0.11833718419075012,98
1667891950.85998106,183914145,0,21.648338317871094,23.894689559936523,18.875200271606445,111.7099380493164,2.5226616859436035,0.0,0.11901074647903442,98
1667891950.96039200,184014556,0,21.597265243530273,23.929832458496094,19.52365493774414,112.25454711914062,2.534423828125,0.0,0.11947393417358398,98
1667891951.06000304,184114167,0,21.545421600341797,23.937192916870117,19.954835891723633,112.8067398071289,2.546320915222168,0.0,0.1198592260479927,98
1667891951.16028810,184214452,0,21.385578155517578,23.824462890625,20.213848114013672,113.36988067626953,2.558363914489746,0.0,0.12065412849187851,98
1667891951.25999999,184314164,0,21.36593246459961,23.88483428955078,20.79570960998535,113.9459228515625,2.570671558380127,0.0,0.12112604081630707,98
1667891951.36022806,184414392,0,21.42889404296875,24.021867752075195,21.429433822631836,114.54258728027344,2.5834572315216064,0.0,0.12100057303905487,98
1667891951.45998502,184514149,0,21.451509475708008,24.0776309967041,21.763944625854492,115.1457290649414,2.596395492553711,0.0,0.12066385895013809,98
1667891951.56029510,184614459,0,21.46548843383789,24.09305763244629,21.841960906982422,115.75437927246094,2.6094605922698975,0.0,0.12029912322759628,98
1667891951.66001201,184714176,0,21.50699234008789,24.1434268951416,22.01283073425293,116.36416625976562,2.622575283050537,0.0,0.11976809799671173,98
1667891951.76024199,184814406,0,21.509292602539062,24.08586311340332,21.557409286499023,116.96440124511719,2.635485887527466,0.0,0.119521364569664,98
1667891951.86010718,184914271,0,21.59419822692871,24.1178035736084,21.114261627197266,117.5501708984375,2.648135185241699,0.0,0.119521364569664,98
1667891951.96031809,185014482,0,21.650354385375977,24.130874633789062,20.702722549438477,118.12650299072266,2.6606128215789795,0.0,0.11981610953807831,98
1667891952.05991411,185114078,0,21.729698181152344,24.149324417114258,20.14541244506836,118.68388366699219,2.672724485397339,0.0,0.12010806053876877,98
1667891952.16032600,185214490,0,21.771385192871094,24.145492553710938,19.731420516967773,119.23428344726562,2.6847074031829834,0.0,0.1203211098909378,98
1667891952.25996995,185314134,0,21.747905731201172,24.087751388549805,19.452150344848633,119.77274322509766,2.696417808532715,0.0,0.1202872171998024,98
1667891952.36033607,185414500,0,21.782020568847656,24.112171173095703,19.362232208251953,120.31259155273438,2.708176851272583,0.0,0.12034512311220169,98
1667891952.46005106,185514215,0,21.809406280517578,24.14426040649414,19.37628173828125,120.84932708740234,2.7198827266693115,0.0,0.1205005869269371,98
1667891952.56033897,185614503,0,21.79994010925293,24.131393432617188,19.335840225219727,121.38803100585938,2.731626510620117,0.0,0.12057679891586304,98
1667891952.65997696,185714141,0,21.807126998901367,24.119342803955078,19.17349624633789,121.91873931884766,2.7431998252868652,0.0,0.12059438973665237,98
1667891952.76032114,185814485,0,21.77790069580078,24.071741104125977,19.04490852355957,122.44962310791016,2.7547614574432373,0.0,0.12044380605220795,98
1667891952.85997796,185914142,0,21.782787322998047,24.08736228942871,19.14403533935547,122.9795913696289,2.766305685043335,0.0,0.12038080394268036,98
1667891952.96022010,186014384,0,21.906980514526367,24.26374626159668,19.487136840820312,123.52227783203125,2.7781944274902344,0.0,0.12093959748744965,98
1667891953.05999303,186114157,0,22.024944305419922,24.397348403930664,19.4724063873291,124.06199645996094,2.790081739425659,0.0,0.1218341663479805,98
1667891953.16028714,186214451,0,22.02542495727539,24.37030029296875,19.15170669555664,124.59558868408203,2.8018343448638916,0.0,0.12243684381246567,98
1667891953.26002812,186314192,0,22.0708065032959,24.461124420166016,19.399127960205078,125.13310241699219,2.8136978149414062,0.0,0.12321780622005463,98
1667891953.36032200,186414486,0,22.11138343811035,24.513263702392578,19.49296760559082,125.67620086669922,2.8257064819335938,0.0,0.12321780622005463,98
1667891953.46012616,186514290,0,22.116846084594727,24.49808120727539,19.231189727783203,126.2093734741211,2.837498664855957,0.0,0.12382147461175919,98
1667891953.56034303,186614507,0,22.075254440307617,24.500036239624023,19.5828857421875,126.75445556640625,2.849531412124634,0.0,0.12382147461175919,98
1667891953.66005516,186714219,0,22.042388916015625,24.46508026123047,19.566007614135742,127.29656982421875,2.861480951309204,0.0,0.12382147461175919,98
1667891953.76034403,186814508,0,22.004247665405273,24.43104362487793,19.599149703979492,127.84260559082031,2.8734960556030273,0.0,0.12382147461175919,98
1667891953.85998011,186914144,0,22.04890251159668,24.48170280456543,19.64763832092285,128.3864288330078,2.8854868412017822,0.0,0.12382147461175919,98
1667891953.96031809,187014482,0,22.063180923461914,24.5231876373291,19.86737060546875,128.94021606445312,2.897705078125,0.0,0.12382147461175919,98
1667891954.05998611,187114150,0,22.07908821105957,24.54924201965332,19.949312210083008,129.49256896972656,2.909900426864624,0.0,0.12382147461175919,98
1667891954.16035318,187214517,0,21.989351272583008,24.404342651367188,19.50381088256836,130.036376953125,2.921858310699463,0.0,0.12382147461175919,98
1667891954.25996518,187314129,0,21.897302627563477,24.31722068786621,19.543601989746094,130.5771942138672,2.9337007999420166,0.0,0.12382147461175919,98
1667891954.36028218,187414446,0,21.784130096435547,24.185731887817383,19.39568328857422,131.1177215576172,2.9454755783081055,0.0,0.12382147461175919,98
1667891954.45993304,187514097,0,21.719924926757812,24.117727279663086,19.364994049072266,131.65377807617188,2.9571187496185303,0.0,0.12382147461175919,98
1667891954.56036115,187614525,0,21.705358505249023,24.086973190307617,19.23426055908203,132.19039916992188,2.968766212463379,0.0,0.12382147461175919,98
1667891954.66008615,187714250,0,21.710054397583008,24.09090805053711,19.22812271118164,132.7230987548828,2.9803311824798584,0.0,0.12382147461175919,98
1667891954.76027513,187814439,0,21.78067970275879,24.18406867980957,19.410106658935547,133.26333618164062,2.992097854614258,0.0,0.12382147461175919,98
1667891954.85995817,187914122,0,21.942630767822266,24.262014389038086,18.725439071655273,133.78187561035156,3.0034759044647217,0.0,0.12386272102594376,98
1667891954.96028113,188014445,0,21.819095611572266,24.343889236450195,20.44391441345215,134.35165405273438,3.0159080028533936,0.0,0.1234985738992691,98
1667891955.06011605,188114280,0,21.91081428527832,24.398591995239258,20.144184112548828,134.9103240966797,3.028149127960205,0.0,0.1234985738992691,98
1667891955.16030216,188214466,0,21.911388397216797,24.244962692260742,18.916629791259766,135.43679809570312,3.039684772491455,0.0,0.12336098402738571,98
1667891955.26003408,188314198,0,21.77560043334961,24.270124435424805,20.217533111572266,135.99693298339844,3.051882028579712,0.0,0.12338415533304214,98
1667891955.36036205,188414526,0,21.816423416137695,24.247684478759766,19.687227249145508,136.545654296875,3.0638532638549805,0.0,0.12349428981542587,98
1667891955.45998406,188514148,0,21.838367462158203,24.245031356811523,19.48805809020996,137.08499145507812,3.0756313800811768,0.0,0.12349428981542587,98
1667891955.56035304,188614517,0,21.842201232910156,24.257278442382812,19.55618667602539,137.63026428222656,3.087541341781616,0.0,0.12349428981542587,98
1667891955.65997410,188714138,0,21.77857208251953,24.163671493530273,19.31343650817871,138.1645965576172,3.0991783142089844,0.0,0.12349428981542587,98
1667891955.76038003,188814544,0,21.7491512298584,24.193363189697266,19.75658416748047,138.71583557128906,3.1111671924591064,0.0,0.12371628731489182,98
1667891955.85998297,188914147,0,21.796524047851562,24.26315689086914,19.950502395629883,139.26785278320312,3.123199462890625,0.0,0.12363758683204651,98
1667891955.96029806,189014462,0,21.802047729492188,24.2608585357666,19.897138595581055,139.8223419189453,3.1352882385253906,0.0,0.12357606738805771,98
1667891956.05994797,189114112,0,21.812013626098633,24.278724670410156,19.98153305053711,140.37548828125,3.147353410720825,0.0,0.12344953417778015,98
1667891956.16026402,189214428,0,21.757490158081055,24.205244064331055,19.79924201965332,140.92724609375,3.159358263015747,0.0,0.12362867593765259,98
1667891956.26000905,189314173,0,21.811534881591797,24.292715072631836,20.069610595703125,141.48333740234375,3.171487331390381,0.0,0.12362867593765259,98
1667891956.36037111,189414535,0,21.756912231445312,24.2001895904541,19.763029098510742,142.0343017578125,3.183474540710449,0.0,0.12362867593765259,98
1667891956.46005297,189514217,0,21.79840850830078,24.269079208374023,19.984603881835938,142.5877685546875,3.1955394744873047,0.0,0.12362867593765259,98
1667891956.56034017,189614504,0,21.788537979125977,24.261943817138672,20.015291213989258,143.1453857421875,3.2076892852783203,0.0,0.1235758364200592,98
1667891956.66014314,189714307,0,21.77033042907715,24.201766967773438,19.675668716430664,143.69090270996094,3.2195653915405273,0.0,0.1235758364200592,98
1667891956.76030517,189814469,0,21.743785858154297,24.174640655517578,19.670963287353516,144.23825073242188,3.231466770172119,0.0,0.1235758364200592,98
1667891956.86003900,189914203,0,21.768796920776367,24.220136642456055,19.829931259155273,144.78765869140625,3.24342679977417,0.0,0.12361817806959152,98
1667891956.96029997,190014464,0,21.787195205688477,24.23971176147461,19.839445114135742,145.34024047851562,3.2554659843444824,0.0,0.12361817806959152,98
1667891957.05999804,190114162,0,21.81958770751953,24.257610321044922,19.707788467407227,145.8860626220703,3.2673757076263428,0.0,0.12370853871107101,98
1667891957.16030598,190214470,0,21.747041702270508,24.16323471069336,19.531328201293945,146.43031311035156,3.2792117595672607,0.0,0.12370853871107101,98
1667891957.25998116,190314145,0,21.766977310180664,24.184194564819336,19.539613723754883,146.97134399414062,3.2909884452819824,0.0,0.12370853871107101,98
1667891957.36029696,190414461,0,21.79926872253418,24.211729049682617,19.504629135131836,147.51490783691406,3.30283784866333,0.0,0.12368655204772949,98
1667891957.45999217,190514156,0,21.816137313842773,24.24199676513672,19.599149703979492,148.05770874023438,3.3146796226501465,0.0,0.1237737163901329,98
1667891957.56030607,190614470,0,21.811216354370117,24.213138580322266,19.410720825195312,148.5986328125,3.3264777660369873,0.0,0.12374202162027359,98
1667891957.65995312,190714117,0,21.786237716674805,24.17281723022461,19.2867374420166,149.13253784179688,3.3381094932556152,0.0,0.12374202162027359,98
1667891957.76027608,190814440,0,21.8343448638916,24.228248596191406,19.33737564086914,149.6714630126953,3.349876642227173,0.0,0.1237967386841774,98
1667891957.85999107,190914155,0,21.792753219604492,24.136507034301758,18.932281494140625,150.19590759277344,3.3613057136535645,0.0,0.1237967386841774,98
1667891957.96030116,191014465,0,21.868555068969727,24.242116928100586,19.152013778686523,150.72959899902344,3.372976779937744,0.0,0.12393276393413544,98
1667891958.06006312,191114227,0,21.915321350097656,24.224088668823242,18.622631072998047,151.24534606933594,3.384279489517212,0.0,0.12397641688585281,98
1667891958.16040111,191214565,0,21.93869972229004,24.201904296875,18.261423110961914,151.7547149658203,3.3954544067382812,0.0,0.12393363565206528,98
1667891958.26005316,191314217,0,21.91158103942871,24.138269424438477,18.00363540649414,152.25311279296875,3.4063751697540283,0.0,0.12367997318506241,98
1667891958.36028814,191414452,0,21.97109031677246,24.229427337646484,18.242090225219727,152.7610626220703,3.4175355434417725,0.0,0.12379812449216843,98
1667891958.46004510,191514209,0,22.0058536529541,24.272891998291016,18.276596069335938,153.26754760742188,3.4286811351776123,0.0,0.12404049932956696,98
1667891958.56031513,191614479,0,21.965051651000977,24.242029190063477,18.344589233398438,153.77854919433594,3.4399051666259766,0.0,0.12412254512310028,98
1667891958.66001606,191714180,0,21.899507522583008,24.149629592895508,18.128232955932617,154.2806396484375,3.4509005546569824,0.0,0.12412254512310028,98
1667891958.76041317,191814577,0,21.878999710083008,24.128625869750977,18.12424087524414,154.7861328125,3.4619603157043457,0.0,0.12412254512310028,98
1667891958.85999918,191914163,0,21.932950973510742,24.24641990661621,18.638587951660156,155.30177307128906,3.4732697010040283,0.0,0.12412254512310028,98
1667891958.96027207,192014436,0,21.986135482788086,24.257558822631836,18.27338981628418,155.810791015625,3.4844610691070557,0.0,0.12430224567651749,98
1667891959.05999804,192114162,0,21.987957000732422,24.2282657623291,18.017444610595703,156.30995178222656,3.495436429977417,0.0,0.12434109300374985,98
1667891959.16032314,192214487,0,21.998401641845703,24.2192325592041,17.860931396484375,156.8077392578125,3.5063869953155518,0.0,0.12434010207653046,98
1667891959.25998712,192314151,0,21.932918548583984,24.12525749206543,17.63178825378418,157.29591369628906,3.5170938968658447,0.0,0.12434010207653046,98
1667891959.36029696,192414461,0,21.947900772094727,24.183860778808594,17.99258804321289,157.79730224609375,3.5280981063842773,0.0,0.1242712140083313,98
1667891959.46000218,192514166,0,21.972238540649414,24.216880798339844,18.05365753173828,158.29734802246094,3.5390851497650146,0.0,0.1243317574262619,98
1667891959.56032515,192614489,0,21.985275268554688,24.237564086914062,18.097850799560547,158.80174255371094,3.5501742362976074,0.0,0.12445062398910522,98
1667891959.66007113,192714235,0,21.967256546020508,24.199399948120117,17.94164276123047,159.29888916015625,3.5610952377319336,0.0,0.12441132217645645,98
1667891959.76032400,192814488,0,21.908227920532227,24.14571762084961,17.984607696533203,159.7997589111328,3.572068452835083,0.0,0.12441132217645645,98
1667891959.85999703,192914161,0,21.888870239257812,24.158946990966797,18.223979949951172,160.3043670654297,3.583113670349121,0.0,0.12456532567739487,98
1667891959.96036315,193014527,0,21.945600509643555,24.224201202392578,18.29241943359375,160.81439208984375,3.594306468963623,0.0,0.12456532567739487,98
1667891960.06004000,193114204,0,21.960453033447266,24.222156524658203,18.15677261352539,161.31707763671875,3.6053454875946045,0.0,0.12456532567739487,98
1667891960.16030002,193214464,0,21.917800903320312,24.123836517333984,17.709875106811523,161.8104248046875,3.6161584854125977,0.0,0.12456532567739487,98
1667891960.25999713,193314161,0,21.91876983642578,24.13204002380371,17.7679443359375,162.30252075195312,3.6269447803497314,0.0,0.12456532567739487,98
1667891960.36032701,193414491,0,21.985849380493164,24.21709442138672,17.893770217895508,162.80125427246094,3.6379096508026123,0.0,0.12469400465488434,98
1667891960.46000099,193514165,0,21.98642349243164,24.234315872192383,18.027267456054688,163.3004150390625,3.6488845348358154,0.0,0.12469400465488434,98
1667891960.56027913,193614443,0,22.049671173095703,24.23573875427246,17.511999130249023,163.78823852539062,3.6596410274505615,0.0,0.12483260780572891,98
1667891960.66000104,193714165,0,22.018430709838867,24.2064151763916,17.52642250061035,164.27377319335938,3.6703319549560547,0.0,0.1248391717672348,98
1667891960.76021600,193814380,0,22.05982780456543,24.250995635986328,17.529491424560547,164.7617950439453,3.6810975074768066,0.0,0.12499892711639404,98
1667891960.86011004,193914274,0,22.054271697998047,24.291242599487305,17.895915985107422,165.2584228515625,3.6920502185821533,0.0,0.12499892711639404,98
1667891960.96029997,194014464,0,22.01066780090332,24.265169143676758,18.036165237426758,165.7604217529297,3.703099489212036,0.0,0.12499892711639404,98
1667891961.06001115,194114175,0,21.937923431396484,24.188539505004883,17.97925567626953,166.25843811035156,3.7140250205993652,0.0,0.1251785308122635,98
1667891961.16036797,194214532,0,21.890594482421875,24.158096313476562,18.073606491088867,166.76231384277344,3.72505521774292,0.0,0.12545932829380035,98
1667891961.26008010,194314244,0,21.853221893310547,24.13047218322754,18.099384307861328,167.26365661621094,3.736011266708374,0.0,0.12581922113895416,98
1667891961.36033416,194414498,0,21.868364334106445,24.151002883911133,18.1076717376709,167.76797485351562,3.747039794921875,0.0,0.1260591596364975,98
1667891961.45993400,194514098,0,21.88580322265625,24.195411682128906,18.31604766845703,168.27476501464844,3.758131265640259,0.0,0.12609757483005524,97
1667891961.56036496,194614529,0,21.889827728271484,24.16741943359375,18.0413818359375,168.7781219482422,3.7691495418548584,0.0,0.12624259293079376,97
1667891961.65998197,194714146,0,21.899028778076172,24.117033004760742,17.569387435913086,169.2643280029297,3.779797077178955,0.0,0.12624259293079376,97
1667891961.76033306,194814497,0,21.945886611938477,24.113929748535156,17.20787239074707,169.74403381347656,3.7903246879577637,0.0,0.1259913295507431,97
1667891961.85998797,194914152,0,21.9442081451416,24.22417449951172,18.096214294433594,170.24501037597656,3.8013181686401367,0.0,0.1259913295507431,97
1667891961.96029496,195014459,0,21.971664428710938,24.22577667236328,17.891006469726562,170.74354553222656,3.8122718334198,0.0,0.1259913295507431,97
1667891962.06000614,195114170,0,21.96888542175293,24.153457641601562,17.355178833007812,171.22427368164062,3.8228330612182617,0.0,0.12587440013885498,97
1667891962.16031408,195214478,0,21.907459259033203,24.096590042114258,17.39139175415039,171.70889282226562,3.8334498405456543,0.0,0.12587440013885498,97
1667891962.25995612,195314120,0,21.923561096191406,24.084762573242188,17.169511795043945,172.18414306640625,3.8438689708709717,0.0,0.12587440013885498,97
1667891962.36022902,195414393,0,22.059253692626953,24.12616729736328,16.432363510131836,172.6418914794922,3.853966474533081,0.0,0.1257830709218979,97
1667891962.46001101,195514175,0,22.05034065246582,24.146093368530273,16.661916732788086,173.10374450683594,3.8641505241394043,0.0,0.12578101456165314,97
1667891962.56032300,195614487,0,22.095956802368164,24.19900131225586,16.6956729888916,173.56900024414062,3.8744306564331055,0.0,0.12596344947814941,97
1667891962.66008615,195714250,0,21.806838989257812,24.352691650390625,20.336605072021484,174.1326141357422,3.886721134185791,0.0,0.1251857578754425,97
1667891962.76034808,195814512,0,21.785768508911133,24.3045597076416,20.201129913330078,174.69528198242188,3.8989791870117188,0.0,0.12468563765287399,97
1667891962.86009717,195914261,0,21.957483291625977,24.146013259887695,17.575218200683594,175.18226623535156,3.909672260284424,0.0,0.1245235800743103,97
1667891962.96043897,196014603,0,22.033092498779297,24.179075241088867,17.235187530517578,175.6627197265625,3.9202582836151123,0.0,0.12451167404651642,97
1667891963.05999899,196114163,0,22.01651382446289,24.153390884399414,17.17565155029297,176.13775634765625,3.9307169914245605,0.0,0.12441316992044449,97
1667891963.16037917,196214543,0,21.92758560180664,23.992223739624023,16.595016479492188,176.60052490234375,3.940864324569702,0.0,0.12441316992044449,97
1667891963.25996304,196314127,0,22.02542495727539,24.095964431762695,16.665292739868164,177.06155395507812,3.951018810272217,0.0,0.12424255907535553,97
1667891963.36030698,196414471,0,22.103334426879883,24.166706085205078,16.592561721801758,177.52407836914062,3.961242198944092,0.0,0.12435522675514221,97
1667891963.45997095,196514135,0,22.138408660888672,24.183263778686523,16.42438507080078,177.9788055419922,3.971309185028076,0.0,0.12450112402439117,97
1667891963.56041098,196614575,0,22.104677200317383,24.096826553344727,16.025121688842773,178.4259490966797,3.9811930656433105,0.0,0.12431415915489197,97
1667891963.66000700,196714171,0,22.150876998901367,24.11396598815918,15.802390098571777,178.8631591796875,3.990877866744995,0.0,0.1242273598909378,97
1667891963.76027918,196814443,0,22.11847496032715,24.10533905029297,16.00640296936035,179.30899047851562,4.000739097595215,0.0,0.1241292729973793,97
1667891963.86001515,196914179,0,22.1298770904541,24.18876838684082,16.558189392089844,179.76780700683594,4.010892391204834,0.0,0.12434282153844833,97
1667891963.96025205,197014416,0,22.062606811523438,24.15035057067871,16.795412063598633,180.23548889160156,4.021210670471191,0.0,0.12430442124605179,97
1667891964.06004906,197114213,0,22.08627700805664,24.172571182250977,16.78375244140625,180.7008056640625,4.031487464904785,0.0,0.12430442124605179,97
1667891964.16028500,197214449,0,22.053024291992188,24.091596603393555,16.39983367919922,181.15744018554688,4.041557788848877,0.0,0.12430442124605179,97
1667891964.26005197,197314216,0,22.03606414794922,24.11130714416504,16.680944442749023,181.61978149414062,4.051745891571045,0.0,0.12440802156925201,97
1667891964.36033511,197414499,0,22.090686798095703,24.165586471557617,16.67818260192871,182.08441162109375,4.062009811401367,0.0,0.12440802156925201,97
1667891964.46012211,197514286,0,22.076406478881836,24.1708927154541,16.835615158081055,182.5511016845703,4.072312831878662,0.0,0.12440802156925201,97
1667891964.56036806,197614532,0,22.083158493041992,24.16728973388672,16.752382278442383,183.01760864257812,4.082614898681641,0.0,0.12440802156925201,97
1667891964.66002917,197714193,0,22.038938522338867,24.093564987182617,16.51522445678711,183.47486877441406,4.0926923751831055,0.0,0.12440802156925201,97
1667891964.76034117,197814505,0,22.0211124420166,24.018659591674805,16.056425094604492,183.92230224609375,4.102545261383057,0.0,0.12440802156925201,97
1667891964.85997295,197914137,0,22.07899284362793,24.06911277770996,16.0192928314209,184.3656768798828,4.112334728240967,0.0,0.12423273175954819,97
1667891964.96035218,198014516,0,22.08330726623535,24.10138511657715,16.247617721557617,184.8187255859375,4.122339725494385,0.0,0.12420763075351715,97
1667891965.06009007,198114254,0,22.032711029052734,24.034170150756836,16.113815307617188,185.2652130126953,4.132176876068115,0.0,0.12420763075351715,97
1667891965.16035509,198214519,0,22.042675018310547,24.022369384765625,15.938581466674805,185.70916748046875,4.14196252822876,0.0,0.12420763075351715,97
1667891965.25997305,198314137,0,22.076501846313477,24.064350128173828,16.012540817260742,186.1522979736328,4.151745319366455,0.0,0.12414325773715973,97
1667891965.36033201,198414496,0,22.134159088134766,24.135726928710938,16.09734344482422,186.60108947753906,4.161678791046143,0.0,0.12434148043394089,97
1667891965.46000004,198514164,0,22.094039916992188,24.07081413269043,15.906970024108887,187.04151916503906,4.171409606933594,0.0,0.1242709830403328,97
1667891965.56027818,198614442,0,22.043058395385742,24.07472038269043,16.34244728088379,187.4967803955078,4.1814446449279785,0.0,0.12431808561086655,97
1667891965.66002798,198714192,0,21.922889709472656,23.968238830566406,16.391855239868164,187.9510040283203,4.191402435302734,0.0,0.12477842718362808,97
1667891965.76027608,198814440,0,21.820066452026367,23.984830856323242,17.301166534423828,188.4328155517578,4.201915740966797,0.0,0.12512248754501343,97
1667891965.86004806,198914212,0,21.76439094543457,24.094205856323242,18.639204025268555,188.94943237304688,4.213159561157227,0.0,0.1249954029917717,97
1667891965.96034718,199014511,0,21.810483932495117,24.139835357666016,18.679407119750977,189.46990966796875,4.22451114654541,0.0,0.124701589345932,97
1667891966.06003809,199114202,0,21.826005935668945,24.164663314819336,18.808300018310547,189.99078369140625,4.235879898071289,0.0,0.12434177845716476,97
1667891966.16033912,199214503,0,21.70794677734375,24.011219024658203,18.48084831237793,190.50572204589844,4.247058391571045,0.0,0.12463020533323288,97
1667891966.26010418,199314268,0,21.73114776611328,24.109994888305664,19.107925415039062,191.03529357910156,4.258566379547119,0.0,0.12449527531862259,97
1667891966.36030412,199414468,0,21.749534606933594,24.135498046875,19.199275970458984,191.56971740722656,4.2701897621154785,0.0,0.12427357584238052,97
1667891966.45996809,199514132,0,21.722320556640625,24.18785858154297,19.90481185913086,192.1208038330078,4.282160758972168,0.0,0.12386646121740341,97
1667891966.56035805,199614522,0,21.673831939697266,24.151344299316406,20.036773681640625,192.67959594726562,4.294271945953369,0.0,0.12364823371171951,97
1667891966.65998197,199714146,0,21.669422149658203,24.18417739868164,20.391843795776367,193.24395751953125,4.306501388549805,0.0,0.12332164496183395,97
1667891966.76032710,199814491,0,21.619783401489258,24.14712905883789,20.517974853515625,193.81591796875,4.318866729736328,0.0,0.12317712604999542,97
1667891966.85997605,199914140,0,21.70085334777832,24.268142700195312,20.946701049804688,194.39576721191406,4.33144998550415,0.0,0.12256297469139099,97
1667891966.96029401,200014458,0,21.69040870666504,24.242048263549805,20.895143508911133,194.97808837890625,4.344080924987793,0.0,0.12211639434099197,97
1667891967.05998015,200114144,0,21.76127815246582,24.346467971801758,21.169876098632812,195.5643310546875,4.356838226318359,0.0,0.12211639434099197,97
1667891967.16039705,200214561,0,21.785661697387695,24.362184524536133,21.09891700744629,196.1529083251953,4.3696608543396,0.0,0.12211639434099197,97
1667891967.26002502,200314189,0,21.77195930480957,24.35234260559082,21.13052749633789,196.73773193359375,4.3823933601379395,0.0,0.12211639434099197,97
1667891967.36030412,200414468,0,21.85283851623535,24.451997756958008,21.284278869628906,197.33065795898438,4.395350456237793,0.0,0.12211639434099197,97
1667891967.46007800,200514242,0,21.874208450317383,24.47606658935547,21.306373596191406,197.92120361328125,4.408268451690674,0.0,0.12211639434099197,97
1667891967.56035805,200614522,0,21.883502960205078,24.493906021118164,21.376344680786133,198.51651000976562,4.421295642852783,0.0,0.12211639434099197,97
1667891967.66004109,200714205,0,21.79994010925293,24.36052703857422,20.98628807067871,199.0978546142578,4.433969020843506,0.0,0.12201237678527832,97
1667891967.76030016,200814464,0,21.741485595703125,24.25766372680664,20.622318267822266,199.67222595214844,4.4464569091796875,0.0,0.12201237678527832,97
1667891967.85999012,200914154,0,21.637767791748047,24.164838790893555,20.71158790588379,200.2458038330078,4.458868026733398,0.0,0.12201237678527832,97
1667891967.96033716,201014501,0,21.696157455444336,24.227275848388672,20.744766235351562,200.8240966796875,4.471415042877197,0.0,0.12201237678527832,97
1667891968.05999112,201114155,0,21.82236671447754,24.284990310668945,20.183773040771484,201.3828582763672,4.483608722686768,0.0,0.12201005220413208,97
1667891968.16036201,201214526,0,21.890785217285156,24.289018630981445,19.654083251953125,201.93087768554688,4.49560546875,0.0,0.1220221146941185,97
1667891968.25998116,201314145,0,21.983549118041992,24.380699157714844,19.5930118560791,202.4730987548828,4.507525444030762,0.0,0.12234719097614288,97
1667891968.36035204,201414516,0,22.039705276489258,24.430334091186523,19.4724063873291,203.0160369873047,4.519491672515869,0.0,0.12277008593082428,97
1667891968.45997810,201514142,0,21.971473693847656,24.35195541381836,19.380645751953125,203.5524139404297,4.531276702880859,0.0,0.12282778322696686,97
1667891968.56025004,201614414,0,21.926719665527344,24.32079315185547,19.501253128051758,204.09564208984375,4.543187618255615,0.0,0.12276514619588852,97
