timestamp,TimeUS,Instance,Volt,VoltR,Curr,CurrTot,EnrgTot,Temp,Res,RemPct
1667889539.27952600,143558783,0,24.814666748046875,24.895301818847656,0.4583604633808136,18.3242244720459,0.4550343453884125,0.0,0.17592108249664307,99
1667889539.37974000,143658997,0,24.773117065429688,24.838388442993164,0.3710286617279053,18.334552764892578,0.4552902281284332,0.0,0.17592108249664307,99
1667889539.47986603,143759123,0,24.775800704956055,24.840208053588867,0.3661184310913086,18.344736099243164,0.45554253458976746,0.0,0.17592108249664307,99
1667889539.57990503,143859162,0,24.825822830200195,24.91225814819336,0.4913291037082672,18.35839080810547,0.4558815062046051,0.0,0.17592108249664307,99
1667889539.67967892,143958936,0,24.832340240478516,24.921096801757812,0.5045252442359924,18.37237548828125,0.45622876286506653,0.0,0.17592108249664307,99
1667889539.77986288,144059120,0,24.823524475097656,24.907745361328125,0.478746622800827,18.385698318481445,0.45655950903892517,0.0,0.17592108249664307,99
1667889539.87990284,144159160,0,24.76316261291504,24.823749542236328,0.34439748525619507,18.3952693939209,0.4567965269088745,0.0,0.17592108249664307,99
1667889539.97986484,144259122,0,24.77532196044922,24.8426456451416,0.3826903998851776,18.40589714050293,0.4570598304271698,0.0,0.17592108249664307,99
1667889540.07995605,144359213,0,24.831764221191406,24.919279098510742,0.4974668622016907,18.419729232788086,0.457403302192688,0.0,0.17592108249664307,99
1667889540.17985582,144459113,0,24.828027725219727,24.915271759033203,0.4959324300289154,18.43349266052246,0.4577450156211853,0.0,0.17592108249664307,99
1667889540.27965498,144558912,0,24.824291229248047,24.90932273864746,0.4833499789237976,18.4468936920166,0.45807766914367676,0.0,0.17592108249664307,99
1667889540.37985492,144659112,0,24.803781509399414,24.880390167236328,0.43547526001930237,18.459014892578125,0.45837831497192383,0.0,0.17592108249664307,99
1667889540.47966886,144758926,0,24.761714935302734,24.820777893066406,0.3357364237308502,18.468324661254883,0.45860886573791504,0.0,0.17592108249664307,99
1667889540.57986903,144859126,0,24.820362091064453,24.902639389038086,0.4676986336708069,18.48134422302246,0.45893198251724243,0.0,0.17592108249664307,99
1667889540.67969084,144958948,0,24.835981369018555,24.926790237426758,0.5161870718002319,18.49565887451172,0.45928749442100525,0.0,0.17592108249664307,99
1667889540.77980685,145059064,0,24.80724334716797,24.88594627380371,0.4473757743835449,18.508100509643555,0.4595961570739746,0.0,0.17592108249664307,99
1667889540.87958884,145158846,0,24.788162231445312,24.858671188354492,0.40079689025878906,18.519210815429688,0.4598715603351593,0.0,0.17592108249664307,99
1667889540.97984505,145259102,0,24.77608871459961,24.84065818786621,0.3670390844345093,18.529434204101562,0.46012482047080994,0.0,0.17592108249664307,99
1667889541.07963586,145358893,0,24.8334903717041,24.921977996826172,0.5029908418655396,18.543378829956055,0.46047109365463257,0.0,0.17592108249664307,99
1667889541.17989683,145459154,0,24.829561233520508,24.916860580444336,0.4962393045425415,18.557199478149414,0.4608142673969269,0.0,0.17592108249664307,99
1667889541.27962494,145558882,0,24.825153350830078,24.911426544189453,0.49040845036506653,18.570783615112305,0.46115151047706604,0.0,0.17592108249664307,99
1667889541.37973094,145658988,0,24.76746368408203,24.83122444152832,0.3624357283115387,18.58086395263672,0.46140119433403015,0.0,0.17592108249664307,99
1667889541.47962189,145758879,0,24.771968841552734,24.837295532226562,0.37133553624153137,18.591169357299805,0.46165645122528076,0.0,0.17592108249664307,99
1667889541.57981801,145859075,0,24.79621124267578,24.94381332397461,0.8614370822906494,18.61514663696289,0.4622510075569153,0.0,0.17134326696395874,99
1667889541.67963886,145958896,0,24.575124740600586,25.025779724121094,2.7285830974578857,18.690811157226562,0.46411046385765076,0.0,0.16516107320785522,99
1667889541.77983189,146059089,0,24.654481887817383,24.96914291381836,1.9343205690383911,18.74464988708496,0.4654378294944763,0.0,0.16267254948616028,99
1667889541.87967205,146158929,0,24.699235916137695,24.916749954223633,1.3377286195755005,18.781753540039062,0.46635425090789795,0.0,0.16259947419166565,99
1667889541.97982597,146259083,0,24.64039421081543,24.86786651611328,1.3834549188613892,18.82024574279785,0.46730270981788635,0.0,0.1644231528043747,99
1667889542.07968187,146358939,0,24.6953067779541,24.944480895996094,1.5283066034317017,18.862640380859375,0.4683496654033661,0.0,0.16303902864456177,99
1667889542.17987585,146459133,0,24.716100692749023,24.9604549407959,1.5157241821289062,18.904829025268555,0.4693923890590668,0.0,0.16121302545070648,99
1667889542.27974701,146559004,0,24.702014923095703,24.9344482421875,1.4469809532165527,18.94497299194336,0.47038406133651733,0.0,0.16063335537910461,99
1667889542.37986898,146659126,0,24.69549560546875,24.92263412475586,1.414450764656067,18.98431396484375,0.4713556170463562,0.0,0.16058406233787537,99
1667889542.47958302,146758840,0,24.672882080078125,24.890350341796875,1.3441733121871948,19.021549224853516,0.4722743034362793,0.0,0.1617855429649353,99
1667889542.57984591,146859103,0,24.66530990600586,24.880844116210938,1.3206450939178467,19.058332443237305,0.4731816053390503,0.0,0.16320425271987915,99
1667889542.67965794,146958915,0,24.72184944152832,24.95900535583496,1.4531186819076538,19.098623275756836,0.47417768836021423,0.0,0.16320425271987915,99
1667889542.77990294,147059160,0,24.70862579345703,24.941574096679688,1.4273401498794556,19.13836097717285,0.47515955567359924,0.0,0.16320425271987915,99
1667889542.87976503,147159022,0,24.65716552734375,24.870529174804688,1.3073465824127197,19.174638748168945,0.47605404257774353,0.0,0.16320425271987915,99
1667889542.97987485,147259132,0,24.661094665527344,24.87531089782715,1.3125637769699097,19.21114158630371,0.47695425152778625,0.0,0.16320425271987915,99
1667889543.07963991,147358897,0,24.714279174804688,24.950733184814453,1.4488223791122437,19.25129508972168,0.47794660925865173,0.0,0.16320425271987915,99
1667889543.17996788,147459225,0,24.71657943725586,24.952281951904297,1.4442189931869507,19.291545867919922,0.47894150018692017,0.0,0.16320425271987915,99
1667889543.27967000,147558927,0,24.70488929748535,24.9382381439209,1.429795265197754,19.331148147583008,0.4799198508262634,0.0,0.16320425271987915,99
1667889543.37989283,147659150,0,24.687541961669922,24.912826538085938,1.3803861141204834,19.36958122253418,0.4808686673641205,0.0,0.16320425271987915,99
1667889543.47966099,147758918,0,24.650615692138672,24.86208724975586,1.295753002166748,19.405492782592773,0.481753945350647,0.0,0.16320425271987915,99
1667889543.57982993,147859087,0,24.692811965942383,24.921552658081055,1.4015614986419678,19.444494247436523,0.48271700739860535,0.0,0.16320425271987915,99
1667889543.67969489,147958952,0,24.714567184448242,24.951923370361328,1.4543462991714478,19.48484230041504,0.48371416330337524,0.0,0.16320425271987915,99
1667889543.77982688,148059084,0,24.69741439819336,24.927106857299805,1.4073923826217651,19.523990631103516,0.48468104004859924,0.0,0.16320425271987915,99
1667889543.87965584,148158913,0,24.656591415405273,24.870656967163086,1.3116430044174194,19.560365676879883,0.48557794094085693,0.0,0.16320425271987915,99
1667889543.97967196,148258929,0,24.65419578552246,24.86781120300293,1.3088810443878174,19.59673309326172,0.48647451400756836,0.0,0.16320425271987915,99
1667889544.07972884,148358986,0,24.7099666595459,24.94496726989746,1.439922571182251,19.636756896972656,0.48746350407600403,0.0,0.16320425271987915,99
1667889544.17988396,148459141,0,24.70690155029297,24.941301345825195,1.4362399578094482,19.67671775817871,0.4884507954120636,0.0,0.16320425271987915,99
1667889544.27963901,148558896,0,24.699331283569336,24.93057632446289,1.4169058799743652,19.715978622436523,0.4894205331802368,0.0,0.16320425271987915,99
1667889544.37985897,148659116,0,24.70619773864746,24.93987464904785,1.431807041168213,19.75584602355957,0.49040549993515015,0.0,0.16320425271987915,99
1667889544.47960591,148758863,0,24.64575958251953,24.85561752319336,1.2858643531799316,19.79147720336914,0.49128368496894836,0.0,0.16320425271987915,99
1667889544.57986784,148859125,0,24.671443939208984,24.892621994018555,1.3552212715148926,19.8292236328125,0.49221494793891907,0.0,0.16320425271987915,99
1667889544.67962289,148958880,0,24.69904327392578,24.93083953857422,1.4202816486358643,19.868581771850586,0.4931870698928833,0.0,0.16320425271987915,99
1667889544.77988601,149059143,0,24.695878982543945,24.925922393798828,1.4095405340194702,19.9078426361084,0.4941566288471222,0.0,0.16320425271987915,99
1667889544.87960505,149158862,0,24.684091567993164,24.90987777709961,1.3834549188613892,19.9461669921875,0.4951026141643524,0.0,0.16320425271987915,99
1667889544.97976995,149259027,0,24.636465072631836,24.84416961669922,1.2726681232452393,19.981555938720703,0.49597448110580444,0.0,0.16320425271987915,99
1667889545.07966995,149358927,0,24.693195343017578,24.923439025878906,1.4107681512832642,20.020734786987305,0.4969419240951538,0.0,0.16320425271987915,99
1667889545.17983294,149459090,0,24.703351974487305,24.93695068359375,1.4313297271728516,20.060562133789062,0.4979257881641388,0.0,0.16320425271987915,99
1667889545.27971482,149558972,0,24.698955535888672,24.931352615356445,1.423964262008667,20.100072860717773,0.4989016652107239,0.0,0.16320425271987915,99
1667889545.37983394,149659091,0,24.651033401489258,24.866352081298828,1.3193151950836182,20.13676643371582,0.4998062252998352,0.0,0.16320425271987915,99
1667889545.47967386,149758931,0,24.654003143310547,24.869821548461914,1.3223841190338135,20.173442840576172,0.5007104277610779,0.0,0.16320425271987915,99
1667889545.57962394,149858881,0,24.688213348388672,24.917055130004883,1.4021751880645752,20.212371826171875,0.5016714930534363,0.0,0.16320425271987915,99
1667889545.67964792,149958905,0,24.709009170532227,24.944761276245117,1.444525957107544,20.252513885498047,0.5026633739471436,0.0,0.16320425271987915,99
1667889545.77986002,150059117,0,24.688596725463867,24.91658592224121,1.3969582319259644,20.29140281677246,0.5036234855651855,0.0,0.16320425271987915,99
1667889545.87973690,150158994,0,24.64461326599121,24.856325149536133,1.2972192764282227,20.327394485473633,0.5045105218887329,0.0,0.16320425271987915,99
1667889545.97988391,150259141,0,24.648828506469727,24.864295959472656,1.3202359676361084,20.364124298095703,0.5054158568382263,0.0,0.16320425271987915,99
1667889546.07962894,150358886,0,24.68897819519043,24.919921875,1.4150645732879639,20.40333366394043,0.5063838958740234,0.0,0.16320425271987915,99
1667889546.17994785,150459205,0,24.68564796447754,24.914539337158203,1.4024821519851685,20.442419052124023,0.5073487758636475,0.0,0.16320425271987915,99
1667889546.27967501,150558932,0,24.682464599609375,24.9095516204834,1.3914340734481812,20.480968475341797,0.508300244808197,0.0,0.16320425271987915,99
1667889546.37996292,150659220,0,24.666173934936523,24.887903213500977,1.3585970401763916,20.51881980895996,0.5092338919639587,0.0,0.16320425271987915,99
1667889546.47965693,150758914,0,24.632919311523438,24.841976165771484,1.280954122543335,20.554296493530273,0.5101077556610107,0.0,0.16320425271987915,99
1667889546.57993293,150859190,0,24.69185447692871,24.924100875854492,1.4230436086654663,20.593936920166016,0.5110865831375122,0.0,0.16320425271987915,99
1667889546.67968392,150958941,0,24.70086097717285,24.93631362915039,1.442684531211853,20.633914947509766,0.5120740532875061,0.0,0.16320425271987915,99
1667889546.77975488,151059012,0,24.68811798095703,24.918060302734375,1.4089268445968628,20.67308235168457,0.5130410194396973,0.0,0.16320425271987915,99
1667889546.87974000,151158997,0,24.647199630737305,24.86131477355957,1.3119499683380127,20.709522247314453,0.5139391422271729,0.0,0.16320425271987915,99
1667889546.97989798,151259155,0,24.668760299682617,24.892593383789062,1.3714864253997803,20.7476749420166,0.514880359172821,0.0,0.16320425271987915,99
1667889547.07982492,151359082,0,24.670101165771484,24.894737243652344,1.3755440711975098,20.785865783691406,0.5158225297927856,0.0,0.16330662369728088,99
1667889547.17987490,151459132,0,24.699331283569336,24.935232162475586,1.444525957107544,20.82601547241211,0.5168141722679138,0.0,0.16330662369728088,99
1667889547.27975082,151559008,0,24.45008087158203,25.008220672607422,4.130417346954346,20.940616607666016,0.5196161866188049,0.0,0.13512927293777466,99
1667889547.37994194,151659199,0,24.02354621887207,24.996564865112305,8.446808815002441,21.175674438476562,0.5252631306648254,0.0,0.11519366502761841,99
1667889547.47975087,151759008,0,24.091392517089844,24.877397537231445,6.824594974517822,21.364933013916016,0.5298226475715637,0.0,0.11517249047756195,99
1667889547.57990098,151859158,0,24.128000259399414,24.8798885345459,6.531208515167236,21.546642303466797,0.5342069268226624,0.0,0.11512230336666107,99
1667889547.67974591,151959003,0,24.147546768188477,24.939550399780273,6.9286298751831055,21.738819122314453,0.5388475060462952,0.0,0.11430887877941132,99
1667889547.77998495,152059242,0,23.970361709594727,24.914321899414062,8.286613464355469,21.969572067260742,0.5443786978721619,0.0,0.11391380429267883,99
1667889547.87965989,152158917,0,23.622407913208008,24.882709503173828,11.058740615844727,22.275789260864258,0.5516122579574585,0.0,0.11396436393260956,99
1667889547.97996092,152259218,0,23.322751998901367,24.780481338500977,12.687128067016602,22.62929916381836,0.5598570704460144,0.0,0.11489836126565933,99
1667889548.07969284,152358950,0,22.998851776123047,24.745819091796875,15.080519676208496,23.0471134185791,0.5694662928581238,0.0,0.11584267020225525,99
1667889548.18000197,152459259,0,22.530250549316406,24.687397003173828,18.457216262817383,23.561378479003906,0.5810527801513672,0.0,0.11687279492616653,99
1667889548.27969503,152558952,0,22.185937881469727,24.722614288330078,21.59576988220215,24.15953254699707,0.5943233966827393,0.0,0.11746172606945038,99
1667889548.37998199,152659239,0,21.91023826599121,24.6348819732666,23.01789093017578,24.800804138183594,0.6083738207817078,0.0,0.11837068200111389,99
1667889548.47971797,152758975,0,21.782882690429688,24.51219940185547,22.789566040039062,25.432233810424805,0.6221281886100769,0.0,0.11976168304681778,99
1667889548.57977891,152859036,0,21.798025131225586,24.5970401763916,23.21184730529785,26.077451705932617,0.6361926794052124,0.0,0.12058564275503159,99
1667889548.67972183,152958979,0,21.750301361083984,24.63018035888672,23.771303176879883,26.737442016601562,0.6505476832389832,0.0,0.12114940583705902,99
1667889548.77988982,153059147,0,21.65428352355957,24.547500610351562,23.70655059814453,27.397109985351562,0.6648322939872742,0.0,0.1220429390668869,99
1667889548.87978005,153159037,0,21.676204681396484,24.565637588500977,23.536670684814453,28.05024528503418,0.678989827632904,0.0,0.12276306003332138,99
1667889548.97994995,153259207,0,21.696828842163086,24.605449676513672,23.603130340576172,28.707048416137695,0.6932403445243835,0.0,0.12323026359081268,99
1667889549.07972002,153358977,0,21.67948341369629,24.588254928588867,23.507993698120117,29.358598709106445,0.7073656320571899,0.0,0.12373539060354233,99
1667889549.17986298,153459120,0,21.74713897705078,24.668481826782227,23.593000411987305,30.014955520629883,0.7216395139694214,0.0,0.12382247298955917,99
1667889549.27971292,153558970,0,21.782882690429688,24.67490577697754,23.346878051757812,30.662551879882812,0.7357460260391235,0.0,0.12387192249298096,99
1667889549.37994194,153659199,0,21.798789978027344,24.655263900756836,23.03446388244629,31.30392074584961,0.7497270703315735,0.0,0.12400872260332108,99
1667889549.47976804,153759025,0,21.815753936767578,24.62737464904785,22.626300811767578,31.93134117126465,0.763414740562439,0.0,0.12426342070102692,99
1667889549.57994699,153859204,0,21.869510650634766,24.669170379638672,22.52288055419922,32.558189392089844,0.7771236300468445,0.0,0.12430290877819061,99
1667889549.67975497,153959012,0,21.9315128326416,24.673723220825195,22.060705184936523,33.16985321044922,0.7905383110046387,0.0,0.12430290877819061,99
1667889549.77974701,154059004,0,22.049829483032227,24.648900985717773,20.927093505859375,33.75116729736328,0.8033561706542969,0.0,0.12419644743204117,99
1667889549.87974095,154158998,0,22.156423568725586,24.62601661682129,19.911869049072266,34.30428695678711,0.8156113028526306,0.0,0.12402615696191788,99
1667889549.97986293,154259120,0,22.16571807861328,24.53213882446289,19.1566162109375,34.83710861206055,0.8274216651916504,0.0,0.12353023886680603,99
1667889550.08068991,154359947,0,22.222450256347656,24.52660369873047,18.713163375854492,35.36125946044922,0.8390696048736572,0.0,0.12313004583120346,99
1667889550.18074393,154460001,0,22.28837776184082,24.58816146850586,18.68769073486328,35.88068389892578,0.8506467342376709,0.0,0.12306412309408188,99
1667889550.28074193,154559999,0,22.337923049926758,24.597043991088867,18.35962677001953,36.39070510864258,0.8620395064353943,0.0,0.1230483427643776,99
1667889550.38075686,154660014,0,22.38909339904785,24.643415451049805,18.295486450195312,36.89902877807617,0.8734204173088074,0.0,0.12321734428405762,99
1667889550.48074794,154760005,0,22.43451690673828,24.694969177246094,18.296100616455078,37.40724182128906,0.8848219513893127,0.0,0.12354830652475357,99
1667889550.58065200,154859909,0,22.41429901123047,24.597476959228516,17.688766479492188,37.898170471191406,0.8958257436752319,0.0,0.12342169880867004,99
1667889550.68072391,154959981,0,22.457740783691406,24.653470993041992,17.772958755493164,38.39225769042969,0.9069218635559082,0.0,0.12354328483343124,99
1667889550.78066087,155059918,0,22.462881088256836,24.667787551879883,17.825639724731445,38.887142181396484,0.9180383682250977,0.0,0.12369299679994583,99
1667889550.88075089,155160008,0,22.385740280151367,24.607460021972656,17.979084014892578,39.387046813964844,0.9292290806770325,0.0,0.12357247620820999,99
1667889550.98067093,155259928,0,22.38382339477539,24.593822479248047,17.905431747436523,39.88406753540039,0.9403542876243591,0.0,0.12342620640993118,99
1667889551.08070087,155359958,0,22.379608154296875,24.57377052307129,17.804773330688477,40.37883377075195,0.9514269232749939,0.0,0.12323449552059174,99
1667889551.18072605,155459983,0,22.38219451904297,24.631351470947266,18.23963165283203,40.885658264160156,0.9627707600593567,0.0,0.12331153452396393,99
1667889551.28090286,155560160,0,22.346643447875977,24.618947982788086,18.429290771484375,41.39852523803711,0.9742316007614136,0.0,0.12329854816198349,99
1667889551.38075495,155660012,0,22.243146896362305,24.47606086730957,18.109819412231445,41.900875091552734,0.985405445098877,0.0,0.12329854816198349,99
1667889551.48071194,155759969,0,22.232797622680664,24.470895767211914,18.15186309814453,42.404911041259766,0.9966115951538086,0.0,0.12329854816198349,99
1667889551.58072805,155859985,0,22.22530174255371,24.518953323364258,18.565412521362305,42.92074203491211,1.0080760717391968,0.0,0.12354432791471481,99
1667889551.68073106,155959988,0,22.19072914123535,24.51261329650879,18.75581932067871,43.44179916381836,1.0196387767791748,0.0,0.12379540503025055,99
1667889551.78074384,156060001,0,22.164281845092773,24.49588966369629,18.78835105895996,43.963802337646484,1.0312086343765259,0.0,0.12409859895706177,99
1667889551.88076186,156160019,0,22.177026748657227,24.52806282043457,18.92552947998047,44.489654541015625,1.0428704023361206,0.0,0.12422564625740051,99
1667889551.98064590,156259903,0,22.12949562072754,24.46634864807129,18.751523971557617,45.00990676879883,1.0543832778930664,0.0,0.12462202459573746,99
1667889552.08074188,156359999,0,22.181339263916016,24.553791046142578,19.043373107910156,45.53949737548828,1.06613028049469,0.0,0.12458153069019318,99
1667889552.18077302,156460030,0,22.2292537689209,24.54729652404785,18.605751037597656,46.056480407714844,1.077622413635254,0.0,0.12458742409944534,99
1667889552.28073096,156559988,0,22.279754638671875,24.558290481567383,18.28167724609375,46.56418228149414,1.0889339447021484,0.0,0.12463492155075073,99
1667889552.38064504,156659902,0,22.265954971313477,24.48613929748535,17.848655700683594,47.059593200683594,1.0999647378921509,0.0,0.1243894174695015,99
1667889552.48070192,156759959,0,22.267467498779297,24.45896339416504,17.660091400146484,47.55046844482422,1.1108952760696411,0.0,0.12409315258264542,99
1667889552.58065486,156859912,0,22.326805114746094,24.503618240356445,17.5494384765625,48.03776168823242,1.1217750310897827,0.0,0.12403895705938339,99
1667889552.68072605,156959983,0,22.350187301635742,24.54569435119629,17.682628631591797,48.529335021972656,1.1327617168426514,0.0,0.12416180223226547,99
1667889552.78073287,157059990,0,22.342330932617188,24.531566619873047,17.6264705657959,49.0190315246582,1.143702745437622,0.0,0.12420156598091125,99
1667889552.88076687,157160024,0,22.37548828125,24.548017501831055,17.47854995727539,49.50474548339844,1.1545708179473877,0.0,0.12429682910442352,99
1667889552.98067403,157259931,0,22.33399200439453,24.48415756225586,17.32326316833496,49.985538482666016,1.1653088331222534,0.0,0.12412013858556747,99
1667889553.08082294,157360080,0,22.357852935791016,24.499530792236328,17.265567779541016,50.46588897705078,1.1760485172271729,0.0,0.12404327839612961,99
1667889553.18074703,157460004,0,22.372997283935547,24.514183044433594,17.261884689331055,50.945064544677734,1.1867691278457642,0.0,0.12404127418994904,99
1667889553.28074288,157560000,0,22.37567901611328,24.522708892822266,17.30454444885254,51.42576217651367,1.1975250244140625,0.0,0.12407314777374268,99
1667889553.38086486,157660122,0,22.372133255004883,24.528295516967773,17.37161636352539,51.908939361572266,1.2083346843719482,0.0,0.12411980330944061,99
1667889553.48070383,157759961,0,22.33073616027832,24.454879760742188,17.113656997680664,52.38358688354492,1.2189339399337769,0.0,0.12411980330944061,99
1667889553.58064795,157859905,0,22.375200271606445,24.495708465576172,17.091257095336914,52.858116149902344,1.2295516729354858,0.0,0.12406972795724869,99
1667889553.68072605,157959983,0,22.42110252380371,24.563371658325195,17.235187530517578,53.337284088134766,1.240295171737671,0.0,0.12429628521203995,99
1667889553.78070784,158059965,0,22.411808013916016,24.538684844970703,17.100461959838867,53.812255859375,1.2509400844573975,0.0,0.12437538057565689,99
1667889553.88072395,158159981,0,22.38890266418457,24.49028205871582,16.912954330444336,54.282169342041016,1.2614609003067017,0.0,0.124246746301651,99
1667889553.98073387,158259991,0,22.365041732788086,24.457422256469727,16.840526580810547,54.749969482421875,1.271923303604126,0.0,0.124246746301651,99
1667889554.08071995,158359977,0,22.421485900878906,24.51470947265625,16.842676162719727,55.21786880493164,1.2824143171310425,0.0,0.12428095191717148,99
1667889554.17952585,158458783,0,22.432504653930664,24.51555824279785,16.756813049316406,55.677818298339844,1.2927321195602417,0.0,0.12431087344884872,99
1667889554.27966499,158558922,0,22.452341079711914,24.53740692138672,16.758281707763672,56.14400863647461,1.3031991720199585,0.0,0.12442001700401306,99
1667889554.37966490,158658922,0,22.433176040649414,24.514366149902344,16.72789764404297,56.60870361328125,1.3136237859725952,0.0,0.12441432476043701,99
1667889554.48072290,158759980,0,22.400114059448242,24.456066131591797,16.52504539489746,57.0726318359375,1.3240158557891846,0.0,0.12441432476043701,99
1667889554.57966590,158858923,0,22.370506286621094,24.426610946655273,16.52627182006836,57.526878356933594,1.3341776132583618,0.0,0.12441432476043701,99
1667889554.67971301,158958970,0,22.44017219543457,24.487070083618164,16.455074310302734,57.984214782714844,1.3444403409957886,0.0,0.12439308315515518,99
1667889554.77965689,159058914,0,22.440746307373047,24.481149673461914,16.408119201660156,58.43977737426758,1.3546634912490845,0.0,0.12435325235128403,99
1667889554.87970686,159158964,0,22.45799446105957,24.4616641998291,16.1267032623291,58.887996673583984,1.364729642868042,0.0,0.12424545735120773,99
1667889554.97971988,159258977,0,22.4187068939209,24.384002685546875,15.86768913269043,59.328861236572266,1.3746132850646973,0.0,0.12385519593954086,99
1667889555.07958388,159358841,0,22.501821517944336,24.46587562561035,15.855241775512695,59.76872253417969,1.38451087474823,0.0,0.12387415021657944,99
1667889555.17970490,159458962,0,22.533893585205078,24.489320755004883,15.771939277648926,60.2073974609375,1.3943959474563599,0.0,0.12398141622543335,99
1667889555.27964497,159558902,0,22.590526580810547,24.519990921020508,15.536863327026367,60.63874816894531,1.4041403532028198,0.0,0.124186210334301,99
1667889555.37968397,159658941,0,22.58180809020996,24.437475204467773,14.962674140930176,61.054508209228516,1.4135289192199707,0.0,0.12401968985795975,99
1667889555.47975183,159759009,0,22.565994262695312,24.390348434448242,14.747852325439453,61.46455001831055,1.4227819442749023,0.0,0.1237030103802681,99
1667889555.57963800,159858895,0,22.589473724365234,24.46429443359375,15.15018367767334,61.88494110107422,1.4322783946990967,0.0,0.12374904006719589,99
1667889555.67964292,159958900,0,22.604612350463867,24.46994400024414,15.066401481628418,62.30350112915039,1.441739797592163,0.0,0.12380743771791458,99
1667889555.77964187,160058899,0,22.614578247070312,24.477312088012695,15.03632640838623,62.72121047973633,1.4511860609054565,0.0,0.1238822415471077,99
1667889555.87966990,160158927,0,22.626943588256836,24.459505081176758,14.79419231414795,63.13230895996094,1.460487961769104,0.0,0.12387026846408844,99
1667889555.97965288,160258910,0,22.594135284423828,24.40478515625,14.644054412841797,63.5390510559082,1.4696779251098633,0.0,0.12364406138658524,99
1667889556.07966685,160358924,0,22.624452590942383,24.407794952392578,14.442497253417969,63.9403190612793,1.4787564277648926,0.0,0.12347882241010666,99
1667889556.17968297,160458940,0,22.647640228271484,24.44359588623047,14.543155670166016,64.34439086914062,1.4879077672958374,0.0,0.12349141389131546,99
1667889556.27974701,160559004,0,22.687889099121094,24.452665328979492,14.285369873046875,64.74149322509766,1.4969171285629272,0.0,0.12353727221488953,99
1667889556.37966299,160658920,0,22.862201690673828,24.445192337036133,12.813224792480469,65.0971450805664,1.505048155784607,0.0,0.12354354560375214,99
1667889556.47969484,160758952,0,22.76618003845215,24.402645111083984,13.263736724853516,65.46572875976562,1.513439416885376,0.0,0.1233789250254631,99
1667889556.57955098,160858808,0,22.619661331176758,24.45161247253418,14.857104301452637,65.87786102294922,1.5227618217468262,0.0,0.12330473959445953,99
1667889556.67976785,160959025,0,22.581710815429688,24.478374481201172,15.405207633972168,66.3067398071289,1.5324467420578003,0.0,0.12311839312314987,99
1667889556.77973390,161058991,0,22.527376174926758,24.459857940673828,15.706572532653809,66.74292755126953,1.5422728061676025,0.0,0.12303649634122849,99
1667889556.87965083,161158908,0,22.465087890625,24.428844451904297,15.952083587646484,67.18570709228516,1.5522198677062988,0.0,0.12310342490673065,99
1667889556.97960186,161258859,0,22.41813087463379,24.447938919067383,16.492206573486328,67.64363861083984,1.562485933303833,0.0,0.12307674437761307,99
1667889557.07961297,161358870,0,22.373762130737305,24.40983772277832,16.523202896118164,68.10270690917969,1.5727570056915283,0.0,0.12322525680065155,99
1667889557.17967796,161458935,0,22.42627716064453,24.490901947021484,16.786821365356445,68.5691909790039,1.5832185745239258,0.0,0.12299076467752457,99
1667889557.27962995,161558887,0,22.392641067504883,24.466228485107422,16.873058319091797,69.03785705566406,1.5937131643295288,0.0,0.12289334833621979,99
1667889557.37969184,161658949,0,22.30122184753418,24.364538192749023,16.73863983154297,69.50314331054688,1.604089617729187,0.0,0.12326665967702866,99
1667889557.47965693,161758914,0,22.32872200012207,24.444475173950195,17.167978286743164,69.97990417480469,1.6147350072860718,0.0,0.12323828786611557,99
1667889557.57949591,161858753,0,22.282245635986328,24.398666381835938,17.148029327392578,70.45551300048828,1.6253325939178467,0.0,0.12342061847448349,99
1667889557.68078184,161960039,0,22.355745315551758,24.50051498413086,17.419931411743164,70.9456558227539,1.6362900733947754,0.0,0.12312159687280655,99
1667889557.77959800,162058855,0,22.41919708251953,24.585979461669922,17.598712921142578,71.42874908447266,1.6471205949783325,0.0,0.12312159687280655,99
1667889557.87968588,162158943,0,22.423593521118164,24.589258193969727,17.589641571044922,71.91783142089844,1.6580876111984253,0.0,0.12312159687280655,99
1667889557.97956204,162258819,0,22.378746032714844,24.570568084716797,17.85786247253418,72.4133071899414,1.6691757440567017,0.0,0.12273705750703812,99
1667889558.07966590,162358923,0,22.414777755737305,24.673871994018555,18.405967712402344,72.92515563964844,1.680648684501648,0.0,0.12273705750703812,99
1667889558.17956805,162458825,0,22.371366500854492,24.637413024902344,18.54038429260254,73.43970489501953,1.6921597719192505,0.0,0.12222220748662949,99
1667889558.27971101,162558968,0,22.33016014099121,24.621458053588867,18.807069778442383,73.9629135131836,1.703843116760254,0.0,0.12183170765638351,99
1667889558.37953401,162658791,0,22.229732513427734,24.599977493286133,19.495729446411133,74.50354766845703,1.715861201286316,0.0,0.12157765030860901,99
1667889558.47975397,162759011,0,22.160640716552734,24.511701583862305,19.310060501098633,75.04103088378906,1.7277721166610718,0.0,0.12175315618515015,99
1667889558.57959795,162858855,0,22.159072875976562,24.616945266723633,20.241365432739258,75.60259246826172,1.74021577835083,0.0,0.12142819911241531,99
1667889558.67962885,162958886,0,22.09930992126465,24.57762336730957,20.42867088317871,76.17028045654297,1.7527612447738647,0.0,0.12131544947624207,99
1667889558.77960587,163058863,0,22.076885223388672,24.597957611083984,20.81473731994629,76.74836730957031,1.7655236721038818,0.0,0.12111954391002655,99
1667889558.87963605,163158893,0,21.87114143371582,24.33644676208496,20.1834659576416,77.30924987792969,1.7777907848358154,0.0,0.12214478850364685,99
1667889558.97958684,163258844,0,21.745319366455078,24.2124080657959,19.95330047607422,77.86328125,1.7898383140563965,0.0,0.12364315241575241,99
1667889559.07966185,163358919,0,21.773300170898438,24.250459671020508,19.844661712646484,78.41497802734375,1.8018505573272705,0.0,0.12482745200395584,99
1667889559.17964792,163458905,0,21.71455955505371,24.12900733947754,19.34228515625,78.95223236083984,1.8135167360305786,0.0,0.12482745200395584,99
1667889559.27968693,163558944,0,21.70794677734375,24.077190399169922,18.98015594482422,79.47970581054688,1.8249671459197998,0.0,0.12482745200395584,99
1667889559.37967396,163658931,0,21.748289108276367,24.098648071289062,18.828859329223633,80.00270080566406,1.8363415002822876,0.0,0.12482745200395584,99
1667889559.47967005,163758927,0,21.677696228027344,24.027219772338867,18.822175979614258,80.52555847167969,1.8476759195327759,0.0,0.12482745200395584,99
1667889559.57955694,163858814,0,21.685712814331055,24.064573287963867,19.05718421936035,81.05436706542969,1.8591434955596924,0.0,0.12482745200395584,99
1667889559.67982388,163959081,0,21.715803146362305,24.091943740844727,19.035396575927734,81.58457946777344,1.8706575632095337,0.0,0.12482745200395584,99
1667889559.77957988,164058837,0,21.727495193481445,24.087890625,18.909263610839844,82.10858917236328,1.8820430040359497,0.0,0.12482745200395584,99
1667889559.87972403,164158981,0,21.72490692138672,24.055038452148438,18.66682243347168,82.6279067993164,1.8933250904083252,0.0,0.12482745200395584,99
1667889559.97952199,164258779,0,21.82773208618164,24.16653060913086,18.738327026367188,83.14739990234375,1.9046645164489746,0.0,0.12481360137462616,99
1667889560.07968688,164358944,0,21.923368453979492,24.206981658935547,18.27461814880371,83.65591430664062,1.9158128499984741,0.0,0.12496091425418854,99
1667889560.17956400,164458821,0,22.03472137451172,24.281042098999023,17.91832160949707,84.153076171875,1.9267675876617432,0.0,0.12536443769931793,98
1667889560.27976084,164559018,0,22.12441635131836,24.360763549804688,17.750452041625977,84.64714813232422,1.9376987218856812,0.0,0.12598814070224762,98
1667889560.37960005,164658857,0,22.09423065185547,24.344999313354492,17.805692672729492,85.1409912109375,1.948609709739685,0.0,0.1264072060585022,98
1667889560.47962189,164758879,0,22.09873390197754,24.345012664794922,17.724674224853516,85.63349914550781,1.9594933986663818,0.0,0.1267317682504654,98
1667889560.57964301,164858900,0,22.32124900817871,24.486698150634766,16.978626251220703,86.10527038574219,1.9700238704681396,0.0,0.1275397539138794,98
1667889560.67966104,164958918,0,22.398868560791016,24.474178314208984,16.198514938354492,86.55534362792969,1.980104923248291,0.0,0.12811726331710815,98
1667889560.77961302,165058870,0,22.36302947998047,24.445188522338867,16.209869384765625,87.00536346435547,1.9901686906814575,0.0,0.12845005095005035,98
1667889560.87970996,165158967,0,22.29345703125,24.384307861328125,16.275236129760742,87.4580078125,2.0002596378326416,0.0,0.12846818566322327,98
1667889560.97962689,165258884,0,22.195810317993164,24.284378051757812,16.305620193481445,87.91059875488281,2.010305166244507,0.0,0.12808886170387268,98
1667889561.07966900,165358926,0,22.230594635009766,24.347490310668945,16.532716751098633,88.37007141113281,2.020519495010376,0.0,0.1280427873134613,98
1667889561.17970705,165458964,0,22.274003982543945,24.367807388305664,16.346742630004883,88.82432556152344,2.030637741088867,0.0,0.12808692455291748,98
1667889561.27968693,165558944,0,22.310590744018555,24.361461639404297,16.010391235351562,89.26902770996094,2.0405592918395996,0.0,0.12809626758098602,98
1667889561.37959194,165658849,0,22.287324905395508,24.3309268951416,15.967735290527344,89.71219635009766,2.05043625831604,0.0,0.12798316776752472,98
1667889561.47972703,165758984,0,22.285886764526367,24.2792911529541,15.611129760742188,90.1464614868164,2.0601141452789307,0.0,0.12769117951393127,98
1667889561.57956886,165858826,0,22.383058547973633,24.39893341064453,15.756901741027832,90.58349609375,2.0698962211608887,0.0,0.127935990691185,98
1667889561.67969489,165958952,0,22.351049423217773,24.337751388549805,15.53502082824707,91.01560974121094,2.079554319381714,0.0,0.12788532674312592,98
1667889561.77963305,166058890,0,22.37711524963379,24.355749130249023,15.468118667602539,91.4450454711914,2.0891637802124023,0.0,0.12791690230369568,98
1667889561.87964988,166158907,0,22.308313369750977,24.26314926147461,15.322961807250977,91.87078857421875,2.098661422729492,0.0,0.1275755912065506,98
1667889561.97957683,166258834,0,22.31607437133789,24.20171546936035,14.839919090270996,92.28274536132812,2.1078546047210693,0.0,0.1270654946565628,98
1667889562.07970190,166358959,0,22.38507080078125,24.267871856689453,14.833473205566406,92.69532775878906,2.1170904636383057,0.0,0.12692920863628387,98
1667889562.17963004,166458887,0,22.441022872924805,24.281030654907227,14.502544403076172,93.0979232788086,2.1261250972747803,0.0,0.12687475979328156,98
1667889562.27966499,166558922,0,22.413532257080078,24.242103576660156,14.43482494354248,93.49906158447266,2.1351158618927,0.0,0.12667781114578247,98
1667889562.37961888,166658876,0,22.43049430847168,24.25942611694336,14.447407722473145,93.90023040771484,2.1441142559051514,0.0,0.12659242749214172,98
1667889562.47970986,166758967,0,22.370506286621094,24.146080017089844,14.0834379196167,94.29181671142578,2.152874231338501,0.0,0.12607532739639282,98
1667889562.57962894,166858886,0,22.353254318237305,24.146974563598633,14.227368354797363,94.68673706054688,2.1617019176483154,0.0,0.12607532739639282,98
1667889562.67965794,166958915,0,22.367918014526367,24.198768615722656,14.536711692810059,95.09068298339844,2.1707372665405273,0.0,0.12594670057296753,98
1667889562.77963591,167058893,0,22.34319305419922,24.140146255493164,14.267570495605469,95.4868392944336,2.179588556289673,0.0,0.12594670057296753,98
1667889562.87971187,167158969,0,22.25972557067871,24.075927734375,14.420400619506836,95.88785552978516,2.1885149478912354,0.0,0.12594670057296753,98
1667889562.97969389,167258951,0,22.17731285095215,24.07050895690918,14.96911907196045,96.30361938476562,2.197735548019409,0.0,0.12647339701652527,98
1667889563.07966399,167358921,0,22.165571212768555,24.078384399414062,15.072675704956055,96.72221374511719,2.2070138454437256,0.0,0.12690602242946625,98
1667889563.17956185,167458819,0,22.093368530273438,24.029844284057617,15.187009811401367,97.1436767578125,2.216325521469116,0.0,0.12750869989395142,98
1667889563.27963996,167558897,0,22.0135440826416,24.028345108032227,15.73419189453125,97.58110809326172,2.22595477104187,0.0,0.12805233895778656,98
1667889563.37959599,167658853,0,21.86088752746582,23.92067527770996,15.964665412902832,98.0244140625,2.2356457710266113,0.0,0.12902170419692993,98
1667889563.47968292,167758940,0,21.85504150390625,23.995805740356445,16.52504539489746,98.48388671875,2.245687484741211,0.0,0.1295466125011444,98
1667889563.57956696,167858824,0,21.809234619140625,24.049724578857422,17.26495361328125,98.96295166015625,2.2561354637145996,0.0,0.12977097928524017,98
1667889563.67969489,167958952,0,21.859737396240234,24.12226676940918,17.45215606689453,99.44839477539062,2.266746997833252,0.0,0.1296418160200119,98
1667889563.77957988,168058837,0,21.894428253173828,24.146217346191406,17.399372100830078,99.93119049072266,2.277317523956299,0.0,0.12941783666610718,98
1667889563.87980700,168159064,0,21.941118240356445,24.209503173828125,17.59393882751465,100.42105865478516,2.2880659103393555,0.0,0.1289299577474594,98
1667889563.97965193,168258909,0,21.924711227416992,24.16292953491211,17.39016342163086,100.90341186523438,2.2986412048339844,0.0,0.1287059485912323,98
1667889564.07968402,168358941,0,22.015939712524414,24.22654914855957,17.17565155029297,101.38070678710938,2.3091492652893066,0.0,0.1287059485912323,98
1667889564.17964196,168458899,0,22.115121841430664,24.307559967041016,17.034481048583984,101.85372924804688,2.319610118865967,0.0,0.1287059485912323,98
1667889564.27966785,168558925,0,22.145212173461914,24.27032470703125,16.458450317382812,102.31106567382812,2.329737901687622,0.0,0.1291198432445526,98
1667889564.37958789,168658845,0,22.176162719726562,24.286611557006836,16.296106338500977,102.76341247558594,2.339769124984741,0.0,0.12950633466243744,98
1667889564.47967291,168758930,0,22.186132431030273,24.30735969543457,16.331090927124023,103.21720886230469,2.349837303161621,0.0,0.1298888474702835,98
1667889564.57960105,168858858,0,22.193988800048828,24.35806655883789,16.660995483398438,103.67998504638672,2.3601081371307373,0.0,0.1298888474702835,98
1667889564.67967391,168958931,0,22.172042846679688,24.324054718017578,16.53240966796875,104.13958740234375,2.3702986240386963,0.0,0.1301693171262741,98
1667889564.77959204,169058849,0,22.144168853759766,24.28134536743164,16.41207504272461,104.59513854980469,2.3803865909576416,0.0,0.13021980226039886,98
1667889564.87963891,169158896,0,22.078229904174805,24.18036460876465,16.142969131469727,105.0438003540039,2.390292167663574,0.0,0.13021980226039886,98
1667889564.97954488,169258802,0,22.099693298339844,24.198270797729492,16.11565399169922,105.49107360839844,2.400176763534546,0.0,0.13021980226039886,98
1667889565.07963586,169358893,0,22.212099075317383,24.350975036621094,16.37343978881836,105.94634246826172,2.4102892875671387,0.0,0.13063083589076996,98
1667889565.17957187,169458829,0,22.3366756439209,24.483186721801758,16.32679557800293,106.39960479736328,2.4204137325286865,0.0,0.13147172331809998,98
1667889565.27968383,169558941,0,22.44908332824707,24.561004638671875,15.946866035461426,106.84310913085938,2.4303700923919678,0.0,0.1324349343776703,98
1667889565.37963295,169658890,0,22.499488830566406,24.627567291259766,15.946866035461426,107.285888671875,2.4403324127197266,0.0,0.13344810903072357,98
1667889565.47969985,169758957,0,22.45052146911621,24.596221923828125,15.99903678894043,107.73063659667969,2.4503173828125,0.0,0.1341143548488617,98
1667889565.57960606,169858863,0,22.463457107543945,24.650161743164062,16.2163143157959,108.18070220947266,2.4604275226593018,0.0,0.13484594225883484,98
1667889565.67978287,169959040,0,22.538345336914062,24.711894989013672,16.02198600769043,108.62657928466797,2.4704768657684326,0.0,0.13566038012504578,98
1667889565.77964306,170058900,0,22.50782585144043,24.698429107666016,16.078828811645508,109.07261657714844,2.480516195297241,0.0,0.13624145090579987,98
1667889565.87966394,170158921,0,22.45368194580078,24.657873153686523,16.17856788635254,109.52215576171875,2.490610122680664,0.0,0.13624145090579987,98
1667889565.97974586,170259003,0,22.444387435913086,24.65472412109375,16.223678588867188,109.97322082519531,2.5007338523864746,0.0,0.13624145090579987,98
1667889566.07962203,170358879,0,22.486169815063477,24.722305297851562,16.41303062438965,110.4286117553711,2.5109736919403076,0.0,0.13624145090579987,98
1667889566.17961192,170458869,0,22.49738121032715,24.7455997467041,16.501720428466797,110.88697814941406,2.5212857723236084,0.0,0.13624145090579987,98
1667889566.27967691,170558934,0,22.461544036865234,24.69136619567871,16.36669158935547,111.3419418334961,2.5315048694610596,0.0,0.13624145090579987,98
1667889566.37971902,170658976,0,22.323261260986328,24.567752838134766,16.428068161010742,111.79850769042969,2.5416970252990723,0.0,0.13662537932395935,98
1667889566.48066998,170759927,0,22.198205947875977,24.44236183166504,16.316974639892578,112.256103515625,2.5518548488616943,0.0,0.13753506541252136,98
1667889566.57945299,170858710,0,22.221254348754883,24.42104148864746,15.994366645812988,112.69502258300781,2.561608076095581,0.0,0.13753506541252136,98
1667889566.68071890,170959976,0,22.221874237060547,24.393390655517578,15.788818359375,113.13919067382812,2.5714783668518066,0.0,0.13753506541252136,98
1667889566.77993798,171059195,0,22.217849731445312,24.34935188293457,15.49788761138916,113.56623077392578,2.5809662342071533,0.0,0.13753506541252136,98
1667889566.87962985,171158887,0,22.221778869628906,24.336524963378906,15.376051902770996,113.9921875,2.5904316902160645,0.0,0.13753506541252136,98
1667889566.97985101,171259108,0,22.209320068359375,24.297855377197266,15.18547534942627,114.41497039794922,2.5998215675354004,0.0,0.13753506541252136,98
1667889567.07961082,171358868,0,22.295278549194336,24.39306640625,15.28153133392334,114.83847045898438,2.6092636585235596,0.0,0.1372760534286499,98
1667889567.17989802,171459155,0,22.359676361083984,24.456872940063477,15.271710395812988,115.2639389038086,2.61877703666687,0.0,0.13732556998729706,98
1667889567.27962804,171558885,0,22.36667251586914,24.40943145751953,14.891475677490234,115.67650604248047,2.628004789352417,0.0,0.13717645406723022,98
1667889567.37989998,171659157,0,22.33811378479004,24.3693790435791,14.837462425231934,116.08981323242188,2.637237310409546,0.0,0.13690108060836792,98
1667889567.47961593,171758873,0,22.347963333129883,24.359661102294922,14.721799850463867,116.49752044677734,2.646348714828491,0.0,0.13664747774600983,98
1667889567.57958388,171858841,0,22.33955192565918,24.368432998657227,14.865388870239258,116.91045379638672,2.6555733680725098,0.0,0.1364835649728775,98
1667889567.68074298,171960000,0,22.3946533203125,24.468202590942383,15.163071632385254,117.33656311035156,2.66511607170105,0.0,0.13674992322921753,98
1667889567.77967286,172058930,0,22.381715774536133,24.44573402404785,15.080211639404297,117.75100708007812,2.674391984939575,0.0,0.1368693709373474,98
1667889567.87956595,172158823,0,22.308887481689453,24.349720001220703,14.910809516906738,118.16478729248047,2.6836228370666504,0.0,0.1368693709373474,98
1667889567.97989893,172259156,0,22.347122192382812,24.45230484008789,15.380963325500488,118.59349060058594,2.6932029724121094,0.0,0.1368693709373474,98
1667889568.07961893,172358876,0,22.32565689086914,24.426494598388672,15.353957176208496,119.01882934570312,2.7026989459991455,0.0,0.13682714104652405,98
1667889568.17995501,172459212,0,22.331501007080078,24.475128173828125,15.696138381958008,119.4563217163086,2.7124688625335693,0.0,0.13657036423683167,98
1667889568.27955699,172558814,0,22.29014778137207,24.411645889282227,15.527552604675293,119.88597869873047,2.7220458984375,0.0,0.13662798702716827,98
1667889568.38001299,172659270,0,22.29709815979004,24.40749168395996,15.43835163116455,120.31681060791016,2.73165225982666,0.0,0.13669806718826294,98
1667889568.47960401,172758861,0,22.270267486572266,24.399436950683594,15.564484596252441,120.74742126464844,2.7412421703338623,0.0,0.13679668307304382,98
1667889568.57992196,172859179,0,22.296907424926758,24.416393280029297,15.492364883422852,121.17916870117188,2.750868797302246,0.0,0.1368083655834198,98
1667889568.67961788,172958875,0,22.33399200439453,24.465736389160156,15.581975936889648,121.6107177734375,2.760507106781006,0.0,0.1368083655834198,98
1667889568.77990294,173059160,0,22.319618225097656,24.44976806640625,15.570314407348633,122.04449462890625,2.770188808441162,0.0,0.1368083655834198,98
1667889568.87962389,173158881,0,22.299209594726562,24.386953353881836,15.260355949401855,122.46724700927734,2.779615879058838,0.0,0.1368083655834198,98
1667889568.97985983,173259117,0,22.25656509399414,24.349977493286133,15.301786422729492,122.89332580566406,2.7890989780426025,0.0,0.1368083655834198,98
1667889569.07955384,173358811,0,22.2810001373291,24.394094467163086,15.437124252319336,123.32086181640625,2.7986249923706055,0.0,0.13688398897647858,98
1667889569.17994499,173459202,0,22.34395980834961,24.450092315673828,15.368074417114258,123.74945068359375,2.808201313018799,0.0,0.1370459794998169,98
1667889569.27972484,173558982,0,22.349029541015625,24.424951553344727,15.144624710083008,124.16924285888672,2.8175833225250244,0.0,0.13707323372364044,98
1667889569.37993884,173659196,0,22.2899112701416,24.333026885986328,14.905284881591797,124.58413696289062,2.826831340789795,0.0,0.13707323372364044,98
1667889569.47953987,173758797,0,22.335527420043945,24.393569946289062,15.01914119720459,124.99976348876953,2.8361146450042725,0.0,0.13702796399593353,98
1667889569.57994795,173859205,0,22.342905044555664,24.376676559448242,14.853114128112793,125.41407012939453,2.8453714847564697,0.0,0.13692554831504822,98
1667889569.67955303,173958810,0,22.401840209960938,24.43726921081543,14.84789752960205,125.82491302490234,2.8545751571655273,0.0,0.13708539307117462,98
1667889569.77993488,174059192,0,22.4218692779541,24.420150756835938,14.570775985717773,126.23123931884766,2.8636858463287354,0.0,0.1371430903673172,98
1667889569.87956905,174158826,0,22.423498153686523,24.40163230895996,14.42684555053711,126.63048553466797,2.872638463973999,0.0,0.13711479306221008,98
1667889569.97996688,174259224,0,22.376445770263672,24.31523323059082,14.177651405334473,127.02597045898438,2.881488084793091,0.0,0.13674955070018768,98
1667889570.07956004,174358817,0,22.409400939941406,24.387008666992188,14.461627006530762,127.42607879638672,2.8904542922973633,0.0,0.13674864172935486,98
1667889570.18013787,174459395,0,22.41659927368164,24.420019149780273,14.63645076751709,127.83489990234375,2.899618625640869,0.0,0.13687874376773834,98
1667889570.27964401,174558901,0,22.408355712890625,24.369712829589844,14.33938217163086,128.2313995361328,2.908503532409668,0.0,0.13678120076656342,98
1667889570.37988496,174659142,0,22.41429901123047,24.40508460998535,14.547759056091309,128.636474609375,2.9175829887390137,0.0,0.13684481382369995,98
1667889570.47963786,174758895,0,22.352487564086914,24.33613395690918,14.495588302612305,129.0382080078125,2.926562786102295,0.0,0.13684481382369995,98
1667889570.57987905,174859136,0,22.26614761352539,24.296415328979492,14.79419231414795,129.45018005371094,2.9357359409332275,0.0,0.13723409175872803,98
1667889570.67953706,174958794,0,22.32412338256836,24.38372039794922,15.0130033493042,129.86573791503906,2.9450128078460693,0.0,0.13718749582767487,98
1667889570.77988100,175059138,0,22.327669143676758,24.37004852294922,14.885336875915527,130.28074645996094,2.9542791843414307,0.0,0.13720741868019104,98
1667889570.87962484,175158882,0,22.351146697998047,24.443252563476562,15.282451629638672,130.70420837402344,2.9637439250946045,0.0,0.13689599931240082,98
1667889570.97988605,175259143,0,22.2700252532959,24.338703155517578,15.090066909790039,131.12451171875,2.9731040000915527,0.0,0.13708870112895966,98
1667889571.07956886,175358826,0,22.284162521362305,24.368385314941406,15.199285507202148,131.54541015625,2.982483386993408,0.0,0.1371263861656189,98
1667889571.17994404,175459201,0,22.324987411499023,24.4384822845459,15.444489479064941,131.97607421875,2.992097854614258,0.0,0.13684460520744324,98
1667889571.27956200,175558819,0,22.322782516479492,24.43178939819336,15.43651008605957,132.40325927734375,3.001633882522583,0.0,0.1366245597600937,98
1667889571.37995505,175659212,0,22.311187744140625,24.392637252807617,15.237032890319824,132.8282012939453,3.011115074157715,0.0,0.13660463690757751,98
1667889571.47958088,175758838,0,22.28847312927246,24.396778106689453,15.437738418579102,133.25546264648438,3.0206379890441895,0.0,0.13656829297542572,98
1667889571.57992697,175859184,0,22.262601852416992,24.389324188232422,15.572461128234863,133.68955993652344,3.0303022861480713,0.0,0.13656942546367645,98
1667889571.67961001,175958867,0,22.23548126220703,24.39974021911621,15.852651596069336,134.12855529785156,3.0400633811950684,0.0,0.13652348518371582,98
1667889571.77964783,176058905,0,22.250335693359375,24.38131332397461,15.604071617126465,134.56204223632812,3.049708843231201,0.0,0.13656552135944366,98
1667889571.88074398,176160001,0,22.287229537963867,24.356725692749023,15.153864860534668,134.98777770996094,3.059197425842285,0.0,0.13656552135944366,98
1667889571.97974491,176259002,0,22.309524536132812,24.365520477294922,15.063128471374512,135.4020538330078,3.068439483642578,0.0,0.13649201393127441,98
1667889572.07957602,176358833,0,22.32431411743164,24.40629768371582,15.241942405700684,135.82476806640625,3.077876091003418,0.0,0.1365957260131836,98
1667889572.17990685,176459164,0,22.357852935791016,24.46515655517578,15.427303314208984,136.2547607421875,3.087489604949951,0.0,0.1365957260131836,98
1667889572.27976489,176559022,0,22.337156295776367,24.42917823791504,15.302093505859375,136.6792449951172,3.0969715118408203,0.0,0.13671469688415527,98
1667889572.37994099,176659198,0,22.30419158935547,24.364830017089844,15.072539329528809,137.0986328125,3.106325626373291,0.0,0.13671469688415527,98
1667889572.47957802,176758835,0,22.29776954650879,24.373050689697266,15.179643630981445,137.51869201660156,3.115691900253296,0.0,0.13671469688415527,98
1667889572.57989693,176859154,0,22.325178146362305,24.412038803100586,15.264345169067383,137.9442596435547,3.125192642211914,0.0,0.13671469688415527,98
1667889572.67957401,176958831,0,22.379905700683594,24.476179122924805,15.33319091796875,138.36883544921875,3.134694814682007,0.0,0.13671469688415527,98
1667889572.77990389,177059161,0,22.305437088012695,24.38591957092285,15.217698097229004,138.79298400878906,3.144155502319336,0.0,0.13671469688415527,98
1667889572.87961102,177158868,0,22.298635482788086,24.375930786132812,15.194375038146973,139.21385192871094,3.1535401344299316,0.0,0.13671469688415527,98
1667889572.97988105,177259138,0,22.222257614135742,24.31515884399414,15.265267372131348,139.6389617919922,3.162986993789673,0.0,0.1371021270751953,98
1667889573.07959485,177358852,0,22.291732788085938,24.39461898803711,15.339531898498535,140.06398010253906,3.17246150970459,0.0,0.1370893269777298,98
1667889573.17995000,177459207,0,22.27276039123535,24.39189910888672,15.457992553710938,140.4949188232422,3.1820595264434814,0.0,0.13709013164043427,98
1667889573.27957296,177558830,0,22.248228073120117,24.339515686035156,15.254830360412598,140.9171142578125,3.1914525032043457,0.0,0.13709013164043427,98
1667889573.37989998,177659157,0,22.251102447509766,24.295310974121094,14.911422729492188,141.33267211914062,3.2006993293762207,0.0,0.13709013164043427,98
1667889573.47959805,177758855,0,22.270267486572266,24.302780151367188,14.8261079788208,141.7433319091797,3.2098448276519775,0.0,0.13709013164043427,98
1667889573.57986903,177859126,0,22.30352210998535,24.34165382385254,14.873983383178711,142.15765380859375,3.219085693359375,0.0,0.1370266079902649,98
1667889573.67954588,177958803,0,22.32698631286621,24.352928161621094,14.785563468933105,142.5670623779297,3.228226661682129,0.0,0.13702155649662018,98
1667889573.77990294,178059160,0,22.36073112487793,24.353830337524414,14.545917510986328,142.97259521484375,3.2372946739196777,0.0,0.13702116906642914,98
1667889573.87956595,178158823,0,22.316362380981445,24.248409271240234,14.143587112426758,143.3641815185547,3.2460334300994873,0.0,0.1366022825241089,98
1667889573.97987390,178259131,0,22.317127227783203,24.242740631103516,14.13284683227539,143.7580108642578,3.2548224925994873,0.0,0.13625089824199677,98
1667889574.07950187,178358759,0,22.4071102142334,24.361412048339844,14.322810173034668,144.1544189453125,3.263704776763916,0.0,0.13644684851169586,98
1667889574.17990303,178459160,0,22.411903381347656,24.332107543945312,14.069012641906738,144.5468292236328,3.2724993228912354,0.0,0.13648462295532227,98
1667889574.27956891,178558826,0,22.42033576965332,24.319522857666016,13.91710376739502,144.93215942382812,3.2811384201049805,0.0,0.1364642232656479,98
1667889574.38002706,178659284,0,22.40203094482422,24.303985595703125,13.945337295532227,145.3213348388672,3.2898566722869873,0.0,0.136386439204216,98
1667889574.47952604,178758783,0,22.354032516479492,24.293149948120117,14.217819213867188,145.71432495117188,3.2986416816711426,0.0,0.136386439204216,98
1667889574.57989693,178859154,0,22.410846710205078,24.33506202697754,14.100316047668457,146.10748291015625,3.30745267868042,0.0,0.13646607100963593,98
1667889574.67961884,178958876,0,22.414682388305664,24.358354568481445,14.226753234863281,146.50160217285156,3.31628680229187,0.0,0.13662098348140717,98
1667889574.77991390,179059171,0,22.37108039855957,24.346683502197266,14.469503402709961,146.9047393798828,3.325305700302124,0.0,0.1365356147289276,98
1667889574.87959194,179158849,0,22.33380126953125,24.305999755859375,14.4332914352417,147.30441284179688,3.3342318534851074,0.0,0.13664227724075317,98
1667889574.97988892,179259146,0,22.323549270629883,24.265512466430664,14.212023735046387,147.7003936767578,3.343071699142456,0.0,0.13664227724075317,98
1667889575.07960105,179358858,0,22.425127029418945,24.366804122924805,14.189313888549805,148.09326171875,3.351881980895996,0.0,0.1368408054113388,98
1667889575.17986584,179459123,0,22.433752059936523,24.368938446044922,14.12486743927002,148.4868621826172,3.3607118129730225,0.0,0.13700561225414276,98
1667889575.27954698,179558804,0,22.41142463684082,24.290542602539062,13.733890533447266,148.86717224121094,3.369235038757324,0.0,0.136823371052742,98
1667889575.37987995,179659137,0,22.43665885925293,24.29065704345703,13.564488410949707,149.24525451660156,3.3777177333831787,0.0,0.1366802304983139,98
1667889575.47955084,179758808,0,22.431930541992188,24.21322250366211,13.072851181030273,149.60719299316406,3.385836601257324,0.0,0.13625888526439667,98
1667889575.57994390,179859201,0,22.496614456176758,24.227130889892578,12.726067543029785,149.96214294433594,3.393821954727173,0.0,0.1359819769859314,98
1667889575.67956805,179958825,0,22.613332748413086,24.322311401367188,12.5526762008667,150.30953979492188,3.4016778469085693,0.0,0.13614457845687866,98
1667889575.77989292,180059150,0,22.587173461914062,24.300338745117188,12.579682350158691,150.66014099121094,3.4095969200134277,0.0,0.13618506491184235,98
1667889575.87957883,180158836,0,22.55861473083496,24.25556755065918,12.474111557006836,151.00558471679688,3.4173896312713623,0.0,0.13603800535202026,98
1667889575.97989392,180259151,0,22.550086975097656,24.223222732543945,12.321281433105469,151.3489532470703,3.4251325130462646,0.0,0.13579235970973969,98
1667889576.07956600,180358823,0,22.507156372070312,24.22046661376953,12.636149406433105,151.69883728027344,3.43300724029541,0.0,0.13558803498744965,98
1667889576.17994690,180459204,0,22.517024993896484,24.25162124633789,12.796650886535645,152.05567932128906,3.441042184829712,0.0,0.135550856590271,98
1667889576.27961898,180558876,0,22.594669342041016,24.29983139038086,12.564371109008789,152.40357971191406,3.4489028453826904,0.0,0.13571412861347198,98
1667889576.37987685,180659134,0,22.47907829284668,24.118223190307617,12.077919006347656,152.73992919921875,3.456463575363159,0.0,0.13571412861347198,98
1667889576.47965288,180758910,0,22.49824333190918,24.102235794067383,11.818903923034668,153.06756591796875,3.463834762573242,0.0,0.13571412861347198,98
1667889576.57985687,180859114,0,22.572988510131836,24.155502319335938,11.682645797729492,153.39273071289062,3.471174716949463,0.0,0.1354585736989975,98
1667889576.67954898,180958806,0,22.64342498779297,24.24081039428711,11.78023624420166,153.71900939941406,3.478563070297241,0.0,0.13559871912002563,98
1667889576.77987385,181059131,0,22.72679328918457,24.267131805419922,11.341385841369629,154.03509521484375,3.4857466220855713,0.0,0.13581573963165283,98
1667889576.87955093,181158808,0,22.75525665283203,24.291948318481445,11.291975975036621,154.34776306152344,3.49286150932312,0.0,0.13608704507350922,98
1667889576.97989392,181259151,0,22.68683624267578,24.21722984313965,11.252694129943848,154.66143798828125,3.4999778270721436,0.0,0.13600236177444458,98
1667889577.07954788,181358805,0,22.71828842163086,24.286479949951172,11.512765884399414,154.98004150390625,3.507215976715088,0.0,0.1362132430076599,98
1667889577.17991304,181459170,0,22.799530029296875,24.382326126098633,11.57308578491211,155.30284118652344,3.514575481414795,0.0,0.13676531612873077,98
1667889577.27954197,181558799,0,22.73196792602539,24.300222396850586,11.457695960998535,155.6199493408203,3.5217840671539307,0.0,0.1368735134601593,98
1667889577.37996101,181659218,0,22.773080825805664,24.3751220703125,11.671597480773926,155.94554138183594,3.5291988849639893,0.0,0.1372598111629486,98
1667889577.47955990,181758817,0,22.7111759185791,24.291086196899414,11.51293659210205,156.2639923095703,3.536431312561035,0.0,0.1372290700674057,98
1667889577.57987189,181859129,0,22.617454528808594,24.298852920532227,12.253150939941406,156.6055450439453,3.544156551361084,0.0,0.13722164928913116,98
1667889577.67956185,181958819,0,22.585927963256836,24.355892181396484,12.923089981079102,156.96343994140625,3.5522398948669434,0.0,0.13696138560771942,98
1667889577.77992296,182059180,0,22.530441284179688,24.342863082885742,13.24962043762207,157.3328399658203,3.5605626106262207,0.0,0.136790469288826,98
1667889577.87960696,182158864,0,22.429821014404297,24.279705047607422,13.510475158691406,157.70697021484375,3.5689544677734375,0.0,0.1369222104549408,98
1667889577.97995687,182259214,0,22.392162322998047,24.207250595092773,13.214019775390625,158.07534790039062,3.5772030353546143,0.0,0.13736075162887573,98
1667889578.07958889,182358846,0,22.35552215576172,24.327268600463867,14.37024211883545,158.47308349609375,3.586094617843628,0.0,0.13721036911010742,98
1667889578.17991090,182459168,0,22.28301239013672,24.383119583129883,15.348739624023438,158.9008331298828,3.59562611579895,0.0,0.1368260383605957,98
1667889578.27965283,182558910,0,22.193988800048828,24.286733627319336,15.284294128417969,159.32435607910156,3.6050257682800293,0.0,0.1369212567806244,98
1667889578.37986493,182659122,0,22.081388473510742,24.2850341796875,16.083431243896484,159.7720947265625,3.614912509918213,0.0,0.13701345026493073,98
1667889578.47951984,182758777,0,22.01517105102539,24.209138870239258,15.96343994140625,160.2139892578125,3.624640941619873,0.0,0.13743706047534943,98
1667889578.58003998,182859297,0,22.018238067626953,24.262264251708984,16.311450958251953,160.66952514648438,3.6346709728240967,0.0,0.13757365942001343,98
