timestamp,TimeUS,Instance,Volt,VoltR,Curr,CurrTot,EnrgTot,Temp,Res,RemPct
1673592272.67949009,173200514,0,24.759113311767578,24.804306030273438,0.3426925837993622,26.900678634643555,0.6682469844818115,0.0,0.13187426328659058,99
1673592272.77967405,173300698,0,24.796323776245117,24.851444244384766,0.41798263788223267,26.912311553955078,0.6685354113578796,0.0,0.13187426328659058,99
1673592272.87948298,173400507,0,24.81039810180664,24.87162971496582,0.46432286500930786,26.925186157226562,0.668854832649231,0.0,0.13187426328659058,99
1673592272.97960901,173500633,0,24.818439483642578,24.881168365478516,0.4756777584552765,26.938417434692383,0.6691831946372986,0.0,0.13187426328659058,99
1673592273.07948995,173600514,0,24.76233673095703,24.80875587463379,0.35200151801109314,26.948184967041016,0.6694250702857971,0.0,0.13187426328659058,99
1673592273.17964292,173700667,0,24.79268455505371,24.848857879638672,0.42596176266670227,26.960037231445312,0.6697189211845398,0.0,0.13187426328659058,99
1673592273.27950692,173800531,0,24.803695678710938,24.862661361694336,0.44713708758354187,26.972442626953125,0.6700266003608704,0.0,0.13187426328659058,99
1673592273.37960196,173900626,0,24.814321517944336,24.875207901000977,0.4616972506046295,26.985280990600586,0.6703451871871948,0.0,0.13187426328659058,99
1673592273.47949290,174000517,0,24.802452087402344,24.86044692993164,0.43977177143096924,26.99748420715332,0.6706478595733643,0.0,0.13187426328659058,99
1673592273.57961798,174100642,0,24.78272819519043,24.834774017333984,0.3946591019630432,27.008460998535156,0.6709198951721191,0.0,0.13187426328659058,99
1673592273.67955494,174200579,0,24.78751564025879,24.840087890625,0.39864861965179443,27.019529342651367,0.6711942553520203,0.0,0.13187426328659058,99
1673592273.77971101,174300735,0,24.812313079833984,24.87297821044922,0.46002641320228577,27.032329559326172,0.6715118288993835,0.0,0.13187426328659058,99
1673592273.87940812,174400432,0,24.81987762451172,24.883214950561523,0.4802810847759247,27.045631408691406,0.6718419790267944,0.0,0.13187426328659058,99
1673592273.97962093,174500645,0,24.81623649597168,24.878196716308594,0.4698468744754791,27.058712005615234,0.6721665859222412,0.0,0.13187426328659058,99
1673592274.07944202,174600466,0,24.791057586669922,24.845369338989258,0.4118448495864868,27.070133209228516,0.6724497079849243,0.0,0.13187426328659058,99
1673592274.17960501,174700629,0,24.771026611328125,24.81932258605957,0.36622071266174316,27.080324172973633,0.6727021336555481,0.0,0.13187426328659058,99
1673592274.27950001,174800524,0,24.799386978149414,24.8572998046875,0.43915799260139465,27.092510223388672,0.6730043888092041,0.0,0.13187426328659058,99
1673592274.37966609,174900690,0,24.815757751464844,24.877920150756836,0.4713813066482544,27.105627059936523,0.6733298897743225,0.0,0.13187426328659058,99
1673592274.47944999,175000474,0,24.822460174560547,24.88599967956543,0.48181551694869995,27.118982315063477,0.6736614108085632,0.0,0.13187426328659058,99
1673592274.57958603,175100610,0,24.765113830566406,24.811330795288086,0.35046708583831787,27.12873077392578,0.6739028692245483,0.0,0.13187426328659058,99
1673592274.67950296,175200527,0,24.801301956176758,24.858203887939453,0.43148577213287354,27.14070701599121,0.6741998791694641,0.0,0.13187426328659058,99
1673592274.77964592,175300670,0,24.811260223388672,24.870468139648438,0.4489784240722656,27.1531982421875,0.6745097637176514,0.0,0.13187426328659058,99
1673592274.87950206,175400526,0,24.76051902770996,24.954538345336914,1.526772141456604,27.1955509185791,0.6755584478378296,0.0,0.12707826495170593,99
1673592274.97961807,175500642,0,24.547405242919922,25.058088302612305,4.491012096405029,27.32045555114746,0.6786245703697205,0.0,0.11371210962533951,99
1673592275.07951593,175600540,0,24.625080108642578,24.91261863708496,2.5372891426086426,27.390869140625,0.6803585290908813,0.0,0.11332512646913528,99
1673592275.17961502,175700639,0,24.70231056213379,24.92502784729004,1.976057529449463,27.445812225341797,0.6817157864570618,0.0,0.11270833015441895,99
1673592275.27946091,175800485,0,24.699052810668945,24.93414306640625,2.099733829498291,27.504058837890625,0.6831544041633606,0.0,0.11196227371692657,99
1673592275.37962198,175900646,0,24.710542678833008,24.939481735229492,2.05891752243042,27.56134796142578,0.6845700144767761,0.0,0.11119400709867477,99
1673592275.47951007,176000534,0,24.72528648376465,24.945148468017578,1.9772849082946777,27.616212844848633,0.685926616191864,0.0,0.11119400709867477,99
1673592275.57963896,176100663,0,24.689193725585938,24.895627975463867,1.8483916521072388,27.66762924194336,0.6871960163116455,0.0,0.11168301850557327,99
1673592275.67944002,176200464,0,24.68622398376465,24.88953399658203,1.8112581968307495,27.717845916748047,0.6884356737136841,0.0,0.11224821209907532,99
1673592275.77971005,176300734,0,24.716670989990234,24.924150466918945,1.8483916521072388,27.769332885742188,0.6897082328796387,0.0,0.11224821209907532,99
1673592275.87951493,176400539,0,24.73603057861328,24.947845458984375,1.8870257139205933,27.821630477905273,0.6910018920898438,0.0,0.11224821209907532,99
1673592275.97958302,176500607,0,24.730262756347656,24.942977905273438,1.8950387239456177,27.874332427978516,0.6923052072525024,0.0,0.11224821209907532,99
1673592276.07946801,176600492,0,24.678279876708984,24.879316329956055,1.7910033464431763,27.924028396606445,0.6935316324234009,0.0,0.11224821209907532,99
1673592276.17963195,176700656,0,24.700777053833008,24.90822410583496,1.8453227281570435,27.97537612915039,0.6947999596595764,0.0,0.1124180257320404,99
1673592276.27944994,176800474,0,24.7131290435791,24.924060821533203,1.8763185739517212,28.02740478515625,0.6960857510566711,0.0,0.1124180257320404,99
1673592276.37963200,176900656,0,24.72806167602539,24.943443298339844,1.9159071445465088,28.080698013305664,0.697403609752655,0.0,0.1124180257320404,99
1673592276.47952390,177000548,0,24.705181121826172,24.91455078125,1.860053300857544,28.132341384887695,0.6986794471740723,0.0,0.11256100237369537,99
1673592276.57961893,177100643,0,24.677322387695312,24.879575729370117,1.7968343496322632,28.18230438232422,0.699912428855896,0.0,0.11256100237369537,99
1673592276.67952013,177200544,0,24.71935272216797,24.933696746826172,1.9042454957962036,28.235153198242188,0.7012187838554382,0.0,0.11256100237369537,99
1673592276.77960110,177300625,0,24.71135139465332,24.924448013305664,1.8931634426116943,28.28778839111328,0.7025194764137268,0.0,0.11256100237369537,99
1673592276.87948704,177400511,0,24.729021072387695,24.945783615112305,1.9257277250289917,28.341224670410156,0.7038409113883972,0.0,0.11256100237369537,99
1673592276.97958612,177500610,0,24.727201461791992,24.942649841308594,1.9140658378601074,28.39444923400879,0.7051570415496826,0.0,0.11256100237369537,99
1673592277.07942104,177600445,0,24.703649520874023,24.9138126373291,1.8671120405197144,28.446226119995117,0.7064360976219177,0.0,0.11256100237369537,99
1673592277.17964101,177700665,0,24.674257278442383,24.87616539001465,1.7937654256820679,28.496171951293945,0.7076684832572937,0.0,0.11256100237369537,99
1673592277.27945805,177800482,0,24.71101951599121,24.92218589782715,1.876011610031128,28.54819107055664,0.7089539170265198,0.0,0.11256100237369537,99
1673592277.37970209,177900726,0,24.729883193969727,24.945642471313477,1.9168277978897095,28.60157012939453,0.7102739810943604,0.0,0.11256100237369537,99
1673592277.47952795,178000552,0,24.732275009155273,24.947620391845703,1.9131451845169067,28.654619216918945,0.7115859985351562,0.0,0.11256100237369537,99
1673592277.57973003,178100754,0,24.674224853515625,24.874616622924805,1.7802963256835938,28.70413589477539,0.7128077745437622,0.0,0.11256100237369537,99
1673592277.67950892,178200533,0,24.6917781829834,24.897314071655273,1.82598876953125,28.754789352416992,0.714058518409729,0.0,0.11256100237369537,99
1673592277.77970195,178300726,0,24.71322250366211,24.924457550048828,1.876625418663025,28.80702781677246,0.7153494954109192,0.0,0.11256100237369537,99
1673592277.87951612,178400540,0,24.725095748901367,24.937885284423828,1.8904353380203247,28.859445571899414,0.7166455388069153,0.0,0.11256100237369537,99
1673592277.97973013,178500754,0,24.703935623168945,24.913616180419922,1.8628153800964355,28.911304473876953,0.7179266810417175,0.0,0.11256100237369537,99
1673592278.07952499,178600549,0,24.6687068939209,24.868473052978516,1.7747381925582886,28.960506439208984,0.7191404104232788,0.0,0.11256100237369537,99
1673592278.17964911,178700673,0,24.702117919921875,24.910282135009766,1.84931218624115,29.011943817138672,0.7204110622406006,0.0,0.11256281286478043,99
1673592278.27954412,178800568,0,24.71092414855957,24.921056747436523,1.8668049573898315,29.063749313354492,0.7216912508010864,0.0,0.11256281286478043,99
1673592278.37963796,178900662,0,24.72394561767578,24.944856643676758,1.9625542163848877,29.11832046508789,0.7230404615402222,0.0,0.11256281286478043,99
1673592278.47953606,179000560,0,24.645294189453125,25.0025634765625,3.232562780380249,29.208030700683594,0.7252513766288757,0.0,0.11052174121141434,99
1673592278.57961011,179100634,0,24.125967025756836,25.031879425048828,11.554059028625488,29.529239654541016,0.7330008745193481,0.0,0.07840648293495178,99
1673592278.67958999,179200614,0,23.65550994873047,25.029394149780273,18.3046932220459,30.03763771057129,0.7450273036956787,0.0,0.07505634427070618,99
1673592278.77967095,179300695,0,23.033308029174805,25.027822494506836,27.344411849975586,30.797887802124023,0.7625383734703064,0.0,0.07294048368930817,99
1673592278.87951112,179400535,0,22.504547119140625,25.02590560913086,35.836334228515625,31.791818618774414,0.7849063277244568,0.0,0.07035759836435318,99
1673592278.97973108,179500755,0,22.683195114135742,24.993906021118164,32.962013244628906,32.70952606201172,0.8057228922843933,0.0,0.07010222971439362,99
1673592279.07956791,179600592,0,23.03043556213379,24.914310455322266,26.86474609375,33.454612731933594,0.8228825330734253,0.0,0.07012444734573364,99
1673592279.17970109,179700725,0,23.174331665039062,24.94036293029785,25.20539665222168,34.1557502746582,0.8391309380531311,0.0,0.07006563246250153,99
1673592279.27956104,179800585,0,23.13486671447754,24.908355712890625,25.295827865600586,34.85748291015625,0.8553654551506042,0.0,0.07010994106531143,99
1673592279.37980390,179900828,0,23.18907356262207,24.93844223022461,24.970012664794922,35.55282974243164,0.8714898824691772,0.0,0.07005878537893295,99
1673592279.47953606,180000560,0,23.159013748168945,24.941381454467773,25.460729598999023,36.25823211669922,0.8878263235092163,0.0,0.07000460475683212,99
1673592279.57970405,180100728,0,22.993675231933594,24.834932327270508,26.200023651123047,36.9872932434082,0.9045900702476501,0.0,0.07027691602706909,99
1673592279.67954397,180200568,0,23.0882625579834,24.954084396362305,26.593761444091797,37.724891662597656,0.9216199517250061,0.0,0.07016011327505112,99
1673592279.77967691,180300701,0,22.98180389404297,24.838497161865234,26.37187957763672,38.45847702026367,0.9384790658950806,0.0,0.07040431350469589,99
1673592279.87954593,180400570,0,23.028139114379883,24.871707916259766,26.141714096069336,39.18373489379883,0.9551804065704346,0.0,0.07052207738161087,99
1673592279.97967005,180500694,0,22.97576904296875,24.866069793701172,26.757946014404297,39.92799377441406,0.9722803235054016,0.0,0.07064447551965714,99
1673592280.07966709,180600691,0,22.91307258605957,24.794729232788086,26.51383399963379,40.66453170776367,0.9891567230224609,0.0,0.07096885144710541,99
1673592280.17962599,180700650,0,22.860597610473633,24.7930850982666,27.117006301879883,41.41753387451172,1.0063707828521729,0.0,0.07126478850841522,99
1673592280.27956891,180800593,0,22.85370445251465,24.821720123291016,27.546344757080078,42.18232727050781,1.0238491296768188,0.0,0.07144381105899811,99
1673592280.37965608,180900680,0,22.869693756103516,24.827075958251953,27.34226417541504,42.942562103271484,1.0412355661392212,0.0,0.07158815860748291,99
1673592280.47960091,181000625,0,22.88166046142578,24.827211380004883,27.128055572509766,43.69576644897461,1.0584701299667358,0.0,0.07171730697154999,99
1673592280.57972693,181100751,0,22.8082275390625,24.772830963134766,27.287023544311523,44.45475387573242,1.0757813453674316,0.0,0.07199768722057343,99
1673592280.67955804,181200582,0,22.831972122192383,24.82293701171875,27.61447525024414,45.22058868408203,1.0932668447494507,0.0,0.07209857553243637,99
1673592280.77971196,181300736,0,22.830442428588867,24.8416748046875,27.882389068603516,45.99634552001953,1.1109777688980103,0.0,0.07213272899389267,99
1673592280.87956905,181400593,0,22.82603645324707,24.857975006103516,28.17669677734375,46.77797317504883,1.128819227218628,0.0,0.07211413979530334,99
1673592280.97978997,181500814,0,22.78042221069336,24.85190773010254,28.724456787109375,47.57770919799805,1.1470376253128052,0.0,0.07211576402187347,99
1673592281.07952905,181600553,0,22.69535255432129,24.797290802001953,29.079256057739258,48.38341522216797,1.1653233766555786,0.0,0.07228310406208038,99
1673592281.17975903,181700783,0,22.72130012512207,24.835304260253906,29.231779098510742,49.19734191894531,1.1838167905807495,0.0,0.07231869548559189,99
1673592281.27954602,181800570,0,22.761796951293945,24.818828582763672,28.411771774291992,49.984947204589844,1.2017440795898438,0.0,0.07240069657564163,99
1673592281.37965512,181900679,0,22.82938575744629,24.81460952758789,27.448139190673828,50.7482795715332,1.2191704511642456,0.0,0.07232638448476791,99
1673592281.47954202,182000566,0,22.862035751342773,24.83678436279297,27.30328941345215,51.505916595458984,1.2364915609359741,0.0,0.0723264217376709,99
1673592281.57963300,182100657,0,22.851119995117188,24.764440536499023,26.522871017456055,52.243385314941406,1.2533435821533203,0.0,0.0721384808421135,99
1673592281.67951202,182200536,0,22.843746185302734,24.73512077331543,26.299455642700195,52.973106384277344,1.2700132131576538,0.0,0.071916863322258,99
1673592281.77967596,182300700,0,22.8184757232666,24.72783660888672,26.549570083618164,53.711856842041016,1.2868703603744507,0.0,0.071916863322258,99
1673592281.87957311,182400597,0,22.810632705688477,24.692583084106445,26.168413162231445,54.438072204589844,1.3034358024597168,0.0,0.071916863322258,99
1673592281.97971296,182500737,0,22.804973602294922,24.688623428344727,26.192045211791992,55.16667556762695,1.320051670074463,0.0,0.071916863322258,99
1673592282.07960105,182600625,0,22.781614303588867,24.68155288696289,26.418527603149414,55.89978790283203,1.336753249168396,0.0,0.071916863322258,99
1673592282.17977500,182700799,0,22.83177947998047,24.73126220703125,26.426198959350586,56.63517761230469,1.3535435199737549,0.0,0.07187878340482712,99
1673592282.27953911,182800563,0,22.831493377685547,24.726543426513672,26.37986183166504,57.36628723144531,1.3702359199523926,0.0,0.07183698564767838,99
1673592282.37968612,182900710,0,22.818185806274414,24.697229385375977,26.157058715820312,58.093997955322266,1.3868409395217896,0.0,0.07183698564767838,99
1673592282.47959709,183000621,0,22.764572143554688,24.66559600830078,26.463027954101562,58.8284797668457,1.4035611152648926,0.0,0.07183698564767838,99
1673592282.57967591,183100700,0,22.712106704711914,24.620891571044922,26.57105255126953,59.56721496582031,1.4203393459320068,0.0,0.07183698564767838,99
1673592282.67953110,183200555,0,22.72425651550293,24.631723403930664,26.55270767211914,60.30377960205078,1.437077283859253,0.0,0.07183698564767838,99
1673592282.77975607,183300780,0,22.767539978027344,24.698091506958008,26.880701065063477,61.05220413208008,1.4541170597076416,0.0,0.07181921601295471,99
1673592282.87953901,183400563,0,22.784008026123047,24.73772430419922,27.203243255615234,61.8062629699707,1.4712975025177002,0.0,0.07181921601295471,99
1673592282.97979999,183500824,0,22.80229377746582,24.726673126220703,26.79477310180664,62.55256271362305,1.4883148670196533,0.0,0.07181921601295471,99
1673592283.07954097,183600565,0,22.69611930847168,24.63908576965332,26.979215621948242,63.300106048583984,1.5052812099456787,0.0,0.07201714813709259,99
1673592283.17967606,183700700,0,22.64202880859375,24.597352981567383,27.036602020263672,64.05220031738281,1.5223100185394287,0.0,0.07232139259576797,99
1673592283.27952504,183800549,0,22.635805130004883,24.59535789489746,26.990570068359375,64.80087280273438,1.5392568111419678,0.0,0.07260140031576157,99
1673592283.37964606,183900670,0,22.703779220581055,24.646821975708008,26.76316261291504,65.54524230957031,1.556156873703003,0.0,0.07260140031576157,99
1673592283.47958207,184000606,0,22.727556228637695,24.662551879882812,26.6628475189209,66.28546142578125,1.572980284690857,0.0,0.0725727379322052,99
1673592283.57968497,184100709,0,22.696409225463867,24.594831466674805,26.15890121459961,67.01290893554688,1.5894907712936401,0.0,0.0725727379322052,99
1673592283.67972612,184200750,0,22.776540756225586,24.663528442382812,25.99655532836914,67.73538970947266,1.60594642162323,0.0,0.07258608937263489,99
1673592283.77972507,184300749,0,22.824697494506836,24.653432846069336,25.199565887451172,68.4354248046875,1.6219245195388794,0.0,0.07257014513015747,99
1673592283.87956190,184400586,0,22.894968032836914,24.714174270629883,25.017887115478516,69.12928771972656,1.637810468673706,0.0,0.07271619886159897,99
1673592283.97974706,184500771,0,22.92828369140625,24.728330612182617,24.703327178955078,69.81681060791016,1.6535741090774536,0.0,0.07286659628152847,99
1673592284.07956696,184600591,0,22.863758087158203,24.641769409179688,24.43756103515625,70.49440002441406,1.6690664291381836,0.0,0.07275733351707458,99
1673592284.17968512,184700709,0,22.84547233581543,24.603626251220703,24.22611427307129,71.16826629638672,1.6844611167907715,0.0,0.07257269322872162,99
1673592284.27955103,184800575,0,22.863182067871094,24.61820411682129,24.2181339263916,71.84014129638672,1.6998224258422852,0.0,0.07246723771095276,99
1673592284.37971807,184900742,0,22.839460372924805,24.596485137939453,24.292299270629883,72.51609802246094,1.7152609825134277,0.0,0.07232844829559326,99
1673592284.47953796,185000562,0,22.844417572021484,24.59469985961914,24.23685646057129,73.18819427490234,1.7306145429611206,0.0,0.0722157284617424,99
1673592284.57968998,185100714,0,22.843557357788086,24.580005645751953,24.087400436401367,73.85836029052734,1.7459235191345215,0.0,0.07208949327468872,99
1673592284.67952991,185200554,0,22.884723663330078,24.61371421813965,23.987354278564453,74.52366638183594,1.7611488103866577,0.0,0.07207928597927094,99
1673592284.77965212,185300676,0,22.90281867980957,24.614858627319336,23.753812789916992,75.1843490600586,1.7762802839279175,0.0,0.07207431644201279,99
1673592284.87950993,185400534,0,22.92723274230957,24.648773193359375,23.857540130615234,75.84617614746094,1.7914541959762573,0.0,0.07215917110443115,99
1673592284.97967696,185500701,0,22.951356887817383,24.648244857788086,23.494796752929688,76.49995422363281,1.8064591884613037,0.0,0.07222402840852737,99
1673592285.07960200,185600626,0,22.97222900390625,24.650009155273438,23.212459564208984,77.1443099975586,1.8212615251541138,0.0,0.07227928191423416,99
1673592285.17971992,185700744,0,22.932209014892578,24.574026107788086,22.764095306396484,77.77743530273438,1.8357805013656616,0.0,0.07212308794260025,99
1673592285.27961493,185800639,0,22.948284149169922,24.586620330810547,22.743877410888672,78.40824890136719,1.8502565622329712,0.0,0.07203418761491776,99
1673592285.37967300,185900697,0,22.991567611694336,24.62160873413086,22.6216983795166,79.03739929199219,1.864721655845642,0.0,0.07205655425786972,99
1673592285.47956896,186000593,0,22.932880401611328,24.543621063232422,22.412094116210938,79.65936279296875,1.878985047340393,0.0,0.07186922430992126,99
1673592285.57970095,186100725,0,22.94839096069336,24.53554344177246,22.13558578491211,80.27509307861328,1.8931151628494263,0.0,0.07170141488313675,99
1673592285.67953801,186200562,0,22.97931480407715,24.590015411376953,22.460277557373047,80.89802551269531,1.907429814338684,0.0,0.07171329110860825,99
1673592285.77970791,186300732,0,22.995397567749023,24.60482406616211,22.427438735961914,81.52210998535156,1.9217809438705444,0.0,0.07176147401332855,99
1673592285.87955689,186400581,0,23.025747299194336,24.613122940063477,22.101829528808594,82.13516998291016,1.9358971118927002,0.0,0.07182104140520096,99
1673592285.97973895,186500763,0,23.052841186523438,24.604454040527344,21.596691131591797,82.73622131347656,1.949752926826477,0.0,0.07184493541717529,99
1673592286.07952809,186600552,0,22.999767303466797,24.546024322509766,21.562694549560547,83.33397674560547,1.9635010957717896,0.0,0.07170986384153366,99
1673592286.17965913,186700683,0,22.99999237060547,24.537456512451172,21.47853660583496,83.93138885498047,1.9772416353225708,0.0,0.0715814083814621,99
1673592286.27953291,186800557,0,23.02297019958496,24.546329498291016,21.304533004760742,84.52252197265625,1.9908512830734253,0.0,0.07150400429964066,99
1673592286.37973905,186900763,0,23.035799026489258,24.569616317749023,21.450611114501953,85.11964416503906,2.0046064853668213,0.0,0.0715046152472496,99
1673592286.47955990,187000584,0,23.03110694885254,24.54889678955078,21.24254035949707,85.70870971679688,2.0181734561920166,0.0,0.07145050913095474,99
1673592286.57971692,187100741,0,22.994056701660156,24.494020462036133,20.993040084838867,86.29280853271484,2.031604290008545,0.0,0.07145050913095474,99
1673592286.67953110,187200555,0,23.008705139160156,24.500106811523438,20.914169311523438,86.87272644042969,2.044947385787964,0.0,0.07131054997444153,99
1673592286.77973199,187300756,0,23.033981323242188,24.52562713623047,20.93012809753418,87.45533752441406,2.0583672523498535,0.0,0.07126788049936295,99
1673592286.87965012,187400674,0,23.06231689453125,24.5598201751709,20.995630264282227,88.03767395019531,2.0717973709106445,0.0,0.07132448256015778,99
1673592286.97968197,187500706,0,23.037425994873047,24.518266677856445,20.78097915649414,88.61558532714844,2.085110902786255,0.0,0.07125940918922424,99
1673592287.07955694,187600581,0,23.07208251953125,24.530052185058594,20.465805053710938,89.18341827392578,2.0982120037078857,0.0,0.07123930752277374,99
1673592287.17970300,187700727,0,23.07610321044922,24.508100509643555,20.122089385986328,89.74322509765625,2.1111302375793457,0.0,0.07116547971963882,99
1673592287.27955794,187800582,0,23.08749771118164,24.515697479248047,20.079431533813477,90.30022430419922,2.1239898204803467,0.0,0.07112745940685272,99
1673592287.37968707,187900711,0,23.12684440612793,24.5591983795166,20.113801956176758,90.85970306396484,2.1369287967681885,0.0,0.07121247053146362,99
1673592287.47954202,188000566,0,23.140056610107422,24.549285888671875,19.777759552001953,91.40833282470703,2.1496241092681885,0.0,0.07125326246023178,99
1673592287.57964802,188100672,0,23.1029109954834,24.495807647705078,19.578588485717773,91.95276641845703,2.1622021198272705,0.0,0.07114391028881073,99
1673592287.67954206,188200566,0,23.113059997558594,24.49874496459961,19.498695373535156,92.49390411376953,2.1747095584869385,0.0,0.0710654929280281,99
1673592287.77966905,188300693,0,23.140439987182617,24.528881072998047,19.532556533813477,93.0372085571289,2.187281847000122,0.0,0.0710834190249443,99
1673592287.87951112,188400535,0,23.269973754882812,24.55689811706543,18.081892013549805,93.53872680664062,2.1989521980285645,0.0,0.07117203623056412,99
1673592287.97964096,188500665,0,23.22899627685547,24.529085159301758,18.267866134643555,94.04685974121094,2.2107555866241455,0.0,0.07116805016994476,99
1673592288.07955694,188600581,0,23.018373489379883,24.507875442504883,20.90987205505371,94.62725067138672,2.2241153717041016,0.0,0.07123441249132156,99
1673592288.17972207,188700746,0,22.961503982543945,24.538253784179688,22.144485473632812,95.24343872070312,2.2382640838623047,0.0,0.07120278477668762,99
1673592288.27961612,188800640,0,22.97797203063965,24.546649932861328,22.047510147094727,95.8552474975586,2.252322196960449,0.0,0.07114992290735245,99
1673592288.37980509,188900829,0,22.94762420654297,24.530012130737305,22.239315032958984,96.47425079345703,2.266526699066162,0.0,0.0711527019739151,99
1673592288.47955799,189000582,0,22.898286819458008,24.495861053466797,22.419937133789062,97.09553527832031,2.2807531356811523,0.0,0.07125682383775711,99
1673592288.57970595,189100730,0,22.860692977905273,24.48111343383789,22.697193145751953,97.72699737548828,2.2951886653900146,0.0,0.0713929682970047,99
1673592288.67972207,189200746,0,22.881086349487305,24.52440643310547,23.020654678344727,98.36661529541016,2.309823751449585,0.0,0.07138455659151077,99
1673592288.77978802,189300812,0,22.889892578125,24.545591354370117,23.21706199645996,99.01200866699219,2.324596881866455,0.0,0.07131388783454895,99
1673592288.87954497,189400569,0,22.8841495513916,24.537078857421875,23.19036293029785,99.6546630859375,2.339303493499756,0.0,0.07127659767866135,99
1673592288.97972512,189500749,0,22.871416091918945,24.521894454956055,23.152002334594727,100.29898071289062,2.3540399074554443,0.0,0.07128880172967911,99
1673592289.07961392,189600638,0,22.84078025817871,24.491771697998047,23.126529693603516,100.94071960449219,2.3686978816986084,0.0,0.07138950377702713,99
1673592289.17967701,189700701,0,22.92876434326172,24.60460090637207,23.47454261779785,101.59326171875,2.383659839630127,0.0,0.07138950377702713,99
1673592289.27957010,189800594,0,23.052743911743164,24.785980224609375,24.278593063354492,102.26699829101562,2.399191379547119,0.0,0.07138950377702713,99
1673592289.37963605,189900660,0,23.08274269104004,24.8698787689209,25.033605575561523,102.96288299560547,2.4152543544769287,0.0,0.07138950377702713,99
1673592289.47958398,190000608,0,23.11688804626465,24.904085159301758,25.034460067749023,103.65794372558594,2.4313220977783203,0.0,0.07138950377702713,99
1673592289.57965708,190100681,0,23.108177185058594,24.861064910888672,24.553871154785156,104.34059143066406,2.447096824645996,0.0,0.07138950377702713,99
1673592289.67957807,190200602,0,23.15843963623047,24.896671295166016,24.348562240600586,105.0164566040039,2.4627490043640137,0.0,0.07138950377702713,99
1673592289.77974391,190300768,0,23.15566062927246,24.930194854736328,24.857078552246094,105.7081298828125,2.4787652492523193,0.0,0.07138950377702713,99
1673592289.87964702,190400671,0,23.075721740722656,24.917821884155273,25.80352210998535,106.42425537109375,2.4952902793884277,0.0,0.07138950377702713,99
1673592289.97980404,190500828,0,22.90865707397461,24.79837417602539,26.47622299194336,107.16091918945312,2.5121662616729736,0.0,0.07137412577867508,99
1673592290.07959199,190600616,0,22.844802856445312,24.701990127563477,25.92013931274414,107.87944793701172,2.528580904006958,0.0,0.07165033370256424,99
1673592290.17978692,190700811,0,22.85626792907715,24.743005752563477,26.287078857421875,108.61113739013672,2.545304536819458,0.0,0.07177433371543884,99
1673592290.27958608,190800610,0,22.78534698486328,24.655284881591797,25.91768455505371,109.32968139648438,2.5616767406463623,0.0,0.07214914262294769,99
1673592290.37967491,190900699,0,22.87582015991211,24.71904945373535,25.496633529663086,110.03860473632812,2.5778939723968506,0.0,0.07229308038949966,99
1673592290.47956705,191000591,0,22.769838333129883,24.586246490478516,25.1256046295166,110.73583984375,2.5937700271606445,0.0,0.07229308038949966,99
1673592290.57978511,191100809,0,22.651029586791992,24.45401382446289,24.939937591552734,111.43019104003906,2.6094977855682373,0.0,0.07229308038949966,99
1673592290.67955995,191200584,0,22.615510940551758,24.420381546020508,24.96602439880371,112.12210083007812,2.625145673751831,0.0,0.07229308038949966,99
1673592290.77969503,191300719,0,22.66079330444336,24.47376251220703,25.07803726196289,112.81979370117188,2.640955924987793,0.0,0.07229308038949966,99
1673592290.87958097,191400605,0,22.65849494934082,24.466228485107422,25.005613327026367,113.51365661621094,2.656677722930908,0.0,0.07229308038949966,99
1673592290.97965193,191500676,0,22.64809226989746,24.475189208984375,25.154315948486328,114.21293640136719,2.6725149154663086,0.0,0.07263556122779846,99
1673592291.07955408,191600578,0,22.562471389770508,24.377363204956055,24.986278533935547,114.9063720703125,2.6881606578826904,0.0,0.07263556122779846,99
1673592291.17966700,191700691,0,22.631017684936523,24.452085494995117,25.071285247802734,115.60359954833984,2.70393967628479,0.0,0.07263556122779846,99
1673592291.27955103,191800575,0,22.640209197998047,24.47300148010254,25.17470932006836,116.30219268798828,2.7197558879852295,0.0,0.07280294597148895,99
1673592291.37973189,191900756,0,22.77108383178711,24.59177589416504,24.94699478149414,116.99647521972656,2.735565423965454,0.0,0.07298242300748825,99
1673592291.47965407,192000678,0,22.847291946411133,24.600797653198242,23.972623825073242,117.66191101074219,2.7507686614990234,0.0,0.07314613461494446,99
1673592291.57972312,192100747,0,22.879648208618164,24.603527069091797,23.52425765991211,118.31587219238281,2.7657310962677,0.0,0.07328091561794281,99
1673592291.67958999,192200614,0,22.929243087768555,24.611337661743164,22.914777755737305,118.95159149169922,2.7803077697753906,0.0,0.07340655475854874,99
1673592291.77977610,192300800,0,22.931264877319336,24.555084228515625,22.135894775390625,119.56767272949219,2.7944352626800537,0.0,0.07335684448480606,99
1673592291.87959194,192400616,0,22.945709228515625,24.569461822509766,22.135278701782227,120.18145751953125,2.808519124984741,0.0,0.07335585355758667,99
1673592291.97981000,192500834,0,23.006790161132812,24.647573471069336,22.3052978515625,120.80245208740234,2.8228063583374023,0.0,0.07356027513742447,99
1673592292.07955098,192600575,0,22.948867797851562,24.5539493560791,21.8455753326416,121.40775299072266,2.8366973400115967,0.0,0.0734739676117897,99
1673592292.17972612,192700750,0,22.968782424926758,24.56392478942871,21.72251319885254,122.01226043701172,2.8505821228027344,0.0,0.07343271374702454,99
1673592292.27954793,192800572,0,22.998842239379883,24.588153839111328,21.63382339477539,122.61217498779297,2.864379644393921,0.0,0.07346417754888535,99
1673592292.37967110,192900695,0,23.020383834838867,24.61086654663086,21.624923706054688,123.21365356445312,2.8782260417938232,0.0,0.0735485851764679,99
1673592292.47955513,193000579,0,23.034076690673828,24.594558715820312,21.210317611694336,123.80218505859375,2.891782283782959,0.0,0.0735718235373497,99
1673592292.57965708,193100681,0,23.049104690551758,24.614452362060547,21.25604248046875,124.3932876586914,2.9054067134857178,0.0,0.07364244014024734,99
1673592292.67966104,193200685,0,22.97072982788086,24.52634048461914,21.17464828491211,124.9815444946289,2.918919324874878,0.0,0.07346567511558533,99
1673592292.77965999,193300684,0,22.99836540222168,24.561094284057617,21.28519630432129,125.57283782958984,2.932518243789673,0.0,0.07341855019330978,99
1673592292.87961912,193400643,0,23.01396942138672,24.592744827270508,21.49020004272461,126.16938781738281,2.9462473392486572,0.0,0.07346489280462265,99
1673592292.97976899,193500793,0,23.038480758666992,24.60544204711914,21.30913734436035,126.76244354248047,2.9599103927612305,0.0,0.07353474944829941,99
1673592293.07966089,193600685,0,22.993196487426758,24.58974266052246,21.707475662231445,127.36482238769531,2.9737610816955566,0.0,0.07354825735092163,99
1673592293.17971206,193700736,0,22.947912216186523,24.55209732055664,21.7817440032959,127.97022247314453,2.9876537322998047,0.0,0.0736481249332428,99
1673592293.27955794,193800582,0,22.99750328063965,24.59531021118164,21.68476676940918,128.5717010498047,3.001486301422119,0.0,0.07368336617946625,99
1673592293.37976694,193900791,0,23.058298110961914,24.628358840942383,21.275070190429688,129.16395568847656,3.0151426792144775,0.0,0.07379813492298126,99
1673592293.47959495,194000619,0,23.033811569213867,24.613346099853516,21.388790130615234,129.75711059570312,3.0288054943084717,0.0,0.07384873926639557,99
1673592293.57977200,194100796,0,22.991567611694336,24.61232566833496,21.959434509277344,130.3682098388672,3.042855739593506,0.0,0.07380688190460205,99
1673592293.67971396,194200738,0,23.02699089050293,24.59017562866211,21.186687469482422,130.95643615722656,3.056400775909424,0.0,0.07378142327070236,99
1673592293.77979112,194300815,0,23.015501022338867,24.555740356445312,20.90711212158203,131.53768920898438,3.0697786808013916,0.0,0.07367061078548431,99
1673592293.87955809,194400582,0,23.040203094482422,24.631877899169922,21.605283737182617,132.13648986816406,3.0835750102996826,0.0,0.07367061078548431,99
1673592293.97969103,194500715,0,23.032543182373047,24.63692283630371,21.777753829956055,132.74227905273438,3.0975279808044434,0.0,0.07367061078548431,99
1673592294.07956100,194600585,0,23.017322540283203,24.630769729614258,21.900815963745117,133.34988403320312,3.111513376235962,0.0,0.07367061078548431,99
1673592294.17965102,194700675,0,22.923208236694336,24.532888412475586,21.784198760986328,133.95559692382812,3.1253983974456787,0.0,0.07389213889837265,99
1673592294.27958393,194800608,0,22.97945213317871,24.612707138061523,22.115434646606445,134.56954956054688,3.1395065784454346,0.0,0.07385140657424927,99
1673592294.37967300,194900697,0,22.927804946899414,24.547250747680664,21.88148307800293,135.17796325683594,3.153456211090088,0.0,0.07400984317064285,99
1673592294.47964597,195000670,0,22.948867797851562,24.58135223388672,22.045976638793945,135.7902374267578,3.1675071716308594,0.0,0.07404906302690506,99
1673592294.57978392,195100808,0,22.92397689819336,24.570133209228516,22.210161209106445,136.40798950195312,3.181668519973755,0.0,0.0741172581911087,99
1673592294.67961502,195200639,0,22.913349151611328,24.562044143676758,22.21906089782715,137.0240936279297,3.1957855224609375,0.0,0.07420183718204498,99
1673592294.77976394,195300788,0,22.86107635498047,24.476842880249023,21.775300979614258,137.63011169433594,3.209639549255371,0.0,0.07420183718204498,99
1673592294.87957191,195400596,0,22.915550231933594,24.55318260192871,22.056102752685547,138.2416534423828,3.2236533164978027,0.0,0.07424850016832352,99
1673592294.97976112,195500785,0,22.88347816467285,24.52267837524414,22.03799819946289,138.8550262451172,3.23768949508667,0.0,0.07438062131404877,99
1673592295.07955098,195600575,0,22.929338455200195,24.572277069091797,22.097225189208984,139.4676055908203,3.2517354488372803,0.0,0.07435042411088943,99
1673592295.17970705,195700731,0,22.861160278320312,24.494348526000977,21.966081619262695,140.07876586914062,3.26570725440979,0.0,0.07435042411088943,99
1673592295.27957392,195800598,0,22.846906661987305,24.47524070739746,21.900815963745117,140.68626403808594,3.2795865535736084,0.0,0.07435042411088943,99
1673592295.37975907,195900783,0,22.766393661499023,24.454179763793945,22.6235408782959,141.31600952148438,3.2939233779907227,0.0,0.0746031254529953,99
1673592295.47955894,196000583,0,22.72072410583496,24.53130340576172,24.27122688293457,141.9889373779297,3.3092126846313477,0.0,0.07459774613380432,99
1673592295.57976294,196100787,0,22.623931884765625,24.39992332458496,23.68445587158203,142.64816284179688,3.324126958847046,0.0,0.07498552650213242,99
1673592295.67955995,196200584,0,22.645187377929688,24.518383026123047,24.983821868896484,143.34088134765625,3.339813470840454,0.0,0.0749763622879982,99
1673592295.77970505,196300729,0,22.57032012939453,24.442855834960938,24.902496337890625,144.03367614746094,3.35545015335083,0.0,0.07519470155239105,99
1673592295.87956691,196400591,0,22.535663604736328,24.437557220458984,25.22227668762207,144.7333984375,3.371218681335449,0.0,0.0754053145647049,99
1673592295.97969794,196500722,0,22.490337371826172,24.372997283935547,24.841629028320312,145.42437744140625,3.386759042739868,0.0,0.07578648626804352,99
1673592296.07963300,196600657,0,22.514888763427734,24.422168731689453,25.102588653564453,146.1212921142578,3.4024500846862793,0.0,0.07597938179969788,99
1673592296.17975092,196700775,0,22.487987518310547,24.507966995239258,26.615856170654297,146.86155700683594,3.4190969467163086,0.0,0.07589380443096161,99
1673592296.27956891,196800593,0,22.560651779174805,24.57775115966797,26.678768157958984,147.60134887695312,3.4357869625091553,0.0,0.07560690492391586,99
1673592296.37969708,196900721,0,22.674577713012695,24.553674697875977,24.801223754882812,148.2912139892578,3.4514291286468506,0.0,0.07576631009578705,99
1673592296.47958803,197000612,0,22.74370002746582,24.573545455932617,24.09507179260254,148.9598388671875,3.4666361808776855,0.0,0.07594271004199982,99
1673592296.57974601,197100770,0,22.745235443115234,24.527816772460938,23.467178344726562,149.61279296875,3.48148775100708,0.0,0.07596062868833542,99
1673592296.67954707,197200571,0,22.790996551513672,24.552509307861328,23.165813446044922,150.25506591796875,3.4961256980895996,0.0,0.07603932172060013,99
1673592296.77974701,197300771,0,22.812440872192383,24.56737518310547,23.04888916015625,150.8966522216797,3.5107617378234863,0.0,0.07613968104124069,99
1673592296.87964392,197400668,0,22.843608856201172,24.59409523010254,22.94573974609375,151.53341674804688,3.5253078937530518,0.0,0.07628807425498962,99
1673592296.97968411,197500708,0,22.828622817993164,24.54581069946289,22.512447357177734,152.15907287597656,3.53959059715271,0.0,0.07627728581428528,99
1673592297.07955909,197600583,0,22.830249786376953,24.493125915527344,21.84250831604004,152.76510620117188,3.5534262657165527,0.0,0.07613027095794678,99
1673592297.17971706,197700741,0,22.826515197753906,24.489421844482422,21.878721237182617,153.3738555908203,3.567322015762329,0.0,0.07600565254688263,99
1673592297.27952409,197800548,0,22.820005416870117,24.50060272216797,22.131290435791016,153.9874725341797,3.581324815750122,0.0,0.07593763619661331,99
1673592297.37974596,197900770,0,22.81540870666504,24.50636863708496,22.27890396118164,154.6077117919922,3.595475912094116,0.0,0.07589956372976303,99
1673592297.47958207,198000606,0,22.795209884643555,24.4713134765625,22.11870765686035,155.22120666503906,3.6094605922698975,0.0,0.07577760517597198,99
1673592297.57970691,198100731,0,22.8220157623291,24.48102569580078,21.913400650024414,155.83071899414062,3.623370885848999,0.0,0.07570755481719971,99
1673592297.67964697,198200671,0,22.863075256347656,24.530654907226562,22.004613876342773,156.44163513183594,3.637338399887085,0.0,0.0757831558585167,99
1673592297.77978992,198300814,0,22.89468002319336,24.632978439331055,22.937793731689453,157.0797576904297,3.6519479751586914,0.0,0.0757831558585167,99
1673592297.87956810,198400592,0,22.94599723815918,24.710668563842773,23.28580665588379,157.72520446777344,3.6667585372924805,0.0,0.0757831558585167,99
1673592297.97966695,198500691,0,23.07361602783203,24.799331665039062,22.77176856994629,158.35842895507812,3.6813693046569824,0.0,0.0757831558585167,99
1673592298.07962799,198600652,0,23.092092514038086,24.797592163085938,22.35133171081543,158.97911071777344,3.695702075958252,0.0,0.07630416005849838,99
1673592298.17975998,198700784,0,23.087783813476562,24.816444396972656,22.519813537597656,159.60519409179688,3.7101571559906006,0.0,0.07676175981760025,99
1673592298.27955699,198800581,0,23.099750518798828,24.863393783569336,22.975542068481445,160.2425079345703,3.7248787879943848,0.0,0.07676175981760025,99
1673592298.37972593,198900750,0,23.093721389770508,24.89399528503418,23.452754974365234,160.89512634277344,3.739950180053711,0.0,0.07676175981760025,99
1673592298.47960711,199000631,0,23.011363983154297,24.81601333618164,23.509733200073242,161.54745483398438,3.7549610137939453,0.0,0.07676175981760025,99
1673592298.57967401,199100698,0,23.020383834838867,24.78023338317871,22.92613410949707,162.1847686767578,3.76963210105896,0.0,0.07676175981760025,99
1673592298.67966700,199200691,0,22.859066009521484,24.640663146972656,23.104127883911133,162.82656860351562,3.7843029499053955,0.0,0.07711167633533478,99
1673592298.77968907,199300713,0,22.891138076782227,24.71840476989746,23.671871185302734,163.48431396484375,3.7993593215942383,0.0,0.07719146460294724,99
1673592298.87952900,199400553,0,22.86184310913086,24.64986228942871,23.08111000061035,164.12448120117188,3.813994884490967,0.0,0.07746681571006775,99
1673592298.97979498,199500819,0,22.903871536254883,24.639970779418945,22.41086769104004,164.7487030029297,3.82829213142395,0.0,0.07746681571006775,99
1673592299.07956409,199600588,0,22.925125122070312,24.591922760009766,21.516286849975586,165.3450469970703,3.841963291168213,0.0,0.07746681571006775,99
1673592299.17978406,199700808,0,22.98946189880371,24.588531494140625,20.71776008605957,165.92176818847656,3.85522198677063,0.0,0.07718347758054733,99
1673592299.27963209,199800656,0,22.985536575317383,24.569725036621094,20.59745979309082,166.49317932128906,3.868356227874756,0.0,0.0769118219614029,99
1673592299.37973809,199900762,0,22.998493194580078,24.57971954345703,20.608951568603516,167.06629943847656,3.8815371990203857,0.0,0.07672519236803055,99
1673592299.47954392,200000568,0,23.03685188293457,24.59248924255371,20.305301666259766,167.6292724609375,3.8945062160491943,0.0,0.07661233842372894,99
1673592299.57973599,200100760,0,22.964954376220703,24.530794143676758,20.438491821289062,168.1981658935547,3.9075706005096436,0.0,0.07661233842372894,98
1673592299.67961907,200200643,0,22.94762420654297,24.552352905273438,20.94608497619629,168.7793731689453,3.920907735824585,0.0,0.07661233842372894,98
1673592299.77977300,200300797,0,23.043458938598633,24.58771514892578,20.165666580200195,169.34043884277344,3.9338364601135254,0.0,0.07657846808433533,98
1673592299.87957811,200400602,0,23.04250144958496,24.569692611694336,19.962200164794922,169.89390563964844,3.946589946746826,0.0,0.0765041783452034,98
1673592299.97974110,200500765,0,22.987546920776367,24.573740005493164,20.73341178894043,170.47080993652344,3.9598517417907715,0.0,0.0765041783452034,98
1673592300.07958412,200600608,0,23.003629684448242,24.53763771057129,20.086795806884766,171.0279541015625,3.972667932510376,0.0,0.07636900246143341,98
1673592300.17964602,200700670,0,23.076677322387695,24.615835189819336,20.127817153930664,171.5874481201172,3.985579252243042,0.0,0.07646918296813965,98
1673592300.27955604,200800580,0,22.89602279663086,24.54489517211914,21.52825355529785,172.18496704101562,3.999260187149048,0.0,0.0765911266207695,98
1673592300.37965512,200900679,0,22.969547271728516,24.6721134185791,22.30805778503418,172.8052978515625,4.0135087966918945,0.0,0.07632067799568176,98
1673592300.47954512,201000569,0,22.976442337036133,24.58133888244629,21.028331756591797,173.38880920410156,4.026915550231934,0.0,0.07632067799568176,98
1673592300.57970405,201100728,0,22.971940994262695,24.623798370361328,21.672183990478516,173.99183654785156,4.040768146514893,0.0,0.07622018456459045,98
1673592300.67962098,201200645,0,22.892671585083008,24.55387306213379,21.760875701904297,174.59585571289062,4.054595947265625,0.0,0.07633892446756363,98
1673592300.77973604,201300760,0,22.941688537597656,24.59280014038086,21.631677627563477,175.1974639892578,4.0683979988098145,0.0,0.07632844895124435,98
1673592300.87961698,201400641,0,22.94341278076172,24.62728500366211,22.093236923217773,175.81048583984375,4.082462787628174,0.0,0.07621660828590393,98
1673592300.97978711,201500811,0,22.95136833190918,24.620420455932617,21.92141342163086,176.42050170898438,4.096463680267334,0.0,0.0761379525065422,98
1673592301.07956791,201600592,0,22.935176849365234,24.58932113647461,21.719139099121094,177.0225372314453,4.110271453857422,0.0,0.07616065442562103,98
1673592301.17975903,201700783,0,22.903583526611328,24.534635543823242,21.415931701660156,177.6186065673828,4.1239237785339355,0.0,0.07616065442562103,98
1673592301.27957797,201800602,0,22.930967330932617,24.60185432434082,21.952680587768555,178.22718811035156,4.137879371643066,0.0,0.07611309736967087,98
1673592301.37978005,201900804,0,22.949058532714844,24.61522674560547,21.890689849853516,178.8365020751953,4.151862621307373,0.0,0.07611309736967087,98
1673592301.47956491,202000589,0,22.92637062072754,24.547527313232422,21.29931640625,179.42710876464844,4.165402889251709,0.0,0.07611309736967087,98
1673592301.57974005,202100764,0,22.94207191467285,24.553096771240234,21.189449310302734,180.01678466796875,4.17893123626709,0.0,0.07602954655885696,98
1673592301.67961693,202200641,0,22.96246337890625,24.583824157714844,21.321104049682617,180.6082305908203,4.192512512207031,0.0,0.07604483515024185,98
1673592301.77968597,202300710,0,22.94094467163086,24.539810180664062,21.025299072265625,181.19284057617188,4.205924034118652,0.0,0.07604483515024185,98
1673592301.87957096,202400595,0,23.0377140045166,24.634458541870117,20.952529907226562,181.77423095703125,4.21931791305542,0.0,0.07620768249034882,98
1673592301.97965193,202500676,0,22.9959716796875,24.540071487426758,20.2939453125,182.3384552001953,4.232292652130127,0.0,0.07608667761087418,98
1673592302.07952690,202600551,0,22.9840030670166,24.52585220336914,20.29977798461914,182.90167236328125,4.245237827301025,0.0,0.07595397531986237,98
1673592302.17969608,202700720,0,22.99453353881836,24.54227066040039,20.39368438720703,183.4691619873047,4.258286952972412,0.0,0.07589294016361237,98
1673592302.27954912,202800573,0,22.999799728393555,24.543994903564453,20.358699798583984,184.03390502929688,4.271275997161865,0.0,0.07584944367408752,98
1673592302.37974095,202900765,0,23.02622413635254,24.553253173828125,20.134977340698242,184.59432983398438,4.284180641174316,0.0,0.07583963871002197,98
1673592302.47965002,203000674,0,23.040775299072266,24.574434280395508,20.209550857543945,185.15524291992188,4.297104358673096,0.0,0.07588786631822586,98
1673592302.57973194,203100756,0,22.95232391357422,24.48433494567871,20.18783187866211,185.71652221679688,4.3099870681762695,0.0,0.07588786631822586,98
1673592302.67955899,203200583,0,23.00688362121582,24.544435501098633,20.262950897216797,186.2784423828125,4.322915077209473,0.0,0.07587994635105133,98
1673592302.77982306,203300847,0,22.99415397644043,24.523820877075195,20.175180435180664,186.84039306640625,4.335836410522461,0.0,0.07581924647092819,98
1673592302.87955213,203400576,0,23.046043395996094,24.602840423583984,20.53301429748535,187.4092559814453,4.348946571350098,0.0,0.07581924647092819,98
1673592302.97970510,203500729,0,23.02680015563965,24.549070358276367,20.07973861694336,187.96792602539062,4.361810684204102,0.0,0.07581128180027008,98
1673592303.07957911,203600603,0,23.067394256591797,24.513381958007812,19.098920822143555,188.49783325195312,4.374034404754639,0.0,0.07571043819189072,98
1673592303.17979193,203700816,0,23.141204833984375,24.511127471923828,18.114728927612305,189.00213623046875,4.385704517364502,0.0,0.0756247416138649,98
1673592303.27956295,203800587,0,23.099559783935547,24.516183853149414,18.745691299438477,189.52169799804688,4.397706031799316,0.0,0.07557068020105362,98
1673592303.37968898,203900713,0,23.119760513305664,24.568584442138672,19.147409439086914,190.05426025390625,4.4100189208984375,0.0,0.07566685229539871,98
1673592303.47961807,204000642,0,23.11922836303711,24.587257385253906,19.36911964416504,190.5919647216797,4.422450065612793,0.0,0.07579220086336136,98
1673592303.57964611,204100670,0,23.05398941040039,24.53093910217285,19.48682975769043,191.1334686279297,4.434933662414551,0.0,0.07579220086336136,98
1673592303.67964005,204200664,0,23.027374267578125,24.497835159301758,19.401206970214844,191.67239379882812,4.447343826293945,0.0,0.07579220086336136,98
1673592303.77971292,204300737,0,23.03417205810547,24.55817222595215,20.123010635375977,192.23182678222656,4.460229873657227,0.0,0.07573419064283371,98
1673592303.87963390,204400658,0,23.042213439941406,24.56509780883789,20.12730598449707,192.79052734375,4.4731035232543945,0.0,0.07566259056329727,98
1673592303.97975612,204500780,0,23.043649673461914,24.557849884033203,20.023578643798828,193.3474578857422,4.485937118530273,0.0,0.07562090456485748,98
1673592304.07955599,204600580,0,23.005544662475586,24.515058517456055,19.937955856323242,193.90023803710938,4.498653888702393,0.0,0.07571060210466385,98
1673592304.17970109,204700725,0,23.041065216064453,24.584022521972656,20.413326263427734,194.4681396484375,4.5117387771606445,0.0,0.0755857601761818,98
1673592304.27962303,204800647,0,22.98274803161621,24.52775001525879,20.425159454345703,195.0351104736328,4.524769306182861,0.0,0.07564214617013931,98
1673592304.37975907,204900783,0,23.01894760131836,24.59893798828125,20.932275772094727,195.61740112304688,4.538173198699951,0.0,0.07548101991415024,98
1673592304.47956109,205000585,0,22.975387573242188,24.538860321044922,20.703643798828125,196.19140625,4.551361083984375,0.0,0.07551681250333786,98
1673592304.57981300,205100837,0,22.982376098632812,24.54665184020996,20.711929321289062,196.7682342529297,4.564618110656738,0.0,0.07552535086870193,98
1673592304.67955112,205200575,0,23.017990112304688,24.55303955078125,20.32494354248047,197.3313751220703,4.577580451965332,0.0,0.07552535086870193,98
1673592304.77968192,205300706,0,23.07438087463379,24.62574577331543,20.540990829467773,197.9027557373047,4.59076452255249,0.0,0.07552535086870193,98
1673592304.87955594,205400580,0,23.023353576660156,24.579345703125,20.615873336791992,198.4747314453125,4.603933334350586,0.0,0.07547544687986374,98
1673592304.97970891,205500733,0,22.976537704467773,24.537250518798828,20.656381607055664,199.04945373535156,4.617138385772705,0.0,0.07555599510669708,98
1673592305.07953596,205600560,0,22.992534637451172,24.553709030151367,20.656347274780273,199.62229919433594,4.630309581756592,0.0,0.07557844370603561,98
1673592305.17965198,205700676,0,22.962560653686523,24.550670623779297,21.004701614379883,200.20648193359375,4.643723964691162,0.0,0.0756073147058487,98
1673592305.27968001,205800704,0,22.959495544433594,24.591829299926758,21.617252349853516,200.8071746826172,4.657515525817871,0.0,0.0755106583237648,98
1673592305.37972713,205900751,0,22.90118980407715,24.533733367919922,21.595155715942383,201.40736389160156,4.671260833740234,0.0,0.07559770345687866,98
1673592305.47965193,206000676,0,22.981229782104492,24.618206024169922,21.653770446777344,202.00845336914062,4.685074806213379,0.0,0.07559770345687866,98
1673592305.57974911,206100773,0,22.94944190979004,24.596494674682617,21.810285568237305,202.61492919921875,4.69899320602417,0.0,0.07551727443933487,98
1673592305.67955589,206200580,0,22.976728439331055,24.596134185791016,21.44416618347168,203.20950317382812,4.7126545906066895,0.0,0.07551727443933487,98
1673592305.77975106,206300775,0,22.92953109741211,24.559436798095703,21.568763732910156,203.80984497070312,4.7264204025268555,0.0,0.0755678340792656,98
1673592305.87959790,206400622,0,22.987749099731445,24.6192569732666,21.58997344970703,204.40867614746094,4.7401862144470215,0.0,0.0755678340792656,98
1673592305.97977304,206500797,0,22.95987892150879,24.559125900268555,21.163055419921875,204.9976348876953,4.753708362579346,0.0,0.0755678340792656,98
1673592306.07954311,206600567,0,22.970314025878906,24.553958892822266,20.974319458007812,205.57896423339844,4.767061710357666,0.0,0.07550401240587234,98
1673592306.17975593,206700780,0,22.984865188598633,24.515172958374023,20.308984756469727,206.14434814453125,4.780056953430176,0.0,0.0753512978553772,98
1673592306.27959204,206800616,0,23.07600975036621,24.569040298461914,19.808448791503906,206.6937255859375,4.792734622955322,0.0,0.07537345588207245,98
1673592306.37978196,206900806,0,23.150972366333008,24.61098289489746,19.33737564086914,207.23193359375,4.805194854736328,0.0,0.0755019560456276,98
1673592306.47955394,207000578,0,23.14139747619629,24.59518051147461,19.239784240722656,207.76519775390625,4.817535400390625,0.0,0.07556129992008209,98
1673592306.57964802,207100672,0,23.092092514038086,24.560855865478516,19.44938850402832,208.30601501464844,4.830023765563965,0.0,0.07551717013120651,98
1673592306.67958713,207200611,0,23.035724639892578,24.59210777282715,20.624296188354492,208.87860107421875,4.84321403503418,0.0,0.07546355575323105,98
1673592306.77969003,207300714,0,23.021438598632812,24.639057159423828,21.488971710205078,209.47618103027344,4.856971263885498,0.0,0.07527671009302139,98
1673592306.87960792,207400632,0,22.99032211303711,24.620132446289062,21.68231201171875,210.07798767089844,4.87080717086792,0.0,0.07516773790121078,98
1673592306.97972393,207500748,0,22.99999237060547,24.58336067199707,21.060863494873047,210.6637725830078,4.884280204772949,0.0,0.07518060505390167,98
1673592307.07966805,207600692,0,22.939773559570312,24.52128791809082,20.981685638427734,211.24632263183594,4.897643566131592,0.0,0.07537596672773361,98
1673592307.17976213,207700786,0,22.935850143432617,24.50043296813965,20.757043838500977,211.82350158691406,4.910881519317627,0.0,0.07537596672773361,98
1673592307.27956605,207800590,0,22.939390182495117,24.542665481567383,21.250518798828125,212.41268920898438,4.924396991729736,0.0,0.07544637471437454,98
1673592307.37981200,207900836,0,23.041065216064453,24.564945220947266,20.197277069091797,212.9751434326172,4.937356472015381,0.0,0.07544974982738495,98
1673592307.47961998,208000644,0,23.094762802124023,24.494754791259766,18.60053253173828,213.49087524414062,4.949267387390137,0.0,0.07526621967554092,98
1673592307.57969093,208100715,0,23.087879180908203,24.467531204223633,18.383256912231445,214.00192260742188,4.961066246032715,0.0,0.07504935562610626,98
1673592307.67955589,208200580,0,23.152023315429688,24.523529052734375,18.280141830444336,214.50906372070312,4.97280740737915,0.0,0.07502704113721848,98
1673592307.77974200,208300766,0,23.134790420532227,24.461355209350586,17.724367141723633,215.0023651123047,4.984219551086426,0.0,0.07484409213066101,98
1673592307.87957001,208400594,0,23.187734603881836,24.449174880981445,16.89423179626465,215.4708251953125,4.995081901550293,0.0,0.07466686517000198,98
1673592307.97977591,208500800,0,23.212434768676758,24.426179885864258,16.299482345581055,215.92462158203125,5.005615711212158,0.0,0.07446521520614624,98
1673592308.07955790,208600582,0,23.146472930908203,24.41427230834961,17.06915855407715,216.39761352539062,5.016563892364502,0.0,0.07427430897951126,98
1673592308.17974210,208700766,0,23.017799377441406,24.342971801757812,17.841598510742188,216.89431762695312,5.027997016906738,0.0,0.07427430897951126,98
1673592308.27958512,208800609,0,23.040298461914062,24.43807601928711,18.81044578552246,217.41604614257812,5.040018081665039,0.0,0.07430855184793472,98
1673592308.37967801,208900702,0,23.052316665649414,24.429706573486328,18.522449493408203,217.9310760498047,5.051890850067139,0.0,0.07436322420835495,98
1673592308.47958493,209000609,0,23.086444854736328,24.462635040283203,18.506317138671875,218.4447021484375,5.063748359680176,0.0,0.07436322420835495,98
1673592308.57971191,209100736,0,23.017322540283203,24.38335609436035,18.369752883911133,218.95567321777344,5.075509548187256,0.0,0.07436322420835495,98
1673592308.67972398,209200748,0,23.02450180053711,24.408050537109375,18.583349227905273,219.47198486328125,5.08739709854126,0.0,0.0744510367512703,98
1673592308.77973700,209300761,0,23.02880859375,24.43634605407715,18.907115936279297,219.99729919433594,5.099494457244873,0.0,0.07444489002227783,98
1673592308.87957597,209400600,0,23.03943634033203,24.497234344482422,19.631067276000977,220.54177856445312,5.112038612365723,0.0,0.07425972819328308,98
1673592308.97973204,209500756,0,23.001811981201172,24.47620391845703,19.881486892700195,221.09495544433594,5.124762535095215,0.0,0.07415901869535446,98
1673592309.07962990,209600654,0,22.979793548583984,24.428617477416992,19.523042678833008,221.63674926757812,5.137212753295898,0.0,0.074210986495018,98
1673592309.17970395,209700728,0,22.958600997924805,24.412240982055664,19.563140869140625,222.18060302734375,5.1496992111206055,0.0,0.07430505752563477,98
1673592309.27954698,209800571,0,22.966869354248047,24.482864379882812,20.43695640563965,222.74745178222656,5.162717819213867,0.0,0.07417907565832138,98
1673592309.37973595,209900760,0,22.96169662475586,24.50428581237793,20.844505310058594,223.32760620117188,5.176039218902588,0.0,0.07400455325841904,98
1673592309.47957492,210000599,0,22.967727661132812,24.499881744384766,20.7429256439209,223.90292358398438,5.189252853393555,0.0,0.07386389374732971,98
1673592309.57967710,210100701,0,22.973186492919922,24.466094970703125,20.2181453704834,224.46514892578125,5.202168941497803,0.0,0.07383999228477478,98
1673592309.67957711,210200601,0,22.967632293701172,24.44547462463379,20.003324508666992,225.02027893066406,5.214919090270996,0.0,0.07387986779212952,98
1673592309.77972293,210300747,0,22.876108169555664,24.39972496032715,20.575363159179688,225.5926971435547,5.22801399230957,0.0,0.07405054569244385,98
1673592309.87954593,210400570,0,22.890085220336914,24.413288116455078,20.539152145385742,226.16226196289062,5.24105167388916,0.0,0.07416097819805145,98
1673592309.97976303,210500787,0,22.88860511779785,24.388633728027344,20.180330276489258,226.72401428222656,5.253909587860107,0.0,0.07433125376701355,98
1673592310.07966304,210600687,0,22.869979858398438,24.393207550048828,20.454757690429688,227.291748046875,5.26689338684082,0.0,0.07446816563606262,98
1673592310.17973709,210700761,0,22.82661247253418,24.364070892333984,20.588560104370117,227.86412048339844,5.279958724975586,0.0,0.07467535138130188,98
1673592310.27965498,210800679,0,22.84307861328125,24.45326042175293,21.585948944091797,228.46322631835938,5.293644428253174,0.0,0.07459401339292526,98
1673592310.37976313,210900787,0,22.83819580078125,24.4589900970459,21.754125595092773,229.06802368164062,5.307456970214844,0.0,0.07450510561466217,98
1673592310.47956300,211000587,0,22.84661865234375,24.493614196777344,22.15983009338379,229.68263244628906,5.321498394012451,0.0,0.07432344555854797,98
1673592310.57976794,211100792,0,22.860979080200195,24.494224548339844,22.022960662841797,230.29568481445312,5.335513591766357,0.0,0.07416100800037384,98
1673592310.67965102,211200675,0,22.8676815032959,24.537776947021484,22.60328483581543,230.92286682128906,5.349855899810791,0.0,0.07388726621866226,98
1673592310.77974510,211300769,0,22.850736618041992,24.539438247680664,22.931964874267578,231.56051635742188,5.364426612854004,0.0,0.07363961637020111,98
1673592310.87959599,211400620,0,22.81222915649414,24.46552848815918,22.450965881347656,232.18328857421875,5.378633499145508,0.0,0.07364044338464737,98
1673592310.97975612,211500780,0,22.847291946411133,24.55040168762207,23.20693588256836,232.82899475097656,5.393386363983154,0.0,0.07338795065879822,98
1673592311.07956600,211600590,0,22.82680320739746,24.503677368164062,22.875802993774414,233.46328735351562,5.407865047454834,0.0,0.07330337911844254,98
1673592311.17968202,211700706,0,22.75882911682129,24.44037437438965,22.904035568237305,234.1002960205078,5.422362804412842,0.0,0.07341697812080383,98
1673592311.27952695,211800551,0,22.840110778808594,24.513364791870117,22.791101455688477,234.73245239257812,5.436800956726074,0.0,0.07341697812080383,98
1673592311.37967396,211900698,0,22.770221710205078,24.542593002319336,24.202177047729492,235.40577697753906,5.452132701873779,0.0,0.07323191314935684,98
1673592311.47954202,212000566,0,22.87917137145996,24.67388153076172,24.507225036621094,236.085693359375,5.46768856048584,0.0,0.07323191314935684,98
1673592311.57981300,212100837,0,22.836185455322266,24.643314361572266,24.80337142944336,236.77659606933594,5.483466148376465,0.0,0.07285819947719574,98
1673592311.67957306,212200597,0,22.880842208862305,24.70429801940918,25.027467727661133,237.47018432617188,5.499336242675781,0.0,0.07285819947719574,98
1673592311.77985811,212300882,0,22.931446075439453,24.77596092224121,25.316492080688477,238.1754913330078,5.515510082244873,0.0,0.07285819947719574,98
1673592311.87967610,212400700,0,22.934890747070312,24.80974578857422,25.73293685913086,238.8890380859375,5.531875133514404,0.0,0.07285819947719574,98
1673592311.97974896,212500773,0,22.8969783782959,24.711933135986328,24.910783767700195,239.58157348632812,5.547732353210449,0.0,0.07285819947719574,98
1673592312.07957006,212600594,0,22.726945877075195,24.56073760986328,25.08171844482422,240.27708435058594,5.563539505004883,0.0,0.07311269640922546,98
