timestamp,TimeUS,Instance,Volt,VoltR,Curr,CurrTot,EnrgTot,Temp,Res,RemPct
1665658141.27966499,246522455,0,24.88629150390625,25.035043716430664,0.9740651845932007,65.46453857421875,1.6312296390533447,0.0,0.15271233022212982,99
1665658141.37977910,246622569,0,24.85345458984375,24.991811752319336,0.9060041308403015,65.48973846435547,1.631855845451355,0.0,0.15271233022212982,99
1665658141.47989106,246722681,0,24.84901237487793,24.98426628112793,0.8856812715530396,65.51437377929688,1.6324678659439087,0.0,0.15271233022212982,99
1665658141.57991099,246822701,0,24.834257125854492,24.96440315246582,0.852230429649353,65.53805541992188,1.6330559253692627,0.0,0.15271233022212982,99
1665658141.67983007,246922620,0,24.8584041595459,24.997783660888672,0.9126874804496765,65.56339263916016,1.6336857080459595,0.0,0.15271233022212982,99
1665658141.77988505,247022675,0,24.882171630859375,25.028064727783203,0.9553449749946594,65.5899429321289,1.6343464851379395,0.0,0.15271233022212982,99
1665658141.88000798,247122798,0,24.883895874023438,25.031475067138672,0.966392993927002,65.6168212890625,1.6350153684616089,0.0,0.15271233022212982,99
1665658141.97980213,247222592,0,24.89951515197754,25.05154800415039,0.9955475330352783,65.64442443847656,1.6357026100158691,0.0,0.15271233022212982,99
1665658142.07991290,247322703,0,24.825439453125,24.950851440429688,0.8212346434593201,65.66726684570312,1.6362695693969727,0.0,0.15271233022212982,99
1665658142.17988992,247422680,0,24.84019660949707,24.973764419555664,0.8746333122253418,65.69155883789062,1.6368730068206787,0.0,0.15271233022212982,99
1665658142.27992606,247522716,0,24.876985549926758,25.021644592285156,0.9472635984420776,65.71788024902344,1.6375278234481812,0.0,0.15271233022212982,99
1665658142.37981606,247622606,0,24.889739990234375,25.038959503173828,0.9771341681480408,65.7449951171875,1.6382027864456177,0.0,0.15271233022212982,99
1665658142.47994590,247722736,0,24.87249183654785,25.01627540588379,0.9415349960327148,65.77118682861328,1.6388541460037231,0.0,0.15271233022212982,99
1665658142.57992005,247822710,0,24.81729507446289,24.943363189697266,0.8255310654640198,65.79411315917969,1.639423131942749,0.0,0.15271233022212982,99
1665658142.67995596,247922746,0,24.860322952270508,25.000757217407227,0.9197459816932678,65.81967163085938,1.6400585174560547,0.0,0.15268729627132416,99
1665658142.77989602,248022686,0,24.88629150390625,25.034456253051758,0.9703826904296875,65.84661102294922,1.6407289505004883,0.0,0.15268729627132416,99
1665658142.87984204,248122632,0,24.877666473388672,25.02419090270996,0.9596415162086487,65.87325286865234,1.6413917541503906,0.0,0.15268729627132416,99
1665658142.97987199,248222662,0,24.843647003173828,24.97662925720215,0.8709505200386047,65.89745330810547,1.6419929265975952,0.0,0.15268729627132416,99
1665658143.07983398,248322624,0,24.814910888671875,24.938980102539062,0.8125734925270081,65.9200210571289,1.6425529718399048,0.0,0.15268729627132416,99
1665658143.17984390,248422634,0,24.874408721923828,25.02032470703125,0.9556519389152527,65.94657135009766,1.6432133913040161,0.0,0.15268729627132416,99
1665658143.27983594,248522626,0,24.875080108642578,25.020761489868164,0.954117476940155,65.97307586669922,1.643872618675232,0.0,0.15268729627132416,99
1665658143.37985301,248622643,0,24.893287658691406,25.044450759887695,0.9900234341621399,66.00057983398438,1.6445573568344116,0.0,0.15268729627132416,99
1665658143.47987890,248722669,0,24.89127540588379,25.041688919067383,0.9851132035255432,66.0279541015625,1.6452387571334839,0.0,0.15268729627132416,99
1665658143.57988310,248822673,0,24.780113220214844,24.962743759155273,1.1766119003295898,66.06063842773438,1.6460487842559814,0.0,0.15521785616874695,99
1665658143.67989492,248922685,0,24.57283592224121,25.082738876342773,3.3389508724212646,66.15340423583984,1.6483283042907715,0.0,0.152713343501091,99
1665658143.77990794,249022698,0,24.662626266479492,25.090377807617188,2.8451666831970215,66.23245239257812,1.650277853012085,0.0,0.15034303069114685,99
1665658143.87993813,249122728,0,24.761138916015625,25.074562072753906,2.1058714389801025,66.29096984863281,1.6517268419265747,0.0,0.14883334934711456,99
1665658143.97973800,249222528,0,24.73643684387207,25.040178298950195,2.043879985809326,66.34762573242188,1.6531283855438232,0.0,0.14860983192920685,99
1665658144.07992101,249322711,0,24.697893142700195,25.003917694091797,2.0460281372070312,66.40457153320312,1.654534935951233,0.0,0.1495703160762787,99
1665658144.17990494,249422695,0,24.734018325805664,25.038850784301758,2.041731595993042,66.4612808227539,1.6559375524520874,0.0,0.14930114150047302,99
1665658144.27994704,249522737,0,24.7643985748291,25.07083511352539,2.0524728298187256,66.51832580566406,1.6573501825332642,0.0,0.14930114150047302,99
1665658144.37964106,249622431,0,24.76085090637207,25.059818267822266,2.0024499893188477,66.57378387451172,1.6587233543395996,0.0,0.14930114150047302,99
1665658144.47998190,249722772,0,24.71648406982422,24.99712371826172,1.8796943426132202,66.62618255615234,1.6600183248519897,0.0,0.14930114150047302,99
1665658144.57988691,249822677,0,24.710254669189453,24.984939575195312,1.8397988080978394,66.67724609375,1.6612800359725952,0.0,0.14930114150047302,99
1665658144.67988706,249922677,0,24.774938583374023,25.0748233795166,2.008587598800659,66.73304748535156,1.662662386894226,0.0,0.14930114150047302,99
1665658144.77985597,250022646,0,24.761138916015625,25.05682373046875,1.980455994606018,66.78804779052734,1.6640242338180542,0.0,0.14930114150047302,99
1665658144.87984395,250122634,0,24.764205932617188,25.061433792114258,1.9907881021499634,66.84334564208984,1.665393590927124,0.0,0.14930114150047302,99
1665658144.97987413,250222664,0,24.775897979736328,25.075645446777344,2.007667064666748,66.89913177490234,1.6667758226394653,0.0,0.14930114150047302,99
1665658145.07985592,250322646,0,24.71245765686035,24.991540908813477,1.8692600727081299,66.9510498046875,1.6680588722229004,0.0,0.14930114150047302,99
1665658145.17980409,250422594,0,24.72702407836914,25.01183319091797,1.9076210260391235,67.00401306152344,1.6693686246871948,0.0,0.14930114150047302,99
1665658145.27988601,250522676,0,24.75404930114746,25.048023223876953,1.9689987897872925,67.05872344970703,1.6707229614257812,0.0,0.14930114150047302,99
1665658145.37968302,250622473,0,24.77091407775879,25.071393966674805,2.0125770568847656,67.11455535888672,1.6721059083938599,0.0,0.14930114150047302,99
1665658145.47996902,250722759,0,24.746763229370117,25.038137435913086,1.9499719142913818,67.16888427734375,1.673450231552124,0.0,0.14942459762096405,99
1665658145.57986593,250822656,0,24.704069137573242,24.982114791870117,1.8607693910598755,67.22052001953125,1.674725890159607,0.0,0.14942459762096405,99
1665658145.67996001,250922750,0,24.73737335205078,25.02740478515625,1.9392307996749878,67.27444458007812,1.6760597229003906,0.0,0.14956000447273254,99
1665658145.77985096,251022641,0,24.76880645751953,25.06911849975586,2.0079739093780518,67.33016204833984,1.67743980884552,0.0,0.14956000447273254,99
1665658145.87991905,251122709,0,24.76228904724121,25.059894561767578,1.9898674488067627,67.3854751586914,1.6788095235824585,0.0,0.14956000447273254,99
1665658145.97964191,251222432,0,24.73737335205078,25.027542114257812,1.9401514530181885,67.43922424316406,1.6801390647888184,0.0,0.14956000447273254,99
1665658146.07999301,251322783,0,24.730186462402344,25.01810646057129,1.9251137971878052,67.49288940429688,1.6814662218093872,0.0,0.14956000447273254,99
1665658146.17983699,251422627,0,24.732101440429688,25.01910400390625,1.918976068496704,67.54611206054688,1.6827826499938965,0.0,0.14956000447273254,99
1665658146.27990794,251522698,0,24.75242042541504,25.048463821411133,1.9794331789016724,67.60112762451172,1.6841444969177246,0.0,0.14956000447273254,99
1665658146.37996411,251622754,0,24.75634765625,25.05229949951172,1.9788192510604858,67.65614318847656,1.6855063438415527,0.0,0.14956000447273254,99
1665658146.47988009,251722670,0,24.75847625732422,25.056917190551758,1.9954596757888794,67.71153259277344,1.6868776082992554,0.0,0.14956000447273254,99
1665658146.57990003,251822690,0,24.68572235107422,24.957853317260742,1.8195441961288452,67.76209259033203,1.6881256103515625,0.0,0.14956000447273254,99
1665658146.67988896,251922679,0,24.717727661132812,25.001012802124023,1.894118070602417,67.81470489501953,1.689426064491272,0.0,0.14956000447273254,99
1665658146.77985501,252022645,0,24.740631103515625,25.032636642456055,1.9524269104003906,67.86892700195312,1.690767526626587,0.0,0.14956000447273254,99
1665658146.87992907,252122719,0,24.757976531982422,25.0562686920166,1.9944709539413452,67.92437744140625,1.6921403408050537,0.0,0.14956000447273254,99
1665658146.97996807,252222758,0,24.7304744720459,25.020137786865234,1.9367755651474,67.97820281982422,1.6934714317321777,0.0,0.14956000447273254,99
1665658147.07997894,252322769,0,24.700477600097656,24.979400634765625,1.8649636507034302,68.03001403808594,1.694751262664795,0.0,0.14956000447273254,99
1665658147.17975211,252422542,0,24.746667861938477,25.041013717651367,1.968078374862671,68.08456420898438,1.696101188659668,0.0,0.14956000447273254,99
1665658147.27999902,252522789,0,24.766462326049805,25.068370819091797,2.018646717071533,68.14077758789062,1.6974934339523315,0.0,0.14956000447273254,99
1665658147.37969899,252622489,0,24.756540298461914,25.053180694580078,1.9834227561950684,68.19570922851562,1.6988533735275269,0.0,0.14956000447273254,99
1665658147.47993898,252722729,0,24.708721160888672,24.990489959716797,1.88399076461792,68.2481689453125,1.700149655342102,0.0,0.14956000447273254,99
1665658147.57992005,252822710,0,24.695016860961914,24.972013473510742,1.8520742654800415,68.29961395263672,1.7014199495315552,0.0,0.14956000447273254,99
1665658147.67999196,252922782,0,24.755199432373047,25.05445671081543,2.000915288925171,68.35523986816406,1.7027969360351562,0.0,0.14956000447273254,99
1665658147.77971697,253022507,0,24.749929428100586,25.046524047851562,1.9831159114837646,68.4101791381836,1.7041566371917725,0.0,0.14956000447273254,99
1665658147.87963605,253122426,0,24.767559051513672,25.069339752197266,2.017794370651245,68.4661865234375,1.705543875694275,0.0,0.14956000447273254,99
1665658147.97984004,253222630,0,24.757976531982422,25.057785034179688,2.0045981407165527,68.52198791503906,1.706925392150879,0.0,0.14956000447273254,99
1665658148.07998204,253322772,0,24.69185447692871,24.966602325439453,1.8370367288589478,68.57308959960938,1.708187222480774,0.0,0.14956000447273254,99
1665658148.18000603,253422796,0,24.712692260742188,24.99654769897461,1.8979371786117554,68.62582397460938,1.7094905376434326,0.0,0.14956000447273254,99
1665658148.27988195,253522672,0,24.74695587158203,25.042404174804688,1.9754436016082764,68.68063354492188,1.7108469009399414,0.0,0.14956000447273254,99
1665658148.37993407,253622724,0,24.766218185424805,25.067861557006836,2.016873598098755,68.7366943359375,1.7122352123260498,0.0,0.14956000447273254,99
1665658148.47993112,253722721,0,24.740726470947266,25.03424644470215,1.9625542163848877,68.79121398925781,1.713584065437317,0.0,0.14956000447273254,99
1665658148.57995701,253822747,0,24.719358444213867,25.005855560302734,1.9156004190444946,68.84444427490234,1.7148998975753784,0.0,0.14956000447273254,99
1665658148.67993307,253922723,0,24.731719970703125,25.02198028564453,1.940765380859375,68.89834594726562,1.7162330150604248,0.0,0.14956000447273254,99
1665658148.77996206,254022752,0,24.720796585083008,25.008533477783203,1.9238862991333008,68.9518051147461,1.7175545692443848,0.0,0.14956000447273254,99
1665658148.87989902,254122689,0,24.763343811035156,25.065170288085938,2.0181009769439697,69.0078353881836,1.7189420461654663,0.0,0.14956000447273254,99
1665658148.97973990,254222530,0,24.70481300354004,24.987598419189453,1.89077627658844,69.0602798461914,1.7202376127243042,0.0,0.14956000447273254,99
1665658149.07992697,254322717,0,24.714088439941406,24.998703002929688,1.9030177593231201,69.11324310302734,1.7215465307235718,0.0,0.14956000447273254,99
1665658149.17990708,254422697,0,24.72702407836914,25.01599884033203,1.9321722984313965,69.16690826416016,1.7228734493255615,0.0,0.14956000447273254,99
1665658149.28000998,254522800,0,24.741397857666016,25.03707504272461,1.9769781827926636,69.22188568115234,1.724233627319336,0.0,0.14956000447273254,99
1665658149.37990808,254622698,0,24.317068099975586,25.21794319152832,6.8936448097229,69.4131851196289,1.7288854122161865,0.0,0.1306820511817932,99
1665658149.47994590,254722736,0,24.255929946899414,25.17532730102539,7.164013385772705,69.61228942871094,1.7337148189544678,0.0,0.1283353865146637,99
1665658149.57988906,254822679,0,24.3480224609375,24.992794036865234,4.994309425354004,69.75094604492188,1.7370909452438354,0.0,0.12910109758377075,99
1665658149.67992592,254922716,0,24.219995498657227,25.1943359375,7.682041645050049,69.96443939208984,1.7422617673873901,0.0,0.1268334686756134,99
1665658149.77990103,255022691,0,24.01166534423828,25.108003616333008,8.688944816589355,70.20575714111328,1.748056173324585,0.0,0.1261761337518692,99
1665658149.87994409,255122734,0,23.833091735839844,25.211252212524414,11.057205200195312,70.5130615234375,1.7553801536560059,0.0,0.124639131128788,99
1665658149.97997212,255222762,0,23.48297691345215,25.196664810180664,13.852349281311035,70.89798736572266,1.7644193172454834,0.0,0.12371096014976501,99
1665658150.07994699,255322737,0,23.138092041015625,25.20926284790039,16.8604736328125,71.36624908447266,1.7752540111541748,0.0,0.1228417381644249,99
1665658150.17996502,255422755,0,22.796846389770508,25.204118728637695,20.366680145263672,71.93214416503906,1.7881546020507812,0.0,0.11819657683372498,99
1665658150.28008413,255522874,0,22.271129608154297,25.176069259643555,24.657907485961914,72.61795806884766,1.8034284114837646,0.0,0.11780963838100433,99
1665658150.37972713,255622517,0,22.038841247558594,25.197364807128906,28.17669677734375,73.39790344238281,1.8206175565719604,0.0,0.11209698766469955,99
1665658150.48001003,255722800,0,21.804443359375,25.04071617126465,28.856760025024414,74.20182037353516,1.8381465673446655,0.0,0.11214952915906906,99
1665658150.57974291,255822533,0,21.783170700073242,25.0568790435791,29.194643020629883,75.01068115234375,1.8557661771774292,0.0,0.11213389784097672,99
1665658150.67994094,255922731,0,21.66736602783203,25.032440185546875,29.98883819580078,75.84542083740234,1.8738527297973633,0.0,0.11221089959144592,99
1665658150.77975202,256022542,0,21.6640567779541,25.080665588378906,30.477439880371094,76.69048309326172,1.892160177230835,0.0,0.11210285872220993,99
1665658150.87995601,256122746,0,21.757585525512695,25.15458869934082,30.401945114135742,77.5367660522461,1.9105732440948486,0.0,0.11173637211322784,99
1665658150.97988200,256222672,0,21.893949508666992,25.194883346557617,30.04779624938965,78.37088775634766,1.928835391998291,0.0,0.10985607653856277,99
1665658151.07992911,256322719,0,21.89097785949707,25.15302085876465,29.797679901123047,79.19905853271484,1.9469648599624634,0.0,0.10947307199239731,99
1665658151.17973709,256422527,0,21.874496459960938,25.10881805419922,29.595134735107422,80.01962280273438,1.964914321899414,0.0,0.10928557068109512,99
1665658151.27993894,256522729,0,21.991405487060547,25.139087677001953,28.87640380859375,80.82344055175781,1.9825913906097412,0.0,0.10900532454252243,99
1665658151.37989211,256622682,0,22.035585403442383,25.141220092773438,28.5596923828125,81.616455078125,2.000066041946411,0.0,0.1087418869137764,99
1665658151.47994494,256722735,0,22.04397201538086,25.062271118164062,27.74513816833496,82.38762664794922,2.0170657634735107,0.0,0.10878662765026093,99
1665658151.57993913,256822729,0,22.082345962524414,25.030309677124023,27.09859275817871,83.14037322998047,2.0336880683898926,0.0,0.10878662765026093,99
1665658151.68005800,256922848,0,22.046506881713867,25.029802322387695,27.39013671875,83.90217590332031,2.050483226776123,0.0,0.10891856998205185,99
1665658151.77974892,257022539,0,22.059444427490234,25.086715698242188,27.815486907958984,84.67250061035156,2.067476272583008,0.0,0.10883402824401855,98
1665658151.88000607,257122796,0,22.098447799682617,25.031307220458984,26.9733829498291,85.42374420166016,2.0840775966644287,0.0,0.10873162001371384,98
1665658151.97982311,257222613,0,22.127099990844727,25.01129150390625,26.559696197509766,86.16023254394531,2.1003739833831787,0.0,0.10859281569719315,98
1665658152.08009601,257322886,0,22.10074806213379,24.875944137573242,25.67800521850586,86.8755111694336,2.1161820888519287,0.0,0.10807681083679199,98
1665658152.17988706,257422677,0,22.16840171813965,24.90760612487793,25.415306091308594,87.580078125,2.1318013668060303,0.0,0.10777775198221207,98
1665658152.28022408,257523014,0,22.143678665161133,24.885778427124023,25.511978149414062,88.29118347167969,2.147547721862793,0.0,0.10748284310102463,98
1665658152.37998295,257622773,0,22.213058471679688,24.817150115966797,24.326398849487305,88.96534729003906,2.162523031234741,0.0,0.10704796761274338,98
1665658152.48025608,257723046,0,22.325178146362305,24.89178466796875,24.000244140625,89.6338882446289,2.177448272705078,0.0,0.106940858066082,98
1665658152.57984304,257822633,0,22.353544235229492,24.840484619140625,23.307289123535156,90.27869415283203,2.191862106323242,0.0,0.1067022904753685,98
1665658152.68023396,257923024,0,22.318758010864258,24.698232650756836,22.430200576782227,90.90423583984375,2.2058234214782715,0.0,0.10608354955911636,98
1665658152.78057313,258023363,0,22.2100887298584,24.695728302001953,23.430965423583984,91.55735778808594,2.2203292846679688,0.0,0.10608354955911636,98
1665658152.88066697,258123457,0,22.11052131652832,24.71293830871582,24.531776428222656,92.23937225341797,2.2354090213775635,0.0,0.10608354955911636,98
1665658152.98065996,258223450,0,22.031272888183594,24.704742431640625,25.113943099975586,92.9371109008789,2.2507810592651367,0.0,0.10645361244678497,98
1665658153.08068800,258323478,0,22.039417266845703,24.70978355407715,25.010215759277344,93.63208770751953,2.2660980224609375,0.0,0.10677099972963333,98
1665658153.18070912,258423499,0,22.14128303527832,24.805418014526367,24.964488983154297,94.32573699951172,2.281456470489502,0.0,0.10671700537204742,98
1665658153.28072000,258523510,0,22.0899715423584,24.776899337768555,25.165571212768555,95.02490997314453,2.296901226043701,0.0,0.10677000135183334,98
1665658153.38068008,258623470,0,22.04286766052246,24.74285888671875,25.24774742126465,95.72576904296875,2.312350034713745,0.0,0.1069398745894432,98
1665658153.48077798,258723568,0,22.04669952392578,24.768165588378906,25.433414459228516,96.4332504272461,2.3279476165771484,0.0,0.10700353235006332,98
1665658153.58077598,258823566,0,22.012008666992188,24.70647621154785,25.11578369140625,97.13093566894531,2.3433051109313965,0.0,0.10728183388710022,98
1665658153.67971110,258922501,0,22.033092498779297,24.682191848754883,24.692893981933594,97.80961608886719,2.3582584857940674,0.0,0.10728183388710022,98
1665658153.77980208,259022592,0,22.097105026245117,24.71208953857422,24.409021377563477,98.48831939697266,2.373255968093872,0.0,0.10713191330432892,98
1665658153.87964892,259122439,0,22.1601619720459,24.707664489746094,23.807823181152344,99.14868927001953,2.387889862060547,0.0,0.10700277239084244,98
1665658153.97973299,259222523,0,22.264484405517578,24.64004898071289,22.264787673950195,99.76771545410156,2.401672124862671,0.0,0.10669607669115067,98
1665658154.07959104,259322381,0,22.297290802001953,24.621349334716797,21.842201232910156,100.3736343383789,2.415182590484619,0.0,0.10640223324298859,98
1665658154.17983699,259422627,0,22.2845458984375,24.65566062927246,22.309900283813477,100.99491882324219,2.429027795791626,0.0,0.10628079622983932,98
1665658154.27957296,259522363,0,22.174821853637695,24.672813415527344,23.503698348999023,101.64613342285156,2.4434683322906494,0.0,0.10628079622983932,98
1665658154.37975812,259622548,0,22.09432601928711,24.578847885131836,23.376953125,102.29674530029297,2.45784330368042,0.0,0.10628079622983932,98
1665658154.48085713,259723647,0,22.08608627319336,24.60666847229004,23.668804168701172,102.96149444580078,2.472524881362915,0.0,0.10649382323026657,98
1665658154.58061504,259823405,0,22.16255760192871,24.63125228881836,23.20110511779785,103.60443878173828,2.486774206161499,0.0,0.106404148042202,98
1665658154.68070006,259923490,0,22.23826026916504,24.577760696411133,22.035234451293945,104.21712493896484,2.500399112701416,0.0,0.10617086291313171,98
1665658154.78068900,260023479,0,22.3393611907959,24.5716609954834,21.06515884399414,104.80225372314453,2.513470411300659,0.0,0.10597118735313416,98
1665658154.88070011,260123490,0,22.40492820739746,24.57477569580078,20.50392723083496,105.37191772460938,2.526233673095703,0.0,0.1058259829878807,98
1665658154.98070693,260223497,0,22.319332122802734,24.43662452697754,20.109506607055664,105.93059539794922,2.538702964782715,0.0,0.10528812557458878,98
1665658155.08080101,260323591,0,22.297481536865234,24.424938201904297,20.293333053588867,106.494873046875,2.5512850284576416,0.0,0.10483523458242416,98
1665658155.18070698,260423497,0,22.426851272583008,24.513816833496094,19.9219970703125,107.04778289794922,2.5636849403381348,0.0,0.10475681722164154,98
1665658155.28074312,260523533,0,22.4686336517334,24.506587982177734,19.469642639160156,107.58882904052734,2.5758414268493652,0.0,0.10467347502708435,98
1665658155.38072896,260623519,0,22.47102928161621,24.53449058532715,19.70932388305664,108.13623046875,2.588142156600952,0.0,0.1046946570277214,98
1665658155.48074293,260723533,0,22.405960083007812,24.525005340576172,20.24269676208496,108.69872283935547,2.600745439529419,0.0,0.10468194633722305,98
1665658155.58072495,260823515,0,22.31386947631836,24.456172943115234,20.46488380432129,109.26713562011719,2.613428831100464,0.0,0.10468194633722305,98
1665658155.68063807,260923428,0,22.339019775390625,24.544191360473633,21.085309982299805,109.85237121582031,2.626502513885498,0.0,0.10458334535360336,98
1665658155.78066611,261023456,0,22.253498077392578,24.473878860473633,21.198348999023438,110.4414291381836,2.63961124420166,0.0,0.104743093252182,98
1665658155.88060308,261123393,0,22.31444549560547,24.547893524169922,21.34718894958496,111.03400421142578,2.652834177017212,0.0,0.1046249195933342,98
1665658155.98072600,261223516,0,22.282629013061523,24.434555053710938,20.5679988861084,111.60615539550781,2.6655831336975098,0.0,0.1046249195933342,98
1665658156.08065295,261323443,0,22.302751541137695,24.400381088256836,20.04905128479004,112.1627197265625,2.6779959201812744,0.0,0.1046249195933342,98
1665658156.18074393,261423534,0,22.362262725830078,24.453100204467773,20.003936767578125,112.71884155273438,2.690432071685791,0.0,0.10452128946781158,98
1665658156.28068209,261523472,0,22.38813591003418,24.47994041442871,20.01283836364746,113.27454376220703,2.7028732299804688,0.0,0.10452308505773544,98
1665658156.38071108,261623501,0,22.38459014892578,24.439620971679688,19.684158325195312,113.821533203125,2.7151174545288086,0.0,0.10440021753311157,98
1665658156.48075104,261723541,0,22.477161407470703,24.475404739379883,19.137588500976562,114.35338592529297,2.72707200050354,0.0,0.10441461950540543,98
1665658156.58078313,261823573,0,22.463382720947266,24.391407012939453,18.5091495513916,114.86773681640625,2.738626003265381,0.0,0.10416605323553085,98
1665658156.68071890,261923509,0,22.4980525970459,24.44059944152832,18.65608024597168,115.38566589355469,2.7502784729003906,0.0,0.10412401705980301,98
1665658156.78071213,262023502,0,22.532358169555664,24.41510581970215,18.101224899291992,115.88848876953125,2.761608123779297,0.0,0.10401212424039841,98
1665658156.88075590,262123546,0,22.611894607543945,24.479034423828125,17.932130813598633,116.3868637084961,2.7728772163391113,0.0,0.10412263125181198,98
1665658156.98074102,262223531,0,22.611608505249023,24.467004776000977,17.810911178588867,116.88154602050781,2.7840628623962402,0.0,0.10417191684246063,98
1665658157.08080006,262323590,0,22.539737701416016,24.357175827026367,17.497268676757812,117.36793518066406,2.7950260639190674,0.0,0.10386978089809418,98
1665658157.18074393,262423534,0,22.684152603149414,24.57744789123535,18.14971351623535,117.8718490600586,2.8064568042755127,0.0,0.10431540012359619,98
1665658157.28064108,262523431,0,22.693830490112305,24.587928771972656,18.09109878540039,118.37390899658203,2.817850351333618,0.0,0.10469775646924973,98
1665658157.38067794,262623468,0,22.689006805419922,24.564697265625,17.87627601623535,118.87069702148438,2.8291220664978027,0.0,0.1049262136220932,98
1665658157.48061490,262723405,0,22.64208221435547,24.527999877929688,17.962512969970703,119.36932373046875,2.840411901473999,0.0,0.10499191284179688,98
1665658157.58068490,262823475,0,22.655210494995117,24.510129928588867,17.667898178100586,119.86053466796875,2.8515403270721436,0.0,0.10498815029859543,98
1665658157.68063903,262923429,0,22.601451873779297,24.455854415893555,17.691837310791016,120.35179138183594,2.8626434803009033,0.0,0.10481688380241394,98
1665658157.78070903,263023499,0,22.6567440032959,24.54192543029785,17.962820053100586,120.85114288330078,2.8739571571350098,0.0,0.10494902729988098,98
1665658157.88068295,263123473,0,22.653295516967773,24.53724479675293,17.93581199645996,121.34925842285156,2.8852410316467285,0.0,0.10503846406936646,98
1665658157.98096704,263223757,0,22.69488525390625,24.558731079101562,17.721298217773438,121.84297180175781,2.8964457511901855,0.0,0.10517547279596329,98
1665658158.07974911,263322539,0,22.65610694885254,24.482742309570312,17.3886661529541,122.31996154785156,2.907252550125122,0.0,0.10504747927188873,98
1665658158.17972994,263422520,0,22.651283264160156,24.440998077392578,17.074682235717773,122.79438781738281,2.917998790740967,0.0,0.10481682419776917,98
1665658158.28073192,263523522,0,22.698814392089844,24.510786056518555,17.281219482421875,123.2792739868164,2.9290051460266113,0.0,0.10485212504863739,98
1665658158.38077211,263623562,0,22.730722427368164,24.526636123657227,17.11549949645996,123.75493621826172,2.939817190170288,0.0,0.1049291267991066,98
1665658158.48080111,263723591,0,22.886062622070312,24.45212745666504,14.949477195739746,124.17035675048828,2.949324369430542,0.0,0.10475713759660721,98
1665658158.58074093,263823531,0,22.81390380859375,24.392597198486328,15.116425514221191,124.59004211425781,2.9588990211486816,0.0,0.10443567484617233,98
1665658158.68086791,263923658,0,22.720182418823242,24.504220962524414,17.082660675048828,125.06519317626953,2.9696946144104004,0.0,0.10443567484617233,98
1665658158.78072000,264023510,0,22.583627700805664,24.50444221496582,18.408113479614258,125.57550048828125,2.9812190532684326,0.0,0.10434608161449432,98
1665658158.88077211,264123562,0,22.528526306152344,24.50241470336914,18.929824829101562,126.10197448730469,2.993079662322998,0.0,0.10427398234605789,98
1665658158.98080397,264223594,0,22.405288696289062,24.473163604736328,19.823793411254883,126.6528549194336,3.005422353744507,0.0,0.10431275516748428,98
1665658159.08069491,264323485,0,22.365211486816406,24.506589889526367,20.544845581054688,127.22296905517578,3.0181729793548584,0.0,0.10422951728105545,98
1665658159.18069100,264423481,0,22.34491729736328,24.484535217285156,20.52718162536621,127.7931900024414,3.030914545059204,0.0,0.10423340648412704,98
1665658159.28067803,264523468,0,22.39838981628418,24.559734344482422,20.78773307800293,128.37059020996094,3.0438473224639893,0.0,0.10397206991910934,98
1665658159.38077211,264623562,0,22.357280731201172,24.557600021362305,21.20847511291504,128.96029663085938,3.0570316314697266,0.0,0.1037471666932106,98
1665658159.48071599,264723506,0,22.349040985107422,24.566909790039062,21.425752639770508,129.55519104003906,3.070327043533325,0.0,0.1035141721367836,98
1665658159.58072495,264823515,0,22.226282119750977,24.450454711914062,21.444473266601562,130.15097045898438,3.083569049835205,0.0,0.10371774435043335,98
1665658159.68070006,264923490,0,22.198205947875977,24.46953582763672,21.87504005432129,130.75851440429688,3.097055196762085,0.0,0.10383202135562897,98
1665658159.78080702,265023597,0,22.188140869140625,24.532981872558594,22.609729766845703,131.3872833251953,3.111006259918213,0.0,0.1037093997001648,98
1665658159.88074493,265123535,0,22.129261016845703,24.51447868347168,23.008821487426758,132.0260772705078,3.1251420974731445,0.0,0.10366537421941757,98
1665658159.98072505,265223515,0,22.088577270507812,24.531312942504883,23.586252212524414,132.68116760253906,3.1396121978759766,0.0,0.10356605052947998,98
1665658160.08076811,265323558,0,22.10898780822754,24.49669647216797,23.047353744506836,133.32168579101562,3.153773307800293,0.0,0.10360012203454971,98
1665658160.18072891,265423519,0,22.268064498901367,24.560997009277344,22.132518768310547,133.93630981445312,3.167459726333618,0.0,0.10360012203454971,98
1665658160.28074098,265523531,0,22.343000411987305,24.675928115844727,22.518585205078125,134.56192016601562,3.1814377307891846,0.0,0.10360012203454971,98
1665658160.38071299,265623503,0,22.18459701538086,24.601673126220703,23.379100799560547,135.2110137939453,3.1958374977111816,0.0,0.10338620841503143,98
1665658160.48077607,265723566,0,22.131507873535156,24.594158172607422,23.858154296875,135.87445068359375,3.2105205059051514,0.0,0.10322047770023346,98
1665658160.58067799,265823468,0,22.072477340698242,24.56728744506836,24.18222999572754,136.5455780029297,3.2253339290618896,0.0,0.10316705703735352,98
1665658160.68072510,265923515,0,22.269489288330078,24.65397071838379,23.112823486328125,137.18788146972656,3.239637613296509,0.0,0.10316705703735352,98
1665658160.78084993,266023640,0,22.33399200439453,24.658016204833984,22.46856117248535,137.8129119873047,3.2535970211029053,0.0,0.10343451052904129,98
1665658160.88068295,266123473,0,22.34175682067871,24.673507690429688,22.487895965576172,138.43658447265625,3.267530918121338,0.0,0.10368917882442474,98
1665658160.98082113,266223611,0,22.120773315429688,24.58553695678711,23.751663208007812,139.09730529785156,3.282146453857422,0.0,0.10377226024866104,98
1665658161.08069611,266323486,0,22.017757415771484,24.53987693786621,24.248823165893555,139.77011108398438,3.2969601154327393,0.0,0.10400999337434769,98
1665658161.18075895,266423549,0,21.99207878112793,24.514835357666016,24.184377670288086,140.44236755371094,3.311744451522827,0.0,0.10431347042322159,98
1665658161.27977395,266522564,0,22.00261878967285,24.52342414855957,24.1094970703125,141.10546875,3.3263344764709473,0.0,0.10455652326345444,98
1665658161.37976408,266622554,0,22.064098358154297,24.567148208618164,23.9250545501709,141.77008056640625,3.340998411178589,0.0,0.10462041944265366,98
1665658161.48074603,266723536,0,21.9622745513916,24.501327514648438,24.20156478881836,142.4490203857422,3.355909585952759,0.0,0.10491275787353516,98
1665658161.58082700,266823617,0,21.8400936126709,24.459108352661133,24.86536407470703,143.14035034179688,3.3710081577301025,0.0,0.1053277999162674,98
1665658161.67977095,266922561,0,21.844308853149414,24.493629455566406,25.093074798583984,143.83006286621094,3.3860745429992676,0.0,0.10557973384857178,98
1665658161.77979493,267022585,0,21.987382888793945,24.58847999572754,24.66220474243164,144.51535034179688,3.401142120361328,0.0,0.1054689809679985,98
1665658161.87971306,267122503,0,22.134668350219727,24.612234115600586,23.45582389831543,145.16641235351562,3.415553331375122,0.0,0.10562687367200851,98
1665658161.97980905,267222599,0,22.21554946899414,24.504974365234375,21.716989517211914,145.77029418945312,3.428968906402588,0.0,0.10542089492082596,98
1665658162.07965708,267322447,0,22.258193969726562,24.503767013549805,21.333993911743164,146.36204528808594,3.4421403408050537,0.0,0.10525799542665482,98
1665658162.17986202,267422652,0,22.2208309173584,24.619718551635742,22.741146087646484,146.99508666992188,3.456207036972046,0.0,0.10548665374517441,98
1665658162.27962708,267522417,0,22.220436096191406,24.654685974121094,23.014516830444336,147.6329345703125,3.4703800678253174,0.0,0.10577020049095154,98
1665658162.37968707,267622477,0,22.29048728942871,24.567991256713867,21.541757583618164,148.23171997070312,3.48372745513916,0.0,0.10572509467601776,98
1665658162.47972107,267722511,0,22.331501007080078,24.550804138183594,21.008691787719727,148.8154296875,3.49676251411438,0.0,0.10563735663890839,98
1665658162.57986307,267822653,0,22.245929718017578,24.49141502380371,21.306987762451172,149.4082794189453,3.509951114654541,0.0,0.10538730025291443,98
1665658162.67964411,267922434,0,22.1846923828125,24.538362503051758,22.33353042602539,150.02734375,3.5236849784851074,0.0,0.10538730025291443,98
1665658162.78000593,268022796,0,22.167444229125977,24.57634735107422,22.87641716003418,150.6651611328125,3.5378236770629883,0.0,0.10530073940753937,98
1665658162.88083792,268123628,0,22.21123695373535,24.589214324951172,22.582725524902344,151.2976531982422,3.5518720149993896,0.0,0.10530073940753937,98
1665658162.98078895,268223579,0,22.15441131591797,24.560483932495117,22.84971809387207,151.93218994140625,3.565929889678955,0.0,0.10529991239309311,98
1665658163.08068490,268323475,0,22.081771850585938,24.518211364746094,23.105321884155273,152.57339477539062,3.5800886154174805,0.0,0.10544925928115845,98
1665658163.18079901,268423589,0,22.109180450439453,24.488828659057617,22.56676483154297,153.20101928710938,3.5939648151397705,0.0,0.10544925928115845,98
1665658163.28075695,268523547,0,22.176259994506836,24.526294708251953,22.297929763793945,153.8201904296875,3.6076955795288086,0.0,0.10539248585700989,98
1665658163.38077593,268623566,0,22.260303497314453,24.488296508789062,21.17226219177246,154.40847778320312,3.620790958404541,0.0,0.10523170977830887,98
1665658163.48074794,268723538,0,22.17003059387207,24.467004776000977,21.827777862548828,155.01467895507812,3.634230613708496,0.0,0.10523170977830887,98
1665658163.58067799,268823468,0,22.02092170715332,24.447248458862305,23.00162696838379,155.65321350097656,3.64829158782959,0.0,0.10548501461744308,98
1665658163.68068910,268923479,0,22.119529724121094,24.535961151123047,22.926748275756836,156.29019165039062,3.662381172180176,0.0,0.10539795458316803,98
1665658163.78071713,269023507,0,22.09423065185547,24.478229522705078,22.591930389404297,156.91798400878906,3.6762516498565674,0.0,0.10552433133125305,98
1665658163.88072109,269123511,0,22.13275146484375,24.514923095703125,22.578121185302734,157.54522705078125,3.690134286880493,0.0,0.1055079996585846,98
1665658163.98076510,269223555,0,22.147361755371094,24.480541229248047,22.133167266845703,158.1603546142578,3.7037577629089355,0.0,0.10541550070047379,98
1665658164.07986093,269322651,0,22.0487117767334,24.410324096679688,22.40288734436035,158.77688598632812,3.7173514366149902,0.0,0.10541550070047379,98
1665658164.18000412,269422794,0,22.052640914916992,24.417455673217773,22.433269500732422,159.4011688232422,3.731118679046631,0.0,0.10541550070047379,98
1665658164.28074408,269523534,0,22.162460327148438,24.464126586914062,21.842201232910156,160.01243591308594,3.74466609954834,0.0,0.10537707060575485,98
1665658164.38080502,269623595,0,22.159873962402344,24.4499568939209,21.747371673583984,160.616943359375,3.7580618858337402,0.0,0.10530389100313187,98
1665658164.47974801,269722538,0,22.139080047607422,24.40679168701172,21.573673248291016,161.2098388671875,3.7711880207061768,0.0,0.10511477291584015,98
1665658164.57986808,269822658,0,22.15958595275879,24.371553421020508,21.094621658325195,161.79664611816406,3.784191370010376,0.0,0.10485931485891342,98
1665658164.67965293,269922443,0,22.209970474243164,24.458580017089844,21.430049896240234,162.39068603515625,3.7973852157592773,0.0,0.10492788255214691,98
1665658164.77992296,270022713,0,22.270938873291016,24.50606918334961,21.261260986328125,162.98291015625,3.810574769973755,0.0,0.10512685030698776,98
1665658164.87968206,270122472,0,22.249282836914062,24.4947452545166,21.335220336914062,163.5741729736328,3.823729991912842,0.0,0.10524678230285645,98
1665658164.98001790,270222808,0,22.287612915039062,24.417566299438477,20.265405654907227,164.1390380859375,3.8363194465637207,0.0,0.10510291159152985,98
1665658165.07963490,270322425,0,22.393884658813477,24.410634994506836,19.212778091430664,164.6707305908203,3.8482260704040527,0.0,0.10496926307678223,98
1665658165.17988801,270422678,0,22.494123458862305,24.379364013671875,17.994428634643555,165.171875,3.859498977661133,0.0,0.10476799309253693,98
1665658165.27968502,270522475,0,22.691627502441406,24.446924209594727,16.745697021484375,165.63604736328125,3.8700318336486816,0.0,0.10482073575258255,98
1665658165.37976313,270622553,0,22.7379093170166,24.408000946044922,15.945025444030762,166.0794219970703,3.880113124847412,0.0,0.10474061965942383,98
1665658165.47963500,270722425,0,22.750560760498047,24.522314071655273,16.868453979492188,166.54742431640625,3.8907604217529297,0.0,0.10503358393907547,98
1665658165.57998013,270822770,0,22.693370819091797,24.415693283081055,16.413780212402344,167.00497436523438,3.901143789291382,0.0,0.10493145883083344,98
1665658165.68072891,270923519,0,22.80824851989746,24.41094970703125,15.287668228149414,167.43284606933594,3.910902738571167,0.0,0.10483625531196594,98
1665658165.78071404,271023504,0,22.889223098754883,24.396541595458984,14.394314765930176,167.83265686035156,3.9200541973114014,0.0,0.10471626371145248,98
1665658165.88073611,271123526,0,22.89487648010254,24.457426071166992,14.90804672241211,168.2469024658203,3.9295382499694824,0.0,0.10481248795986176,97
1665658165.98074007,271223530,0,22.79416275024414,24.452184677124023,15.809995651245117,168.6861114501953,3.939549684524536,0.0,0.10487176477909088,97
1665658166.08077002,271323560,0,22.817161560058594,24.424903869628906,15.33615779876709,169.11228942871094,3.9492735862731934,0.0,0.10483339428901672,97
1665658166.18075895,271423549,0,22.78736114501953,24.416282653808594,15.546682357788086,169.54412841796875,3.9591140747070312,0.0,0.10477620363235474,97
1665658166.28070092,271523491,0,22.843704223632812,24.512022018432617,15.884260177612305,169.98513793945312,3.9691884517669678,0.0,0.10502961277961731,97
1665658166.38078403,271623574,0,22.774995803833008,24.513322830200195,16.550825119018555,170.44529724121094,3.979668617248535,0.0,0.10502961277961731,97
1665658166.48073006,271723520,0,22.621179580688477,24.40842628479004,16.988344192504883,170.91697692871094,3.9903388023376465,0.0,0.1052042692899704,97
1665658166.58073807,271823528,0,22.587556838989258,24.441675186157227,17.617570877075195,171.40643310546875,4.001394271850586,0.0,0.10524261742830276,97
1665658166.68067193,271923462,0,22.569446563720703,24.400358200073242,17.367761611938477,171.8885955810547,4.0122761726379395,0.0,0.10542013496160507,97
1665658166.78071308,272023503,0,22.603750228881836,24.448692321777344,17.502792358398438,172.37503051757812,4.023271560668945,0.0,0.1054084450006485,97
1665658166.88063002,272123420,0,22.64352035522461,24.474828720092773,17.39016342163086,172.857666015625,4.034200191497803,0.0,0.1053071916103363,97
1665658166.98077607,272223566,0,22.678495407104492,24.475677490234375,17.066089630126953,173.33251953125,4.044969081878662,0.0,0.1053071916103363,97
1665658167.08089590,272323686,0,22.565418243408203,24.39031982421875,17.293188095092773,173.81350708007812,4.055822849273682,0.0,0.10552722960710526,97
1665658167.18071890,272423509,0,22.457420349121094,24.38861846923828,18.265718460083008,174.32003784179688,4.067198276519775,0.0,0.10572802275419235,97
1665658167.28071499,272523505,0,22.351049423217773,24.447519302368164,19.834228515625,174.8710174560547,4.079513072967529,0.0,0.1056995689868927,97
1665658167.38069797,272623488,0,22.257234573364258,24.564170837402344,21.916160583496094,175.479736328125,4.093061447143555,0.0,0.10526183992624283,97
1665658167.48073792,272723528,0,22.00175666809082,24.499370574951172,23.76363182067871,176.14015197753906,4.10759162902832,0.0,0.10510233044624329,97
1665658167.58080411,272823594,0,21.90928077697754,24.507247924804688,24.75856590270996,176.82839965820312,4.122670650482178,0.0,0.10493207722902298,97
1665658167.67984295,272922633,0,22.01066780090332,24.538558959960938,24.151233673095703,177.49281311035156,4.137294769287109,0.0,0.10466919839382172,97
1665658167.77979207,273022582,0,21.966394424438477,24.579349517822266,25.055328369140625,178.18856811523438,4.152577877044678,0.0,0.10428738594055176,97
1665658167.87972498,273122515,0,21.94886016845703,24.572696685791016,25.2367000579834,178.88917541503906,4.16795539855957,0.0,0.10396908223628998,97
1665658167.97988510,273222675,0,21.94013786315918,24.50543212890625,24.684297561645508,179.5760040283203,4.1830244064331055,0.0,0.10392410308122635,97
1665658168.07962012,273322410,0,22.005002975463867,24.487882614135742,23.886184692382812,180.23780822753906,4.197587490081787,0.0,0.103946253657341,97
1665658168.17988205,273422672,0,22.037212371826172,24.47071075439453,23.392911911010742,180.8893585205078,4.2119460105896,0.0,0.10402718186378479,97
1665658168.27958012,273522370,0,22.04880714416504,24.50640869140625,23.636886596679688,181.54400634765625,4.226380348205566,0.0,0.10397317260503769,97
1665658168.37988901,273622679,0,22.10448455810547,24.508512496948242,23.121620178222656,182.1883087158203,4.240622520446777,0.0,0.10397317260503769,97
1665658168.47960591,273722396,0,22.131698608398438,24.528514862060547,23.052263259887695,182.82688903808594,4.25475549697876,0.0,0.10397317260503769,97
1665658168.57994699,273822737,0,22.068836212158203,24.44287109375,22.833145141601562,183.46334838867188,4.268801689147949,0.0,0.10397317260503769,97
1665658168.68067694,273923467,0,22.098831176757812,24.487001419067383,22.969097137451172,184.10609436035156,4.283005714416504,0.0,0.10397317260503769,97
1665658168.78095293,274023743,0,22.143966674804688,24.54713249206543,23.11333465576172,184.7499542236328,4.297263145446777,0.0,0.10397317260503769,97
1665658168.87978411,274122574,0,22.16259002685547,24.490041732788086,22.39163589477539,185.36471557617188,4.310887813568115,0.0,0.10394290089607239,97
1665658168.97999001,274222780,0,22.18622589111328,24.45962905883789,21.89621353149414,185.9742431640625,4.324410915374756,0.0,0.10382627695798874,97
1665658169.08073711,274323527,0,22.189674377441406,24.406003952026367,21.3990535736084,186.57315063476562,4.337700366973877,0.0,0.10357136279344559,97
1665658169.18083692,274423627,0,22.26173973083496,24.443225860595703,21.07958221435547,187.15931701660156,4.350749492645264,0.0,0.10348811745643616,97
1665658169.28074503,274523535,0,22.317607879638672,24.478267669677734,20.869670867919922,187.73854064941406,4.36367654800415,0.0,0.10353109985589981,97
1665658169.38076091,274623551,0,22.36149787902832,24.50327491760254,20.665281295776367,188.3126983642578,4.376515865325928,0.0,0.1036413311958313,97
1665658169.48078990,274723580,0,22.267297744750977,24.42448616027832,20.845426559448242,188.8919677734375,4.3894147872924805,0.0,0.10348495095968246,97
1665658169.58071804,274823508,0,22.262409210205078,24.441410064697266,21.070375442504883,189.4768829345703,4.402436256408691,0.0,0.10341538488864899,97
1665658169.68082213,274923612,0,22.30955696105957,24.50347328186035,21.186687469482422,190.06605529785156,4.4155802726745605,0.0,0.10355168581008911,97
1665658169.78076410,275023554,0,22.307395935058594,24.472810745239258,20.909019470214844,190.64654541015625,4.428529262542725,0.0,0.10356369614601135,97
1665658169.88064504,275123435,0,22.293745040893555,24.4842472076416,21.142187118530273,191.23321533203125,4.441608428955078,0.0,0.10360812395811081,97
1665658169.98077011,275223560,0,22.207693099975586,24.453516006469727,21.66175079345703,191.835693359375,4.454988479614258,0.0,0.10367685556411743,97
1665658170.08064103,275323431,0,22.146841049194336,24.414634704589844,21.83176612854004,192.44142150878906,4.4684038162231445,0.0,0.10387590527534485,97
1665658170.18067002,275423460,0,22.177505493164062,24.403060913085938,21.425138473510742,193.03677368164062,4.481607437133789,0.0,0.10387590527534485,97
1665658170.28067803,275523468,0,22.223215103149414,24.431015014648438,21.25420379638672,193.6272735595703,4.494729995727539,0.0,0.10387590527534485,97
1665658170.38072300,275623513,0,22.256755828857422,24.45272445678711,21.13912010192871,194.21478271484375,4.507805824279785,0.0,0.10388176143169403,97
1665658170.48078704,275723577,0,22.206254959106445,24.39839744567871,21.102293014526367,194.8013153076172,4.5208306312561035,0.0,0.10388176143169403,97
1665658170.58082008,275823610,0,22.14272117614746,24.34551239013672,21.20479393005371,195.39064025878906,4.53387975692749,0.0,0.10388176143169403,97
1665658170.68083096,275923621,0,22.189739227294922,24.370731353759766,20.994949340820312,195.97393798828125,4.546823024749756,0.0,0.10388176143169403,97
1665658170.78074813,276023538,0,22.217370986938477,24.415607452392578,21.161828994750977,196.5613250732422,4.559873580932617,0.0,0.10387741029262543,97
1665658170.87980103,276122591,0,22.215070724487305,24.429054260253906,21.313432693481445,197.14779663085938,4.572902202606201,0.0,0.10387741029262543,97
1665658170.97977805,276222568,0,22.18651580810547,24.368621826171875,21.00654411315918,197.73123168945312,4.585846424102783,0.0,0.10387741029262543,97
1665658171.07967997,276322470,0,22.162748336791992,24.333600997924805,20.898210525512695,198.3112030029297,4.598700523376465,0.0,0.10387741029262543,97
1665658171.17978501,276422575,0,22.210758209228516,24.381160736083984,20.904041290283203,198.8925323486328,4.611612319946289,0.0,0.10382694005966187,97
1665658171.27978706,276522577,0,22.218807220458984,24.41092300415039,21.102598190307617,199.47877502441406,4.624638080596924,0.0,0.10387896746397018,97
1665658171.37996006,276622750,0,22.185054779052734,24.402435302734375,21.34923553466797,200.0728759765625,4.637818336486816,0.0,0.10386230051517487,97
1665658171.48080707,276723597,0,22.23308563232422,24.42928695678711,21.12592315673828,200.6647186279297,4.650976657867432,0.0,0.10395767539739609,97
1665658171.58084607,276823636,0,22.16696548461914,24.37843894958496,21.253589630126953,201.25537109375,4.664069652557373,0.0,0.10405173897743225,97
1665658171.67964506,276922435,0,22.166006088256836,24.412023544311523,21.59269905090332,201.84800720214844,4.677206039428711,0.0,0.104017473757267,97
1665658171.77980304,277022593,0,22.159683227539062,24.415700912475586,21.697961807250977,202.4517364501953,4.690584659576416,0.0,0.10397373139858246,97
1665658171.87962914,277122419,0,22.16341781616211,24.40631866455078,21.57305908203125,203.04998779296875,4.70384407043457,0.0,0.10396768897771835,97
1665658171.97991896,277222709,0,22.152015686035156,24.394428253173828,21.5607852935791,203.6506805419922,4.717150688171387,0.0,0.10400425642728806,97
1665658172.07965899,277322449,0,22.122020721435547,24.331941604614258,21.248371124267578,204.23941040039062,4.730174541473389,0.0,0.10400425642728806,97
1665658172.17989397,277422684,0,22.164823532104492,24.381723403930664,21.31547737121582,204.83297729492188,4.743330478668213,0.0,0.10400425642728806,97
1665658172.27968502,277522475,0,22.256372451782227,24.467056274414062,21.207555770874023,205.42088317871094,4.756415367126465,0.0,0.10424039512872696,97
1665658172.37983990,277622630,0,22.220436096191406,24.40411949157715,20.950382232666016,206.00379943847656,4.769367694854736,0.0,0.10423120856285095,97
1665658172.48080206,277723592,0,22.149715423583984,24.334102630615234,20.957134246826172,206.59158325195312,4.7823872566223145,0.0,0.10423120856285095,97
1665658172.58074307,277823533,0,22.13418960571289,24.333450317382812,21.099838256835938,207.17738342285156,4.795353412628174,0.0,0.10423120856285095,97
1665658172.68079495,277923585,0,22.208362579345703,24.41486358642578,21.15016746520996,207.76524353027344,4.808408737182617,0.0,0.10432543605566025,97
1665658172.78080010,278023590,0,22.171661376953125,24.363786697387695,21.012372970581055,208.34878540039062,4.821346759796143,0.0,0.10432543605566025,97
1665658172.87978292,278122573,0,22.228580474853516,24.443532943725586,21.231185913085938,208.93280029296875,4.834328651428223,0.0,0.10432543605566025,97
1665658172.97983003,278222620,0,22.23935890197754,24.44615936279297,21.121797561645508,209.5198516845703,4.847383975982666,0.0,0.10447980463504791,97
1665658173.07962012,278322410,0,22.162174224853516,24.357254028320312,21.009611129760742,210.10227966308594,4.860291481018066,0.0,0.10447980463504791,97
1665658173.17977810,278422568,0,22.168975830078125,24.383230209350586,21.182083129882812,210.69163513183594,4.873356819152832,0.0,0.10453427582979202,97
1665658173.27964592,278522436,0,22.187471389770508,24.386545181274414,21.04336929321289,211.27545166015625,4.88631010055542,0.0,0.10450199246406555,97
1665658173.37995100,278622741,0,22.168975830078125,24.35862159729004,20.953144073486328,211.85931396484375,4.899253845214844,0.0,0.10450199246406555,97
1665658173.47966909,278722459,0,22.153165817260742,24.316320419311523,20.69965362548828,212.43272399902344,4.911956787109375,0.0,0.10450199246406555,97
1665658173.57988405,278822674,0,22.176931381225586,24.322223663330078,20.528717041015625,213.00424194335938,4.924631118774414,0.0,0.10450199246406555,97
1665658173.67960501,278922395,0,22.22149085998535,24.366968154907227,20.530864715576172,213.572998046875,4.937269687652588,0.0,0.10450010001659393,97
1665658173.77988791,279022678,0,22.270267486572266,24.409881591796875,20.44923210144043,214.14268493652344,4.949956893920898,0.0,0.10463056713342667,97
1665658173.88076091,279123551,0,22.248611450195312,24.378267288208008,20.35317611694336,214.7130126953125,4.962646007537842,0.0,0.10463510453701019,97
1665658173.98080301,279223593,0,22.20123863220215,24.3011417388916,20.06882667541504,215.27078247070312,4.975028991699219,0.0,0.10463510453701019,97
1665658174.07977295,279322563,0,22.192453384399414,24.291282653808594,20.058565139770508,215.822265625,4.987267971038818,0.0,0.10463510453701019,97
1665658174.17991495,279422705,0,22.2208194732666,24.360492706298828,20.444015502929688,216.39085388183594,4.999902248382568,0.0,0.10466010123491287,97
1665658174.27968311,279522473,0,22.22484588623047,24.36699676513672,20.45997428894043,216.9580535888672,5.012508392333984,0.0,0.10469961166381836,97
1665658174.37979102,279622581,0,22.266530990600586,24.410642623901367,20.446470260620117,217.52667236328125,5.025169849395752,0.0,0.10486465692520142,97
1665658174.47974896,279722539,0,22.281095504760742,24.430999755859375,20.501710891723633,218.095947265625,5.037853717803955,0.0,0.10486465692520142,97
1665658174.57981610,279822606,0,22.17214012145996,24.311843872070312,20.40442657470703,218.66317749023438,5.050430774688721,0.0,0.10486465692520142,97
1665658174.67963910,279922429,0,22.13381004333496,24.33913803100586,21.009920120239258,219.24578857421875,5.063326358795166,0.0,0.10496602207422256,97
1665658174.77976394,280022554,0,22.198577880859375,24.383699417114258,20.83059310913086,219.8251953125,5.076188087463379,0.0,0.10489960014820099,97
1665658174.87959504,280122385,0,22.20290184020996,24.38355827331543,20.799699783325195,220.4019317626953,5.088993072509766,0.0,0.10484074056148529,97
1665658174.97999501,280222785,0,22.193605422973633,24.36296272277832,20.6879940032959,220.97903442382812,5.10180139541626,0.0,0.10486064851284027,97
1665658175.08077002,280323560,0,22.131507873535156,24.317293167114258,20.809213638305664,221.5615234375,5.114692687988281,0.0,0.10503928363323212,97
1665658175.18073297,280423523,0,22.161788940429688,24.365924835205078,20.98628807067871,222.14437866210938,5.127609729766846,0.0,0.1050274446606636,97
1665658175.28068995,280523480,0,22.189390182495117,24.407289505004883,21.11733055114746,222.7307586669922,5.140621185302734,0.0,0.1050274446606636,97
1665658175.38083506,280623625,0,22.15057945251465,24.368576049804688,21.117021560668945,223.3182373046875,5.153634071350098,0.0,0.10503358393907547,97
1665658175.47990108,280722691,0,22.1156005859375,24.329639434814453,21.050735473632812,223.89756774902344,5.166446208953857,0.0,0.10517630726099014,97
1665658175.57986808,280822658,0,22.12010383605957,24.307331085205078,20.795812606811523,224.47509765625,5.179221153259277,0.0,0.10517630726099014,97
1665658175.67966199,280922452,0,22.16035270690918,24.379497528076172,21.11579704284668,225.06048583984375,5.192193508148193,0.0,0.10509403049945831,97
1665658175.77987313,281022663,0,22.168785095214844,24.39089584350586,21.14402961730957,225.6490936279297,5.205242156982422,0.0,0.10509403049945831,97
1665658175.87960792,281122398,0,22.18105125427246,24.40116310119629,21.125003814697266,226.23439025878906,5.218225002288818,0.0,0.10509403049945831,97
1665658175.97987294,281222663,0,22.138887405395508,24.377450942993164,21.30575942993164,226.82781982421875,5.231362819671631,0.0,0.10506843775510788,97
1665658176.07966709,281322457,0,22.059158325195312,24.25154685974121,20.866294860839844,227.4062957763672,5.244123458862305,0.0,0.10506843775510788,97
1665658176.17998505,281422775,0,22.04727554321289,24.313941955566406,21.54636001586914,228.00674438476562,5.257361888885498,0.0,0.10519947856664658,97
1665658176.28070998,281523500,0,22.07765007019043,24.351686477661133,21.619707107543945,228.6116943359375,5.270718097686768,0.0,0.10518351197242737,97
1665658176.38077307,281623563,0,22.110042572021484,24.348325729370117,21.28028678894043,229.20323181152344,5.283796787261963,0.0,0.10518110543489456,97
1665658176.48080206,281723592,0,22.082199096679688,24.34024429321289,21.462783813476562,229.79965209960938,5.296967029571533,0.0,0.10520748049020767,97
1665658176.58070111,281823491,0,22.029640197753906,24.297731399536133,21.52273178100586,230.39694213867188,5.310125350952148,0.0,0.10538120567798615,97
1665658176.68072391,281923514,0,22.03711700439453,24.323793411254883,21.68599510192871,230.99951171875,5.323404312133789,0.0,0.10544485598802567,97
1665658176.78075290,282023543,0,22.080238342285156,24.377573013305664,21.8145809173584,231.60568237304688,5.336788654327393,0.0,0.10531185567378998,97
1665658176.88076997,282123560,0,22.08340072631836,24.34436798095703,21.469636917114258,232.2022247314453,5.34996223449707,0.0,0.10531000792980194,97
1665658176.98076701,282223557,0,22.105920791625977,24.364076614379883,21.44293975830078,232.7978973388672,5.36313009262085,0.0,0.10531000792980194,97
1665658177.08072305,282323513,0,22.019962310791016,24.31513786315918,21.77100372314453,233.40243530273438,5.376441955566406,0.0,0.10542352497577667,97
1665658177.18081808,282423608,0,22.033763885498047,24.30886459350586,21.555259704589844,234.00181579589844,5.3896484375,0.0,0.10554736107587814,97
1665658177.27977395,282522564,0,22.02097511291504,24.27321434020996,21.338665008544922,234.58840942382812,5.402565956115723,0.0,0.10554736107587814,97
1665658177.37980509,282622595,0,22.052640914916992,24.33741569519043,21.652851104736328,235.1901092529297,5.415834903717041,0.0,0.1055184155702591,97
1665658177.48073602,282723526,0,22.08426284790039,24.416736602783203,22.104896545410156,235.80990600585938,5.429522514343262,0.0,0.1055184155702591,97
1665658177.58086610,282823656,0,22.02389144897461,24.312274932861328,21.663591384887695,236.41250610351562,5.442793846130371,0.0,0.1056327074766159,97
1665658177.68068409,282923474,0,22.029451370239258,24.33603858947754,21.832073211669922,237.0178985595703,5.456130504608154,0.0,0.10565129667520523,97
1665658177.78074408,283023534,0,22.101226806640625,24.426456451416016,22.008535385131836,237.62966918945312,5.469651222229004,0.0,0.10565129667520523,97
1665658177.88070202,283123492,0,22.096147537231445,24.41009521484375,21.901737213134766,238.2378387451172,5.483089447021484,0.0,0.10565129667520523,97
1665658177.98071694,283223507,0,22.079187393188477,24.371540069580078,21.692747116088867,238.84056091308594,5.496397018432617,0.0,0.10567373037338257,97
1665658178.08070207,283323492,0,22.07880401611328,24.350318908691406,21.505237579345703,239.43788146972656,5.509585380554199,0.0,0.10562614351511002,97
1665658178.18070412,283423494,0,22.015972137451172,24.29452896118164,21.571901321411133,240.0371551513672,5.5227789878845215,0.0,0.10562614351511002,97
1665658178.28072309,283523513,0,22.10956382751465,24.381668090820312,21.491735458374023,240.63430786132812,5.535982131958008,0.0,0.10571987181901932,97
1665658178.38073611,283623526,0,22.159297943115234,24.342329025268555,20.658531188964844,241.20826721191406,5.54870080947876,0.0,0.10567209124565125,97
1665658178.47982597,283722616,0,22.117517471313477,24.25169563293457,20.25681495666504,241.76588439941406,5.561033725738525,0.0,0.10535603016614914,97
1665658178.57983994,283822630,0,22.152111053466797,24.327844619750977,20.653621673583984,242.3397216796875,5.5737457275390625,0.0,0.10534394532442093,97
1665658178.67975307,283922543,0,22.168880462646484,24.331769943237305,20.531171798706055,242.90957641601562,5.586378574371338,0.0,0.10534659028053284,97
1665658178.77994990,284022740,0,22.187374114990234,24.32933235168457,20.33353614807129,243.47555541992188,5.598936080932617,0.0,0.10534115135669708,97
1665658178.87965512,284122445,0,22.168655395507812,24.31473731994629,20.38219451904297,244.0401153564453,5.611451625823975,0.0,0.10529202222824097,97
1665658178.97990108,284222691,0,22.226089477539062,24.409677505493164,20.68860626220703,244.6162567138672,5.6242570877075195,0.0,0.10554546862840652,97
1665658179.07963705,284322427,0,22.156230926513672,24.296506881713867,20.307144165039062,245.17889404296875,5.636723041534424,0.0,0.10539524257183075,97
1665658179.17985797,284422648,0,22.15441131591797,24.288204193115234,20.2730770111084,245.7433319091797,5.649227619171143,0.0,0.10525251179933548,97
1665658179.27960300,284522393,0,22.093273162841797,24.265535354614258,20.63858413696289,246.31521606445312,5.661862373352051,0.0,0.10525251179933548,97
1665658179.37985706,284622647,0,22.104291915893555,24.344467163085938,21.305145263671875,246.9085693359375,5.674978256225586,0.0,0.1051471158862114,97
1665658179.47962403,284722414,0,22.1312198638916,24.41346549987793,21.775300979614258,247.5120849609375,5.6883344650268555,0.0,0.10480891913175583,97
1665658179.57991409,284822704,0,22.053407669067383,24.30430793762207,21.459203720092773,248.10995483398438,5.70151948928833,0.0,0.10489203780889511,97
1665658179.67981410,284922604,0,22.03251838684082,24.237096786499023,21.01759147644043,248.69325256347656,5.7143707275390625,0.0,0.10489203780889511,97
1665658179.77986002,285022650,0,22.0708065032959,24.329683303833008,21.549055099487305,249.29196166992188,5.7275848388671875,0.0,0.10482490062713623,97
1665658179.87967300,285122463,0,22.0068359375,24.26194190979004,21.476390838623047,249.88766479492188,5.740694522857666,0.0,0.10500394552946091,97
1665658179.97987294,285222663,0,22.05091667175293,24.333139419555664,21.753509521484375,250.49317932128906,5.75404691696167,0.0,0.10491286218166351,97
1665658180.07972503,285322515,0,22.04938316345215,24.28529930114746,21.294404983520508,251.0838623046875,5.76707124710083,0.0,0.10500017553567886,97
1665658180.17986202,285422652,0,21.991310119628906,24.142316818237305,20.48575210571289,251.6537322998047,5.779603481292725,0.0,0.10500017553567886,97
1665658180.27972794,285522518,0,22.103239059448242,24.293630599975586,20.85248565673828,252.23223876953125,5.7923903465271,0.0,0.10504219681024551,96
1665658180.37981510,285622605,0,22.146169662475586,24.34705924987793,20.91324806213379,252.81370544433594,5.805267810821533,0.0,0.10523898154497147,96
1665658180.47972393,285722514,0,22.2221622467041,24.421478271484375,20.822717666625977,253.3916473388672,5.818110942840576,0.0,0.10562095046043396,96
1665658180.58007598,285822866,0,22.160139083862305,24.323637008666992,20.484149932861328,253.96255493164062,5.8307623863220215,0.0,0.10561816394329071,96
1665658180.68066192,285923452,0,22.179039001464844,24.320005416870117,20.273386001586914,254.52919006347656,5.843329906463623,0.0,0.10560481250286102,96
1665658180.78079700,286023587,0,22.28607749938965,24.370052337646484,19.706867218017578,255.077392578125,5.855546951293945,0.0,0.10574863851070404,96
