timestamp,TimeUS,Instance,Volt,VoltR,Curr,CurrTot,EnrgTot,Temp,Res,RemPct
1673420387.17962313,97305294,0,24.702787399291992,24.749250411987305,0.49351564049720764,15.837632179260254,0.39140549302101135,0.0,0.09414751082658768,99
1673420387.27962112,97405292,0,24.660663604736328,24.698455810546875,0.40141066908836365,15.848784446716309,0.391680508852005,0.0,0.09414751082658768,99
1673420387.37964606,97505317,0,24.681631088256836,24.723814010620117,0.44805774092674255,15.861234664916992,0.39198780059814453,0.0,0.09414751082658768,99
1673420387.47959399,97605265,0,24.717626571655273,24.767322540283203,0.5278488397598267,15.875890731811523,0.39235004782676697,0.0,0.09414751082658768,99
1673420387.57966518,97705336,0,24.716190338134766,24.765422821044922,0.52293860912323,15.89042854309082,0.3927093744277954,0.0,0.09414751082658768,99
1673420387.67966008,97805331,0,24.70624542236328,24.754831314086914,0.5162553191184998,15.904769897460938,0.3930636942386627,0.0,0.09411272406578064,99
1673420387.77963209,97905303,0,24.700204849243164,24.7460994720459,0.4876464009284973,15.918313026428223,0.3933981955051422,0.0,0.09411272406578064,99
1673420387.87958097,98005252,0,24.674354553222656,24.715106964111328,0.4330202043056488,15.930335998535156,0.39369484782218933,0.0,0.09411272406578064,99
1673420387.97961307,98105284,0,24.695798873901367,24.741836547851562,0.4891808331012726,15.943929672241211,0.3940305709838867,0.0,0.09411272406578064,99
1673420388.07958913,98205260,0,24.710159301757812,24.759836196899414,0.5278488397598267,15.958588600158691,0.39439278841018677,0.0,0.09411272406578064,99
1673420388.17963314,98305304,0,24.717721939086914,24.76809310913086,0.5352141261100769,15.973464965820312,0.39476048946380615,0.0,0.09411272406578064,99
1673420388.27970600,98405377,0,24.674833297729492,24.716279983520508,0.44038552045822144,15.985708236694336,0.3950625956058502,0.0,0.09411272406578064,99
1673420388.37965298,98505324,0,24.684980392456055,24.728708267211914,0.4646297097206116,15.998608589172363,0.39538103342056274,0.0,0.09411272406578064,99
1673420388.47961617,98605287,0,24.70315933227539,24.750751495361328,0.5056846737861633,16.012649536132812,0.39572787284851074,0.0,0.09411272406578064,99
1673420388.57960820,98705279,0,24.719160079956055,24.769126892089844,0.5309177041053772,16.02739906311035,0.3960924744606018,0.0,0.09411272406578064,99
1673420388.67962408,98805295,0,24.70661735534668,24.754417419433594,0.5079010725021362,16.04151153564453,0.39644113183021545,0.0,0.09411272406578064,99
1673420388.77964211,98905313,0,24.669185638427734,24.709331512451172,0.42657551169395447,16.053363800048828,0.39673352241516113,0.0,0.09411272406578064,99
1673420388.87961102,99005282,0,24.714181900024414,24.763137817382812,0.5201765894889832,16.06781005859375,0.3970905542373657,0.0,0.09411272406578064,99
1673420388.97963619,99105307,0,24.681724548339844,24.72452735900879,0.454809308052063,16.080448150634766,0.39740246534347534,0.0,0.09411272406578064,99
1673420389.07973409,99205405,0,24.71552085876465,24.7657470703125,0.533679723739624,16.09528923034668,0.3977692425251007,0.0,0.09411272406578064,99
1673420389.17966819,99305339,0,24.71466064453125,24.764596939086914,0.5306107997894287,16.11001968383789,0.3981333076953888,0.0,0.09411272406578064,99
1673420389.27962708,99405298,0,24.698692321777344,24.744871139526367,0.49068117141723633,16.123645782470703,0.39846983551979065,0.0,0.09411272406578064,99
1673420389.37962604,99505297,0,24.61595344543457,24.735721588134766,1.2649959325790405,16.15878677368164,0.3993348479270935,0.0,0.09467856585979462,99
1673420389.47958112,99605252,0,24.46306037902832,24.82598114013672,4.397103786468506,16.2808837890625,0.4023217260837555,0.0,0.08253641426563263,99
1673420389.57961106,99705282,0,24.564924240112305,24.79112434387207,2.7712063789367676,16.357891082763672,0.40421339869499207,0.0,0.08162542432546616,99
1673420389.67962718,99805298,0,24.61748504638672,24.782400131225586,2.0343663692474365,16.414413452148438,0.40560486912727356,0.0,0.08106495440006256,99
1673420389.77964401,99905315,0,24.571338653564453,24.735130310058594,2.0045981407165527,16.470109939575195,0.4069734215736389,0.0,0.08170787245035172,99
1673420389.87956715,100005238,0,24.58531951904297,24.74675178527832,1.9689987897872925,16.52476692199707,0.4083171784877777,0.0,0.08198688924312592,99
1673420389.97962618,100105297,0,24.620262145996094,24.78043556213379,1.953654408454895,16.57906150817871,0.4096539318561554,0.0,0.08198688924312592,99
1673420390.07962918,100205300,0,24.628400802612305,24.786436080932617,1.927569031715393,16.632619857788086,0.4109730124473572,0.0,0.08198688924312592,99
1673420390.17961121,100305282,0,24.62635612487793,24.780704498291016,1.882592797279358,16.68490982055664,0.4122607111930847,0.0,0.08198688924312592,99
1673420390.27967715,100405348,0,24.58053207397461,24.7246036529541,1.7572455406188965,16.73375701904297,0.4134614169597626,0.0,0.08198688924312592,99
1673420390.37962699,100505298,0,24.6016902923584,24.749914169311523,1.8023582696914673,16.783802032470703,0.41469261050224304,0.0,0.0822383388876915,99
1673420390.47964406,100605315,0,24.629547119140625,24.782766342163086,1.8631222248077393,16.835567474365234,0.41596758365631104,0.0,0.0822383388876915,99
1673420390.57962704,100705298,0,24.625049591064453,24.777992248535156,1.8597464561462402,16.887222290039062,0.41723957657814026,0.0,0.0822383388876915,99
1673420390.67964506,100805316,0,24.62648582458496,24.78028678894043,1.8701808452606201,16.939186096191406,0.4185192584991455,0.0,0.0822383388876915,99
1673420390.77963805,100905309,0,24.604467391967773,24.75392723083496,1.8173959255218506,16.989669799804688,0.4197613596916199,0.0,0.0822383388876915,99
1673420390.87962699,101005298,0,24.590007781982422,24.736665725708008,1.7833311557769775,17.03920555114746,0.42097944021224976,0.0,0.0822383388876915,99
1673420390.97966504,101105336,0,24.61252784729004,24.763872146606445,1.8403103351593018,17.090349197387695,0.42223823070526123,0.0,0.0822383388876915,99
1673420391.07957911,101205250,0,24.631080627441406,24.785411834716797,1.876625418663025,17.14243507385254,0.42352116107940674,0.0,0.0822383388876915,99
1673420391.17963815,101305309,0,24.62887954711914,24.78257942199707,1.8689532279968262,17.194387435913086,0.42480069398880005,0.0,0.0822383388876915,99
1673420391.27966499,101405336,0,24.582828521728516,24.727947235107422,1.764611005783081,17.24342155456543,0.4260060787200928,0.0,0.0822383388876915,99
1673420391.37968397,101505355,0,24.580244064331055,24.725589752197266,1.7673730850219727,17.29252815246582,0.4272131323814392,0.0,0.0822383388876915,99
1673420391.47967911,101605350,0,24.609922409057617,24.760467529296875,1.8305920362472534,17.3433780670166,0.4284645617008209,0.0,0.0822383388876915,99
1673420391.57959509,101705266,0,24.622655868530273,24.77547264099121,1.8582121133804321,17.394956588745117,0.42973455786705017,0.0,0.0822383388876915,99
1673420391.67971206,101805383,0,24.611549377441406,24.761648178100586,1.8241474628448486,17.44569206237793,0.43098321557044983,0.0,0.08228445798158646,99
1673420391.77968311,101905354,0,24.57986068725586,24.72556495666504,1.7707487344741821,17.494869232177734,0.43219196796417236,0.0,0.08228445798158646,99
1673420391.87968302,102005354,0,24.593486785888672,24.74163246154785,1.8004146814346313,17.544885635375977,0.4334220290184021,0.0,0.08228445798158646,99
1673420391.97967911,102105350,0,24.621793746948242,24.77527618408203,1.8652704954147339,17.59670066833496,0.43469780683517456,0.0,0.08228445798158646,99
1673420392.07966900,102205340,0,24.62064552307129,24.772890090942383,1.8502330780029297,17.648094177246094,0.43596315383911133,0.0,0.08228445798158646,99
1673420392.17966104,102305332,0,24.630889892578125,24.785383224487305,1.8775460720062256,17.700246810913086,0.43724775314331055,0.0,0.08228445798158646,99
1673420392.27968407,102405355,0,24.604084014892578,24.75342559814453,1.8149408102035522,17.75067710876465,0.43848857283592224,0.0,0.08228445798158646,99
1673420392.37966108,102505332,0,24.58426284790039,24.730573654174805,1.7781141996383667,17.80006217956543,0.4397026598453522,0.0,0.08228445798158646,99
1673420392.47965813,102605329,0,24.622751235961914,24.775325775146484,1.8542225360870361,17.851572036743164,0.4409709572792053,0.0,0.08228445798158646,99
1673420392.57965708,102705328,0,24.61882781982422,24.77130126953125,1.8529949188232422,17.903047561645508,0.4422382414340973,0.0,0.08228445798158646,99
1673420392.67966199,102805333,0,24.632633209228516,24.787456512451172,1.881569743156433,17.955320358276367,0.44352585077285767,0.0,0.08228445798158646,99
1673420392.77972007,102905391,0,24.58081817626953,24.726221084594727,1.7670660018920898,18.004438400268555,0.444733202457428,0.0,0.08228445798158646,99
1673420392.87967420,103005345,0,24.593835830688477,24.741535186767578,1.7949930429458618,18.05428123474121,0.4459590017795563,0.0,0.08228445798158646,99
1673420392.97966599,103105337,0,24.6149959564209,24.766357421875,1.8394919633865356,18.105377197265625,0.4472167491912842,0.0,0.08228445798158646,99
1673420393.07966399,103205335,0,24.62581443786621,24.780256271362305,1.8769322633743286,18.157516479492188,0.44850075244903564,0.0,0.08228445798158646,99
1673420393.17963314,103305304,0,24.62485694885254,24.782480239868164,1.9156004190444946,18.210716247558594,0.44981077313423157,0.0,0.08228445798158646,99
1673420393.27966499,103405336,0,24.552766799926758,24.795696258544922,2.9792771339416504,18.293508529663086,0.4518435299396515,0.0,0.08153943717479706,99
1673420393.37963915,103505310,0,23.79231834411621,24.816234588623047,15.283065795898438,18.71796226501465,0.46194225549697876,0.0,0.0669967383146286,99
1673420393.47966003,103605331,0,23.51356315612793,24.75196075439453,18.483917236328125,19.23155403137207,0.4740186035633087,0.0,0.06699865311384201,99
1673420393.57966614,103705337,0,22.988218307495117,24.814861297607422,28.185287475585938,20.01458740234375,0.4920191764831543,0.0,0.06480838358402252,99
1673420393.67972207,103805393,0,22.608041763305664,24.813861846923828,34.89418411254883,20.9844913482666,0.5139467716217041,0.0,0.06321453303098679,99
1673420393.77969313,103905364,0,22.94704818725586,24.730857849121094,28.19510841369629,21.76752471923828,0.5319150686264038,0.0,0.06326664984226227,99
1673420393.87970304,104005374,0,23.073328018188477,24.65071678161621,24.817794799804688,22.4570255279541,0.5478241443634033,0.0,0.06355880200862885,99
1673420393.97971320,104105384,0,23.16207504272461,24.650142669677734,23.318336486816406,23.104673385620117,0.5628250241279602,0.0,0.06381534785032272,99
1673420394.07979417,104205465,0,23.171171188354492,24.70418930053711,24.000244140625,23.772146224975586,0.5782911777496338,0.0,0.06387510895729065,99
1673420394.17970204,104305373,0,23.116313934326172,24.73189353942871,25.305749893188477,24.47450065612793,0.594527006149292,0.0,0.06384241580963135,99
1673420394.27969098,104405362,0,23.09707260131836,24.685787200927734,24.84081268310547,25.16449546813965,0.6104638576507568,0.0,0.06395581364631653,99
1673420394.37971115,104505382,0,23.065509796142578,24.650423049926758,24.700462341308594,25.850818634033203,0.6262942552566528,0.0,0.06416536122560501,99
1673420394.47968006,104605351,0,23.013202667236328,24.622255325317383,24.970319747924805,26.54427146911621,0.6422528624534607,0.0,0.064438596367836,99
1673420394.57971215,104705383,0,23.013874053955078,24.65964698791504,25.489574432373047,27.252605438232422,0.6585543751716614,0.0,0.0645664855837822,99
1673420394.67968321,104805354,0,22.974239349365234,24.61707878112793,25.34779167175293,27.956562042236328,0.6747272610664368,0.0,0.06481194496154785,99
1673420394.77975202,104905423,0,22.90865707397461,24.620159149169922,26.321857452392578,28.68828010559082,0.6914899349212646,0.0,0.06502211093902588,99
1673420394.87968516,105005356,0,22.872661590576172,24.629833221435547,26.95865249633789,29.436697006225586,0.7086082100868225,0.0,0.06518024951219559,99
1673420394.97967100,105105342,0,22.82536506652832,24.572343826293945,26.671405792236328,30.17752456665039,0.7255178689956665,0.0,0.06550005078315735,99
1673420395.07968307,105205354,0,22.81426239013672,24.585906982421875,26.947296142578125,30.92620277404785,0.7425984144210815,0.0,0.06574481725692749,99
1673420395.17975807,105305429,0,22.812335968017578,24.661827087402344,28.13829803466797,31.708478927612305,0.7604439854621887,0.0,0.06572862714529037,99
1673420395.27968502,105405356,0,22.716035842895508,24.625690460205078,29.01020622253418,32.5137939453125,0.7787375450134277,0.0,0.06582699716091156,99
1673420395.37967706,105505348,0,22.691621780395508,24.620634078979492,29.25786590576172,33.32651138305664,0.7971794605255127,0.0,0.06593141704797745,99
1673420395.47973609,105605407,0,22.70674705505371,24.681488037109375,29.995317459106445,34.160274505615234,0.8161114454269409,0.0,0.06583498418331146,99
1673420395.57968616,105705357,0,22.70540428161621,24.680362701416016,30.0367488861084,34.99427795410156,0.8350478410720825,0.0,0.06575141847133636,99
1673420395.67971301,105805384,0,22.695161819458008,24.666236877441406,29.991943359375,35.82767105102539,0.8539618253707886,0.0,0.06572014093399048,99
1673420395.77968502,105905356,0,22.62958335876465,24.618152618408203,30.201852798461914,36.66644287109375,0.8729429244995117,0.0,0.0658426508307457,99
1673420395.87971616,106005387,0,22.61847686767578,24.651700973510742,30.877317428588867,37.52449035644531,0.8923506140708923,0.0,0.06584849953651428,99
1673420395.97967815,106105349,0,22.58490562438965,24.650243759155273,31.36029052734375,38.395347595214844,0.9120188355445862,0.0,0.06585840880870819,99
1673420396.07974315,106205414,0,22.681758880615234,24.67133903503418,30.23622703552246,39.23584747314453,0.9310828447341919,0.0,0.06580119580030441,99
1673420396.17971110,106305382,0,22.76131820678711,24.696044921875,29.353919982910156,40.051048278808594,0.9496378302574158,0.0,0.06591035425662994,99
1673420396.27971220,106405383,0,22.761510848999023,24.645980834960938,28.612478256225586,40.845909118652344,0.9677301049232483,0.0,0.06586180627346039,99
1673420396.37973499,106505406,0,22.75241470336914,24.580711364746094,27.848630905151367,41.619712829589844,0.9853360652923584,0.0,0.06565120071172714,99
1673420396.47966003,106605331,0,22.830537796020508,24.661943435668945,27.87318229675293,42.393455505371094,1.003001093864441,0.0,0.06570491939783096,99
1673420396.57969999,106705371,0,22.87572479248047,24.697736740112305,27.67278289794922,43.162506103515625,1.0205936431884766,0.0,0.06584129482507706,99
1673420396.67969704,106805368,0,22.895925521850586,24.708253860473633,27.470237731933594,43.92560577392578,1.0380655527114868,0.0,0.06597423553466797,99
1673420396.77968907,106905360,0,22.883956909179688,24.667648315429688,27.03844451904297,44.67668151855469,1.0552531480789185,0.0,0.06596869975328445,99
1673420396.87968111,107005352,0,22.858182907104492,24.60919761657715,26.607606887817383,45.4157829284668,1.0721476078033447,0.0,0.06580878794193268,99
1673420396.97967410,107105345,0,22.862226486206055,24.603445053100586,26.514585494995117,46.152305603027344,1.0889861583709717,0.0,0.0656701847910881,99
1673420397.07968020,107205351,0,22.87533950805664,24.624969482421875,26.662811279296875,46.893035888671875,1.1059305667877197,0.0,0.06562063097953796,99
1673420397.17970300,107305374,0,22.863277435302734,24.62447166442871,26.8552303314209,47.639244079589844,1.1229913234710693,0.0,0.0655810758471489,99
1673420397.27969813,107405369,0,22.86040496826172,24.58547019958496,26.358379364013672,48.37144470214844,1.1397297382354736,0.0,0.06544656306505203,99
1673420397.37967300,107505344,0,22.835325241088867,24.51945686340332,25.73293685913086,49.08613586425781,1.1560498476028442,0.0,0.06544656306505203,99
1673420397.47973800,107605409,0,22.81205940246582,24.532384872436523,26.285951614379883,49.81683349609375,1.1727185249328613,0.0,0.06544656306505203,99
1673420397.57967305,107705344,0,22.870840072631836,24.605430603027344,26.4921817779541,50.55230712890625,1.1895394325256348,0.0,0.06547559052705765,99
1673420397.67971706,107805388,0,22.885202407836914,24.602914810180664,26.228086471557617,51.28124237060547,1.206221342086792,0.0,0.06549135595560074,99
1673420397.77972007,107905391,0,22.90865707397461,24.608125686645508,25.939167022705078,52.00184631347656,1.2227294445037842,0.0,0.06551745533943176,99
1673420397.87976909,108005440,0,22.87256622314453,24.5157413482666,25.167036056518555,52.701148986816406,1.2387242317199707,0.0,0.06529074907302856,99
1673420397.97969699,108105368,0,22.888648986816406,24.537878036499023,25.304826736450195,53.4036865234375,1.2548043727874756,0.0,0.06517446786165237,99
1673420398.07967210,108205343,0,22.914976119995117,24.575706481933594,25.476993560791016,54.111366271972656,1.2710208892822266,0.0,0.06518545746803284,99
1673420398.17971110,108305382,0,22.93230438232422,24.59049415588379,25.41929817199707,54.81770324707031,1.2872188091278076,0.0,0.06523348391056061,99
1673420398.27974510,108405416,0,22.90281867980957,24.53009605407715,24.99302864074707,55.51233673095703,1.3031278848648071,0.0,0.0651092380285263,99
1673420398.37971306,108505384,0,22.879552841186523,24.476238250732422,24.523181915283203,56.19337463378906,1.3187097311019897,0.0,0.0651092380285263,99
1673420398.47969699,108605368,0,22.958154678344727,24.525915145874023,24.103971481323242,56.86286926269531,1.3340801000595093,0.0,0.06504160910844803,99
1673420398.57968307,108705354,0,22.948070526123047,24.484529495239258,23.68227195739746,57.52067565917969,1.3491755723953247,0.0,0.06487798690795898,99
1673420398.67967606,108805347,0,22.967348098754883,24.50311279296875,23.699800491333008,58.17900466918945,1.3642956018447876,0.0,0.06480077654123306,99
1673420398.77970815,108905379,0,22.92991065979004,24.429180145263672,23.229339599609375,58.824527740478516,1.3790974617004395,0.0,0.06454203277826309,99
1673420398.87967610,109005347,0,22.992046356201172,24.47493553161621,23.003469467163086,59.46335983276367,1.3937854766845703,0.0,0.06446368992328644,99
1673420398.97968912,109105360,0,23.087783813476562,24.549413681030273,22.624767303466797,60.091957092285156,1.408298373222351,0.0,0.06460309773683548,99
1673420399.07990813,109205579,0,23.114015579223633,24.5350341796875,21.972322463989258,60.70368576049805,1.4224379062652588,0.0,0.06467309594154358,99
1673420399.17970514,109305376,0,23.114398956298828,24.55156707763672,22.188064575195312,61.318817138671875,1.4366563558578491,0.0,0.06477216631174088,99
1673420399.27968597,109405357,0,23.085773468017578,24.52539825439453,22.223663330078125,61.936073303222656,1.4509061574935913,0.0,0.06477894634008408,99
1673420399.37971306,109505384,0,23.024127960205078,24.476476669311523,22.463924407958984,62.5602912902832,1.465278148651123,0.0,0.06465250998735428,99
1673420399.47969103,109605362,0,23.03924560546875,24.501100540161133,22.622312545776367,63.18852615356445,1.4797521829605103,0.0,0.06462004780769348,99
1673420399.57967520,109705346,0,23.091327667236328,24.574344635009766,22.88899803161621,63.8243522644043,1.4944342374801636,0.0,0.06479167938232422,99
1673420399.67967606,109805347,0,23.117656707763672,24.566347122192383,22.320335388183594,64.44441986083984,1.5087687969207764,0.0,0.06490451097488403,99
1673420399.77967620,109905347,0,23.098604202270508,24.54075050354004,22.212923049926758,65.06149291992188,1.5230224132537842,0.0,0.06492377072572708,99
1673420399.87968111,110005352,0,23.096879959106445,24.533000946044922,22.12208366394043,65.67607879638672,1.537217378616333,0.0,0.06491794437170029,99
1673420399.97970319,110105374,0,23.174043655395508,24.571455001831055,21.492961883544922,66.27328491210938,1.5510571002960205,0.0,0.06501718610525131,99
1673420400.07968903,110205360,0,23.183713912963867,24.54375457763672,20.917238235473633,66.85428619384766,1.5645267963409424,0.0,0.06502005457878113,99
1673420400.17970705,110305378,0,23.153078079223633,24.537742614746094,21.300540924072266,67.44611358642578,1.5782294273376465,0.0,0.06500605493783951,99
1673420400.27968717,110405358,0,23.054765701293945,24.46651268005371,21.717161178588867,68.04930114746094,1.5921357870101929,0.0,0.06500605493783951,99
1673420400.37967205,110505343,0,23.06289291381836,24.49098777770996,21.968639373779297,68.65950012207031,1.6062086820602417,0.0,0.06500605493783951,99
1673420400.47972298,110605394,0,23.114303588867188,24.538938522338867,21.900815963745117,69.26811981201172,1.6202764511108398,0.0,0.06504936516284943,99
1673420400.57971215,110705383,0,23.105974197387695,24.529199600219727,21.876571655273438,69.87588500976562,1.6343194246292114,0.0,0.06505705416202545,99
1673420400.67968011,110805351,0,23.140344619750977,24.534603118896484,21.42452621459961,70.47086334228516,1.6480873823165894,0.0,0.06507767736911774,99
1673420400.77970314,110905374,0,23.15451431274414,24.538305282592773,21.2551212310791,71.06147003173828,1.6617625951766968,0.0,0.06510385125875473,99
1673420400.87979198,111005463,0,23.091135025024414,24.48289680480957,21.37757110595703,71.6558609008789,1.675487756729126,0.0,0.06510385125875473,99
1673420400.97972798,111105399,0,23.10626220703125,24.471891403198242,20.97616195678711,72.23821258544922,1.6889437437057495,0.0,0.06510385125875473,99
1673420401.07975101,111205422,0,23.148481369018555,24.54692840576172,21.451190948486328,72.83426666259766,1.7027413845062256,0.0,0.06519202888011932,99
1673420401.17969012,111305361,0,23.14455795288086,24.538009643554688,21.359771728515625,73.42727661132812,1.7164664268493652,0.0,0.06523715704679489,99
1673420401.27968812,111405359,0,23.133258819580078,24.530668258666992,21.415319442749023,74.02217864990234,1.7302285432815552,0.0,0.06525275111198425,99
1673420401.37965512,111505326,0,23.125410079956055,24.51932144165039,21.367752075195312,74.61557006835938,1.7439510822296143,0.0,0.06523434817790985,99
1673420401.47968221,111605353,0,23.148481369018555,24.539438247680664,21.3094425201416,75.20771026611328,1.7576582431793213,0.0,0.06527423113584518,99
1673420401.57966518,111705336,0,23.180076599121094,24.53457260131836,20.745073318481445,75.7839126586914,1.7710145711898804,0.0,0.06529241800308228,99
1673420401.67969513,111805366,0,23.23052978515625,24.592212677001953,20.800928115844727,76.3619384765625,1.7844423055648804,0.0,0.06546258181333542,99
1673420401.77975416,111905425,0,23.154800415039062,24.482526779174805,20.332921981811523,76.92711639404297,1.797528862953186,0.0,0.06529934704303741,99
1673420401.87969208,112005363,0,23.207307815551758,24.527830123901367,20.22431755065918,77.48860168457031,1.8105593919754028,0.0,0.0652938187122345,99
1673420401.97965598,112105327,0,23.19625473022461,24.534128189086914,20.486059188842773,78.05750274658203,1.8237558603286743,0.0,0.06530652940273285,99
1673420402.07969117,112205362,0,23.220670700073242,24.547391891479492,20.301006317138672,78.62165832519531,1.8368560075759888,0.0,0.06535244733095169,99
1673420402.17969298,112305364,0,23.208606719970703,24.534170150756836,20.283205032348633,79.18513488769531,1.8499336242675781,0.0,0.06535273790359497,99
1673420402.27969217,112405363,0,23.214635848999023,24.536584854125977,20.225818634033203,79.74699401855469,1.8629770278930664,0.0,0.06535951048135757,99
1673420402.37970614,112505377,0,23.200754165649414,24.510055541992188,20.052732467651367,80.30414581298828,1.8759032487869263,0.0,0.06529293954372406,99
1673420402.47971511,112605386,0,23.255897521972656,24.498455047607422,19.055036544799805,80.83354187011719,1.8882148265838623,0.0,0.06520889699459076,99
1673420402.57971311,112705384,0,23.339096069335938,24.54981803894043,18.545907974243164,81.34873962402344,1.9002389907836914,0.0,0.065282441675663,99
1673420402.67978215,112805453,0,23.41431427001953,24.543447494506836,17.28534507751465,81.82925415039062,1.9114899635314941,0.0,0.06532314419746399,99
1673420402.77970600,112905377,0,23.26078224182129,24.534873962402344,19.501867294311523,82.37059783935547,1.9240820407867432,0.0,0.06533174961805344,99
1673420402.87972498,113005396,0,23.126556396484375,24.533952713012695,21.54390525817871,82.96920013427734,1.9379256963729858,0.0,0.06532692164182663,99
1673420402.97976303,113105434,0,23.07361602783203,24.51236343383789,22.00301170349121,83.58067321777344,1.9520347118377686,0.0,0.06538868695497513,99
1673420403.07968807,113205359,0,23.11210060119629,24.559423446655273,22.1644344329834,84.1959457397461,1.9662549495697021,0.0,0.06529930233955383,99
1673420403.17970109,113305372,0,23.04882049560547,24.549076080322266,22.991806030273438,84.8347396850586,1.9809784889221191,0.0,0.06525175273418427,99
1673420403.27969813,113405369,0,22.993675231933594,24.50542640686035,23.135433197021484,85.4774169921875,1.9957560300827026,0.0,0.06534358114004135,99
1673420403.37969303,113505364,0,23.002866744995117,24.526649475097656,23.31373405456543,86.12503814697266,2.010653257369995,0.0,0.06535989791154861,99
1673420403.47968698,113605358,0,22.98879051208496,24.47051429748535,22.605741500854492,86.75297546386719,2.0250887870788574,0.0,0.06554637104272842,99
1673420403.57972002,113705391,0,23.020620346069336,24.506486892700195,22.649763107299805,87.38241577148438,2.039578914642334,0.0,0.06560185551643372,99
1673420403.67972517,113805396,0,22.960166931152344,24.512941360473633,23.65898323059082,88.0396499633789,2.054669141769409,0.0,0.06563149392604828,99
1673420403.77979302,113905464,0,22.924360275268555,24.492910385131836,23.867361068725586,88.7029037475586,2.069873809814453,0.0,0.06571949273347855,99
1673420403.87969518,114005366,0,22.937763214111328,24.465240478515625,23.18484115600586,89.34661865234375,2.084639072418213,0.0,0.0658826231956482,99
1673420403.97972417,114105395,0,23.00975799560547,24.6097354888916,24.396129608154297,90.0245361328125,2.1002378463745117,0.0,0.06558328121900558,99
1673420404.07985020,114205521,0,23.023160934448242,24.65972900390625,24.95405387878418,90.71863555908203,2.116218090057373,0.0,0.06558328121900558,99
1673420404.17975020,114305421,0,23.06700897216797,24.74481773376465,25.582870483398438,91.42861938476562,2.1325953006744385,0.0,0.06558328121900558,99
1673420404.27971816,114405389,0,23.068349838256836,24.733478546142578,25.389530181884766,92.13362884521484,2.1488587856292725,0.0,0.06558328121900558,99
1673420404.37968612,114505357,0,23.04923439025879,24.71980094909668,25.47245979309082,92.84111022949219,2.165165662765503,0.0,0.06558328121900558,99
1673420404.47973418,114605405,0,23.07122230529785,24.762495040893555,25.788177490234375,93.55784606933594,2.18170166015625,0.0,0.06558328121900558,99
1673420404.57971120,114705382,0,23.02459716796875,24.755752563476562,26.532691955566406,94.29475402832031,2.1986687183380127,0.0,0.06524612754583359,99
1673420404.67973304,114805404,0,22.953367233276367,24.735157012939453,27.409164428710938,95.0562515258789,2.2161476612091064,0.0,0.06500708311796188,99
1673420404.77973914,114905410,0,22.77720832824707,24.631044387817383,28.469467163085938,95.84727478027344,2.2341649532318115,0.0,0.06511667370796204,99
1673420404.87970519,115005376,0,22.623071670532227,24.50686264038086,28.714977264404297,96.64471435546875,2.2522053718566895,0.0,0.06560306996107101,99
1673420404.97972107,115105392,0,22.67304801940918,24.503494262695312,27.712984085083008,97.4146957397461,2.269663095474243,0.0,0.06605014204978943,99
1673420405.07969499,115205366,0,22.679269790649414,24.50210952758789,27.42880630493164,98.17647552490234,2.286939859390259,0.0,0.0664571151137352,99
1673420405.17970300,115305374,0,22.697982788085938,24.51762580871582,27.25002670288086,98.93354034423828,2.304123640060425,0.0,0.06677579134702682,99
1673420405.27970815,115405379,0,22.722736358642578,24.539451599121094,27.117006301879883,99.6868896484375,2.321241855621338,0.0,0.06699541956186295,99
1673420405.37979412,115505465,0,22.649686813354492,24.50232696533203,27.524248123168945,100.4521713256836,2.3385751247406006,0.0,0.0673094168305397,99
1673420405.47974706,115605418,0,22.62421989440918,24.478267669677734,27.399343490600586,101.21296691894531,2.355787515640259,0.0,0.0676676332950592,99
1673420405.57980108,115705472,0,22.631305694580078,24.50679588317871,27.620304107666016,101.98036193847656,2.373154640197754,0.0,0.0679025948047638,99
1673420405.67973804,115805409,0,22.682048797607422,24.555789947509766,27.570281982421875,102.74608612060547,2.3905229568481445,0.0,0.06796237081289291,99
1673420405.77974319,115905414,0,22.69200325012207,24.55523681640625,27.393205642700195,103.50711822509766,2.407792329788208,0.0,0.06801808625459671,99
1673420405.87971210,116005383,0,22.6928653717041,24.57526397705078,27.679841995239258,104.27582550048828,2.425236463546753,0.0,0.06800614297389984,99
1673420405.97970200,116105373,0,22.759403228759766,24.680204391479492,28.244516372680664,105.0602798461914,2.4430902004241943,0.0,0.06800614297389984,99
1673420406.07967615,116205347,0,22.835420608520508,24.743270874023438,28.054075241088867,105.83952331542969,2.4608845710754395,0.0,0.06800614297389984,99
1673420406.17970204,116305373,0,22.90875244140625,24.774572372436523,27.266462326049805,106.59718322753906,2.4782416820526123,0.0,0.06842914968729019,99
1673420406.27974200,116405413,0,22.885395050048828,24.719682693481445,26.734928131103516,107.34017944335938,2.4952454566955566,0.0,0.06861018389463425,99
1673420406.37972307,116505394,0,22.954517364501953,24.749130249023438,26.073583602905273,108.06436157226562,2.511868715286255,0.0,0.0688287690281868,99
1673420406.47975302,116605424,0,23.077157974243164,24.760766983032227,24.389686584472656,108.74211883544922,2.5275094509124756,0.0,0.0690295547246933,99
1673420406.57969904,116705370,0,23.144079208374023,24.720928192138672,22.827009201049805,109.37590789794922,2.54217791557312,0.0,0.06907819211483002,99
1673420406.67969298,116805364,0,23.244218826293945,24.709110260009766,21.204486846923828,109.96493530273438,2.5558693408966064,0.0,0.0690840482711792,99
1673420406.77971220,116905383,0,23.252452850341797,24.672666549682617,20.585798263549805,110.53691864013672,2.569169282913208,0.0,0.06898996978998184,99
1673420406.87979507,117005466,0,23.193265914916992,24.647878646850586,21.127254486083984,111.12432098388672,2.5827929973602295,0.0,0.06885004788637161,99
1673420406.97968698,117105358,0,23.154895782470703,24.64527702331543,21.6832332611084,111.72602844238281,2.5967254638671875,0.0,0.0687342956662178,99
1673420407.07972097,117205392,0,23.214445114135742,24.691072463989258,21.472707748413086,112.32274627685547,2.6105780601501465,0.0,0.06876763701438904,99
1673420407.17976999,117305441,0,23.283472061157227,24.671733856201172,20.195436477661133,112.88397979736328,2.623645544052124,0.0,0.06874135881662369,99
1673420407.27975798,117405429,0,23.368391036987305,24.616233825683594,18.198204040527344,113.3895263671875,2.6354594230651855,0.0,0.06856955587863922,99
1673420407.37978601,117505457,0,23.343597412109375,24.608121871948242,18.483610153198242,113.90312194824219,2.6474485397338867,0.0,0.06841325759887695,99
1673420407.47971320,117605384,0,23.301471710205078,24.677574157714844,20.095083236694336,114.46098327636719,2.660447597503662,0.0,0.068479523062706,99
1673420407.57971001,117705381,0,23.2564754486084,24.71432876586914,21.288881301879883,115.0523452758789,2.6742005348205566,0.0,0.068479523062706,99
1673420407.67973804,117805409,0,23.213584899902344,24.71548843383789,21.979074478149414,115.66311645507812,2.6883788108825684,0.0,0.06833337247371674,99
1673420407.77971315,117905384,0,23.230817794799805,24.61920928955078,20.361392974853516,116.2286148071289,2.7015159130096436,0.0,0.06818747520446777,99
1673420407.87972403,118005395,0,23.348285675048828,24.613378524780273,18.5888729095459,116.74503326416016,2.713573455810547,0.0,0.06805648654699326,99
1673420407.97973013,118105401,0,23.34187126159668,24.675310134887695,19.574291229248047,117.28878784179688,2.7262656688690186,0.0,0.06812193989753723,99
1673420408.07976413,118205435,0,23.285770416259766,24.693571090698242,20.665895462036133,117.86317443847656,2.739640712738037,0.0,0.06812193989753723,99
1673420408.17967415,118305345,0,23.318897247314453,24.71332550048828,20.428363800048828,118.43016815185547,2.7528624534606934,0.0,0.06825941801071167,99
1673420408.27973318,118405404,0,23.348957061767578,24.67324447631836,19.40089988708496,118.96944427490234,2.765454053878784,0.0,0.068259097635746,99
1673420408.37976599,118505437,0,23.348669052124023,24.624223709106445,18.72359848022461,119.48976135253906,2.7776026725769043,0.0,0.06812550872564316,99
1673420408.47975397,118605425,0,23.391082763671875,24.641679763793945,18.372821807861328,120.00009155273438,2.7895398139953613,0.0,0.0680677592754364,99
1673420408.57970810,118705379,0,23.405166625976562,24.661069869995117,18.448795318603516,120.51235961914062,2.8015296459198,0.0,0.06807504594326019,99
1673420408.67973113,118805402,0,23.40553855895996,24.676395416259766,18.655466079711914,121.03073120117188,2.81366229057312,0.0,0.0681224837899208,99
1673420408.77976513,118905436,0,23.404006958007812,24.622169494628906,17.910953521728516,121.5284652709961,2.8253111839294434,0.0,0.06801217049360275,99
1673420408.87981820,119005489,0,23.398168563842773,24.65553855895996,18.486370086669922,122.04229736328125,2.837333917617798,0.0,0.06801606714725494,99
1673420408.97975707,119105428,0,23.44622802734375,24.65626335144043,17.789119720458984,122.53617858886719,2.8489134311676025,0.0,0.06802112609148026,99
1673420409.07982421,119205495,0,23.446800231933594,24.66075897216797,17.842517852783203,123.03217315673828,2.8605430126190186,0.0,0.06803737580776215,99
1673420409.17976809,119305439,0,23.471595764160156,24.663440704345703,17.512306213378906,123.51839447021484,2.871955394744873,0.0,0.06805755198001862,99
1673420409.27972198,119405393,0,23.42411231994629,24.610429763793945,17.46412467956543,124.0033187866211,2.883314371109009,0.0,0.06792882829904556,99
1673420409.37968707,119505358,0,23.439739227294922,24.65900421142578,17.941064834594727,124.50154876708984,2.8949928283691406,0.0,0.0679595023393631,99
1673420409.47969699,119605368,0,23.35719108581543,24.66550636291504,19.2646427154541,125.03677368164062,2.907494306564331,0.0,0.067912757396698,99
1673420409.57969809,119705369,0,23.353456497192383,24.70553970336914,19.95698356628418,125.5911865234375,2.9204416275024414,0.0,0.06774988025426865,99
1673420409.67971015,119805381,0,23.262409210205078,24.723834991455078,21.63474464416504,126.19219207763672,2.934422492980957,0.0,0.0675499215722084,99
1673420409.77975011,119905421,0,23.21080780029297,24.713375091552734,22.291488647460938,126.81177520751953,2.948803424835205,0.0,0.06740544736385345,99
1673420409.87975597,120005427,0,23.094295501708984,24.67683982849121,23.483442306518555,127.46418762207031,2.9638705253601074,0.0,0.06738978624343872,99
1673420409.97971702,120105388,0,22.99692726135254,24.698284149169922,25.276596069335938,128.1660919189453,2.9800124168395996,0.0,0.06730961054563522,99
1673420410.07971001,120205381,0,22.973567962646484,24.726953506469727,26.11163902282715,128.89141845703125,2.996675729751587,0.0,0.06714960932731628,99
1673420410.17968702,120305358,0,23.024213790893555,24.677858352661133,24.62261390686035,129.5752716064453,3.012421131134033,0.0,0.06715958565473557,99
1673420410.27969503,120405366,0,22.969558715820312,24.63593101501465,24.76115608215332,130.26319885253906,3.0282225608825684,0.0,0.0672978013753891,99
1673420410.37972713,120505398,0,22.867586135864258,24.6348819732666,26.21137809753418,130.9915771484375,3.0448789596557617,0.0,0.06742475181818008,99
1673420410.47970009,120605371,0,22.901765823364258,24.673315048217773,26.276744842529297,131.7212677001953,3.0615899562835693,0.0,0.06741893291473389,99
1673420410.57968712,120705358,0,22.91832733154297,24.69948959350586,26.45320701599121,132.4561309814453,3.0784318447113037,0.0,0.06733256578445435,99
1673420410.67980099,120805472,0,22.869979858398438,24.75041961669922,28.026012420654297,133.23541259765625,3.0962541103363037,0.0,0.06709619611501694,99
1673420410.77977610,120905447,0,22.8220157623291,24.693313598632812,27.903871536254883,134.0105438232422,3.1139440536499023,0.0,0.06706227362155914,99
1673420410.87969017,121005361,0,22.901094436645508,24.697242736816406,26.8002986907959,134.75442504882812,3.1309797763824463,0.0,0.06701971590518951,99
1673420410.97972012,121105391,0,22.984291076660156,24.72805404663086,26.018651962280273,135.47744750976562,3.1475977897644043,0.0,0.06701971590518951,99
1673420411.07972002,121205391,0,23.004554748535156,24.711793899536133,25.453702926635742,136.18450927734375,3.163863182067871,0.0,0.067072294652462,99
1673420411.17967415,121305345,0,23.02383041381836,24.734228134155273,25.462570190429688,136.89158630371094,3.180142641067505,0.0,0.06717302650213242,99
1673420411.27971411,121405385,0,23.02220344543457,24.707962036132812,25.0927677154541,137.58892822265625,3.196197271347046,0.0,0.0671810656785965,99
1673420411.37969518,121505366,0,23.02469253540039,24.659107208251953,24.373727798461914,138.2659149169922,3.211784601211548,0.0,0.06705644726753235,99
1673420411.47969818,121605369,0,23.034648895263672,24.65283966064453,24.172714233398438,138.9374542236328,3.2272531986236572,0.0,0.06694284826517105,99
1673420411.57967019,121705341,0,23.105209350585938,24.694297790527344,23.729875564575195,139.5964813232422,3.2424802780151367,0.0,0.066965751349926,99
1673420411.67980409,121805475,0,23.115358352661133,24.689542770385742,23.505538940429688,140.25033569335938,3.257594347000122,0.0,0.06697078794240952,99
1673420411.77969813,121905369,0,23.069114685058594,24.618227005004883,23.19619369506836,140.89404296875,3.272444248199463,0.0,0.06678307056427002,99
1673420411.87975311,122005424,0,23.090272903442383,24.630109786987305,23.096763610839844,141.53602600097656,3.2872676849365234,0.0,0.06666890531778336,99
1673420411.97972512,122105396,0,23.087636947631836,24.638551712036133,23.28604507446289,142.18272399902344,3.302198648452759,0.0,0.06660274416208267,99
1673420412.07971501,122205386,0,23.102815628051758,24.617155075073242,22.774221420288086,142.81524658203125,3.3168118000030518,0.0,0.06649356335401535,99
1673420412.17969513,122305366,0,23.163705825805664,24.649456024169922,22.343658447265625,143.43589782714844,3.331188440322876,0.0,0.06649535894393921,99
1673420412.27970314,122405374,0,23.104921340942383,24.628097534179688,22.925825119018555,144.0728302001953,3.345904588699341,0.0,0.06643932312726974,99
1673420412.37973905,122505410,0,23.092857360839844,24.675020217895508,23.813655853271484,144.73435974121094,3.3611812591552734,0.0,0.06643932312726974,99
1673420412.47969699,122605368,0,23.202478408813477,24.72481918334961,22.84358024597168,145.36891174316406,3.3759045600891113,0.0,0.06664198637008667,99
1673420412.57973409,122705405,0,23.2764835357666,24.713584899902344,21.52303695678711,145.9669647216797,3.3898253440856934,0.0,0.06677041947841644,99
1673420412.67976618,122805437,0,23.25446319580078,24.73348617553711,22.099987030029297,146.5811767578125,3.4041085243225098,0.0,0.06692415475845337,99
1673420412.77976704,122905438,0,23.21198844909668,24.728431701660156,22.623167037963867,147.20965576171875,3.418696641921997,0.0,0.06703051924705505,99
1673420412.87970519,123005376,0,23.173757553100586,24.684322357177734,22.54743194580078,147.83563232421875,3.4332029819488525,0.0,0.06699496507644653,99
1673420412.97969604,123105367,0,23.18572425842285,24.698474884033203,22.57658576965332,148.46275329589844,3.4477431774139404,0.0,0.06700525432825089,99
1673420413.07974505,123205416,0,23.220382690429688,24.723031997680664,22.401046752929688,149.0853729248047,3.462200403213501,0.0,0.06707943230867386,99
1673420413.17974710,123305418,0,23.140056610107422,24.707069396972656,23.366518020629883,149.73451232910156,3.4772214889526367,0.0,0.06706228852272034,99
1673420413.27975917,123405430,0,23.00324821472168,24.651412963867188,24.519500732421875,150.41549682617188,3.492886543273926,0.0,0.06721850484609604,99
1673420413.37967920,123505350,0,23.017227172851562,24.623430252075195,23.81549644470215,151.07679748535156,3.508107900619507,0.0,0.0674436166882515,99
1673420413.47973299,123605404,0,23.097261428833008,24.652278900146484,23.056560516357422,151.7176513671875,3.5229098796844482,0.0,0.0674436166882515,99
1673420413.57975817,123705429,0,23.105932235717773,24.68654441833496,23.44017219543457,152.36898803710938,3.537959575653076,0.0,0.06743174046278,99
1673420413.67972803,123805399,0,23.102432250976562,24.67420196533203,23.29961585998535,153.01597595214844,3.5529065132141113,0.0,0.06745904684066772,99
1673420413.77970314,123905374,0,23.047956466674805,24.622867584228516,23.28335189819336,153.66270446777344,3.567812204360962,0.0,0.06764106452465057,99
1673420413.87975717,124005428,0,23.059635162353516,24.63722038269043,23.282123565673828,154.30984497070312,3.5827348232269287,0.0,0.06775949895381927,99
1673420413.97974014,124105411,0,23.11210060119629,24.689393997192383,23.277828216552734,154.95632934570312,3.5976762771606445,0.0,0.06775949895381927,99
1673420414.07980418,124205475,0,23.11114501953125,24.676538467407227,23.100446701049805,155.59854125976562,3.612518548965454,0.0,0.06776467710733414,99
1673420414.17973709,124305408,0,23.105783462524414,24.694345474243164,23.44232177734375,156.24932861328125,3.6275553703308105,0.0,0.06776467710733414,99
1673420414.27971101,124405382,0,23.0798397064209,24.66059684753418,23.308517456054688,156.8966827392578,3.642496109008789,0.0,0.06781889498233795,99
1673420414.37971997,124505391,0,23.084550857543945,24.629743576049805,22.78411293029785,157.52967834472656,3.6571085453033447,0.0,0.06781889498233795,99
1673420414.47972298,124605394,0,23.113727569580078,24.611953735351562,22.14141845703125,158.14479064941406,3.671325922012329,0.0,0.06766626238822937,99
1673420414.57974815,124705419,0,23.16571617126465,24.66039276123047,22.085256576538086,158.7584686279297,3.685542345046997,0.0,0.06767754256725311,99
1673420414.67979097,124805462,0,23.169065475463867,24.652481079101562,21.922914505004883,159.3677215576172,3.699658155441284,0.0,0.06766503304243088,99
1673420414.77969813,124905369,0,23.126651763916016,24.59777069091797,21.7918701171875,159.97256469726562,3.713646173477173,0.0,0.06750766932964325,99
1673420414.87971711,125005388,0,23.118515014648438,24.591041564941406,21.812740325927734,160.57862854003906,3.7276575565338135,0.0,0.06750766932964325,99
1673420414.97973514,125105406,0,23.136035919189453,24.640439987182617,22.27982521057129,161.1976776123047,3.7419798374176025,0.0,0.06752318143844604,99
1673420415.07974005,125205411,0,23.155759811401367,24.661710739135742,22.27982521057129,161.81663513183594,3.756312370300293,0.0,0.06759262084960938,99
1673420415.17982006,125305491,0,23.143983840942383,24.648265838623047,22.249135971069336,162.43455505371094,3.770613431930542,0.0,0.06761077046394348,99
1673420415.27974415,125405415,0,23.090612411499023,24.60732078552246,22.39674949645996,163.05682373046875,3.784982204437256,0.0,0.06772000342607498,99
1673420415.37967420,125505345,0,23.09486961364746,24.6130313873291,22.39183807373047,163.67852783203125,3.79934024810791,0.0,0.06779977679252625,99
1673420415.47972608,125605397,0,23.145992279052734,24.66273307800293,22.347339630126953,164.29966735839844,3.8137168884277344,0.0,0.06787116825580597,99
1673420415.57973719,125705408,0,23.186874389648438,24.630226135253906,21.275989532470703,164.89077758789062,3.827422857284546,0.0,0.06783942878246307,99
1673420415.67971015,125805381,0,23.223541259765625,24.636850357055664,20.835298538208008,165.46942138671875,3.8408610820770264,0.0,0.06783246248960495,99
1673420415.77969503,125905366,0,23.179981231689453,24.641267776489258,21.540529251098633,166.06771850585938,3.854729413986206,0.0,0.06783893704414368,99
1673420415.87973404,126005405,0,23.172607421875,24.630373001098633,21.496337890625,166.66513061523438,3.868572950363159,0.0,0.06781460344791412,99
1673420415.97968316,126105354,0,23.166959762573242,24.605030059814453,21.233333587646484,167.2546844482422,3.8822312355041504,0.0,0.06772704422473907,99
1673420416.07972717,126205398,0,23.178054809570312,24.58030891418457,20.746028900146484,167.83126831054688,3.8955953121185303,0.0,0.06759141385555267,99
1673420416.17977214,126305443,0,23.204872131347656,24.65426254272461,21.41378402709961,168.42640686035156,3.909405469894409,0.0,0.06768490374088287,98
1673420416.27973604,126405407,0,23.139005661010742,24.623685836791992,21.931812286376953,169.0354461669922,3.9234981536865234,0.0,0.06769530475139618,98
1673420416.37971020,126505381,0,23.211669921875,24.55948257446289,19.963735580444336,169.58990478515625,3.936367988586426,0.0,0.06751307845115662,98
1673420416.47969007,126605361,0,23.238285064697266,24.633512496948242,20.64840316772461,170.1634063720703,3.949695110321045,0.0,0.06757067888975143,98
1673420416.57969308,126705364,0,23.267292022705078,24.63399314880371,20.212316513061523,170.72491455078125,3.9627599716186523,0.0,0.0676172599196434,98
1673420416.67978501,126805456,0,23.235126495361328,24.62340545654297,20.529024124145508,171.29574584960938,3.9760231971740723,0.0,0.06762515753507614,98
1673420416.77970219,126905373,0,23.20918083190918,24.580270767211914,20.308063507080078,171.85943603515625,3.9891059398651123,0.0,0.06751455366611481,98
1673420416.87970400,127005375,0,23.185819625854492,24.58327865600586,20.69862937927246,172.4344482421875,4.002438068389893,0.0,0.06751455366611481,98
1673420416.97971010,127105381,0,23.20209503173828,24.654260635375977,21.508920669555664,173.03199768066406,4.016302585601807,0.0,0.06751455366611481,98
1673420417.07973909,127205410,0,23.236656188964844,24.613685607910156,20.397367477416992,173.59873962402344,4.029471397399902,0.0,0.06751014292240143,98
1673420417.17972302,127305394,0,23.30501365661621,24.59758186340332,19.159687042236328,174.1309814453125,4.04187536239624,0.0,0.06746291369199753,98
1673420417.27974510,127405416,0,23.252262115478516,24.579620361328125,19.700424194335938,174.67837524414062,4.054603576660156,0.0,0.06737711280584335,98
1673420417.37974310,127505414,0,23.15298080444336,24.578689575195312,21.13543701171875,175.2655029296875,4.068197250366211,0.0,0.06745586544275284,98
1673420417.47970605,127605377,0,23.152694702148438,24.619367599487305,21.760263442993164,175.86976623535156,4.082187652587891,0.0,0.06740139424800873,98
1673420417.57971001,127705381,0,23.15451431274414,24.646198272705078,22.17425537109375,176.4857940673828,4.096451282501221,0.0,0.06727098673582077,98
1673420417.67973208,127805403,0,23.18177604675293,24.632822036743164,21.594064712524414,177.0858154296875,4.110360622406006,0.0,0.06719648092985153,98
1673420417.77971721,127905388,0,23.15690803527832,24.590560913085938,21.31527328491211,177.6778564453125,4.124070644378662,0.0,0.06725946068763733,98
1673420417.87973809,128005409,0,23.1552791595459,24.5981388092041,21.44171142578125,178.2736358642578,4.137866020202637,0.0,0.06729220598936081,98
1673420417.97970200,128105373,0,23.221912384033203,24.62721824645996,20.867216110229492,178.85311889648438,4.151322841644287,0.0,0.06734511256217957,98
1673420418.07973003,128205401,0,23.235315322875977,24.646047592163086,20.919078826904297,179.43441772460938,4.164829254150391,0.0,0.06743758171796799,98
1673420418.17974114,128305412,0,23.2822265625,24.622940063476562,19.877805709838867,179.98667907714844,4.177687168121338,0.0,0.06744778901338577,98
1673420418.27968407,128405355,0,23.22966766357422,24.613773345947266,20.526260375976562,180.55657958984375,4.190925598144531,0.0,0.06743098050355911,98
1673420418.37968802,128505359,0,23.166767120361328,24.59880256652832,21.217988967895508,181.1460418701172,4.2045817375183105,0.0,0.0674915686249733,98
1673420418.47975016,128605421,0,23.197021484375,24.67437744140625,21.94715690612793,181.75611877441406,4.218733310699463,0.0,0.0673142671585083,98
1673420418.57971215,128705383,0,23.122526168823242,24.64350700378418,22.61634635925293,182.3841552734375,4.233255386352539,0.0,0.06725136190652847,98
1673420418.67973900,128805410,0,23.255517959594727,24.6552677154541,20.788650512695312,182.96182250976562,4.246689319610596,0.0,0.067332424223423,98
1673420418.77971411,128905385,0,23.233116149902344,24.618885040283203,20.591629028320312,183.53372192382812,4.259976387023926,0.0,0.06729765236377716,98
1673420418.87977719,129005448,0,23.202861785888672,24.616016387939453,20.998563766479492,184.11741638183594,4.273519992828369,0.0,0.06729765236377716,98
1673420418.97970200,129105373,0,23.22727394104004,24.62119483947754,20.717453002929688,184.69252014160156,4.2868781089782715,0.0,0.06728244572877884,98
1673420419.07990098,129205572,0,23.182279586791992,24.652976989746094,21.885778427124023,185.3017120361328,4.301000595092773,0.0,0.06719877570867538,98
1673420419.17969799,129305369,0,23.199989318847656,24.666799545288086,21.86583137512207,185.90789794921875,4.315063953399658,0.0,0.06708231568336487,98
1673420419.27974606,129405417,0,23.19146728515625,24.603105545043945,21.04336929321289,186.49278259277344,4.328628063201904,0.0,0.06708231568336487,98
1673420419.37982512,129505496,0,23.21856117248535,24.584741592407227,20.401357650756836,187.0599822998047,4.341797351837158,0.0,0.06696514040231705,98
1673420419.47968602,129605357,0,23.226455688476562,24.635604858398438,21.028705596923828,187.64334106445312,4.3553466796875,0.0,0.06701074540615082,98
1673420419.57972097,129705392,0,23.22669792175293,24.63246726989746,20.969717025756836,188.22608947753906,4.368881702423096,0.0,0.06703810393810272,98
1673420419.67976117,129805432,0,23.175193786621094,24.643239974975586,21.917388916015625,188.835205078125,4.382997989654541,0.0,0.06698085367679596,98
1673420419.77976298,129905434,0,23.18160629272461,24.586257934570312,20.970943450927734,189.4178009033203,4.396503448486328,0.0,0.06698085367679596,98
1673420419.87976718,130005438,0,23.097644805908203,24.59027862548828,22.254352569580078,190.0360565185547,4.410783767700195,0.0,0.06707153469324112,98
1673420419.97970819,130105379,0,23.157194137573242,24.649860382080078,22.28872299194336,190.65487670898438,4.425113677978516,0.0,0.0669696033000946,98
1673420420.07967615,130205347,0,23.137662887573242,24.645023345947266,22.53362274169922,191.28065490722656,4.4395928382873535,0.0,0.06689386069774628,98
1673420420.17971802,130305389,0,23.10377311706543,24.649110794067383,23.128986358642578,191.92344665527344,4.454443454742432,0.0,0.06681392341852188,98
1673420420.27969718,130405368,0,23.0982723236084,24.645408630371094,23.17658805847168,192.56716918945312,4.4693121910095215,0.0,0.06675423681735992,98
1673420420.37969708,130505368,0,23.10616683959961,24.590465545654297,22.196964263916016,193.18380737304688,4.483560085296631,0.0,0.06686946004629135,98
1673420420.47974801,130605419,0,23.13402557373047,24.603158950805664,21.970172882080078,193.79444885253906,4.497686386108398,0.0,0.06686946004629135,98
1673420420.57970214,130705373,0,23.207744598388672,24.631458282470703,21.28151512145996,194.3853759765625,4.5114006996154785,0.0,0.06689906865358353,98
1673420420.67973518,130805406,0,23.224782943725586,24.62148094177246,20.878875732421875,194.9654998779297,4.524874210357666,0.0,0.06689531356096268,98
1673420420.77973104,130905402,0,23.213775634765625,24.565570831298828,20.254358291625977,195.52821350097656,4.537937164306641,0.0,0.06674091517925262,98
1673420420.87975502,131005426,0,23.231199264526367,24.564645767211914,20.01651954650879,196.08441162109375,4.550858020782471,0.0,0.06661725789308548,98
1673420420.97977614,131105447,0,23.240007400512695,24.57296371459961,20.031557083129883,196.64100646972656,4.563793182373047,0.0,0.06654277443885803,98
1673420421.07969308,131205364,0,23.294002532958984,24.61482810974121,19.83286476135254,197.19151306152344,4.5766167640686035,0.0,0.06659777462482452,98
1673420421.17969203,131305363,0,23.29189682006836,24.597360610961914,19.603445053100586,197.736083984375,4.589301109313965,0.0,0.06659361720085144,98
1673420421.27976418,131405435,0,23.333829879760742,24.598325729370117,18.988441467285156,198.2639617919922,4.60161828994751,0.0,0.06659296900033951,98
1673420421.37976003,131505431,0,23.32847023010254,24.50119400024414,17.680788040161133,198.755126953125,4.613076210021973,0.0,0.0663275197148323,98
1673420421.47970915,131605380,0,23.339574813842773,24.577951431274414,18.670503616333008,199.27352905273438,4.625175476074219,0.0,0.06632796674966812,98
1673420421.57980704,131705478,0,23.368104934692383,24.553874969482422,17.89499855041504,199.77113342285156,4.63680362701416,0.0,0.06626269221305847,98
1673420421.67973018,131805401,0,23.348573684692383,24.609682083129883,19.003171920776367,200.2986297607422,4.649119853973389,0.0,0.06636304408311844,98
1673420421.77974820,131905419,0,23.284717559814453,24.592788696289062,19.721904754638672,200.8465118408203,4.661877155303955,0.0,0.0663258284330368,98
1673420421.87970614,132005377,0,23.208690643310547,24.565345764160156,20.438798904418945,201.41415405273438,4.675051212310791,0.0,0.0663764625787735,98
1673420421.97971606,132105387,0,23.207170486450195,24.59558868408203,20.932275772094727,201.99571228027344,4.688547611236572,0.0,0.06632902473211288,98
1673420422.07974911,132205420,0,23.21913719177246,24.622894287109375,21.20356559753418,202.58493041992188,4.702229022979736,0.0,0.0662037804722786,98
1673420422.17971110,132305382,0,23.266050338745117,24.629274368286133,20.59132194519043,203.15673828125,4.7155327796936035,0.0,0.0662037804722786,98
1673420422.27969003,132405361,0,23.209850311279297,24.587106704711914,20.796937942504883,203.73434448242188,4.728939056396484,0.0,0.06622397154569626,98
1673420422.37973309,132505404,0,23.212913513183594,24.583721160888672,20.690753936767578,204.30938720703125,4.7422871589660645,0.0,0.06625214219093323,98
1673420422.47978997,132605461,0,23.240774154663086,24.602558135986328,20.56462287902832,204.88099670410156,4.7555718421936035,0.0,0.06621969491243362,98
1673420422.57979417,132705465,0,23.244123458862305,24.624534606933594,20.876115798950195,205.4608612060547,4.769050598144531,0.0,0.06612396985292435,98
1673420422.67976809,132805439,0,23.23060417175293,24.590579986572266,20.56121253967285,206.03192138671875,4.7823166847229,0.0,0.066142737865448,98
1673420422.77975798,132905429,0,23.184768676757812,24.570261001586914,20.922149658203125,206.61306762695312,4.795790195465088,0.0,0.06622131168842316,98
1673420422.87975812,133005429,0,23.173852920532227,24.571216583251953,21.080196380615234,207.19876098632812,4.809362888336182,0.0,0.06628799438476562,98
1673420422.97979212,133105463,0,23.230817794799805,24.619434356689453,20.948232650756836,207.78089904785156,4.8228864669799805,0.0,0.06628799438476562,98
1673420423.07971215,133205383,0,23.248144149780273,24.60671043395996,20.48544692993164,208.3495330810547,4.836106300354004,0.0,0.06631864607334137,98
1673420423.17967105,133305342,0,23.246612548828125,24.603199005126953,20.451074600219727,208.9174346923828,4.849308013916016,0.0,0.06633324921131134,98
1673420423.27977300,133405444,0,23.268251419067383,24.61305046081543,20.2617244720459,209.4808807373047,4.862418174743652,0.0,0.06637142598628998,98
1673420423.37976098,133505432,0,23.229570388793945,24.575244903564453,20.274919509887695,210.04405212402344,4.875500202178955,0.0,0.06637142598628998,98
1673420423.47969103,133605362,0,23.212413787841797,24.555635452270508,20.237957000732422,210.60586547851562,4.888541221618652,0.0,0.06637142598628998,98
1673420423.57973599,133705407,0,23.230722427368164,24.57880210876465,20.311132431030273,211.1703643798828,4.9016547203063965,0.0,0.06637142598628998,98
1673420423.67975020,133805421,0,23.235986709594727,24.60663414001465,20.651165008544922,211.744140625,4.914986610412598,0.0,0.06637142598628998,98
1673420423.77973318,133905404,0,23.218660354614258,24.56563949584961,20.2945613861084,212.3077392578125,4.928072452545166,0.0,0.06637142598628998,98
1673420423.87970304,134005374,0,23.166671752929688,24.591354370117188,21.469329833984375,212.90408325195312,4.941887855529785,0.0,0.06635893881320953,98
1673420423.97975802,134105429,0,23.225263595581055,24.594247817993164,20.629989624023438,213.4774932861328,4.95520544052124,0.0,0.06635893881320953,98
1673420424.07982898,134205500,0,23.173852920532227,24.654592514038086,22.38201904296875,214.09970092773438,4.9696245193481445,0.0,0.06615752726793289,98
1673420424.17976809,134305439,0,23.251209259033203,24.603975296020508,20.441253662109375,214.66722106933594,4.9828200340271,0.0,0.06617824733257294,98
1673420424.27985811,134405529,0,23.118324279785156,24.57213592529297,21.941940307617188,215.27728271484375,4.996923923492432,0.0,0.06625720858573914,98
1673420424.37971711,134505388,0,23.094655990600586,24.587228775024414,22.518823623657227,215.90200805664062,5.011351585388184,0.0,0.06628109514713287,98
1673420424.47975397,134605425,0,23.069690704345703,24.64478302001953,23.819793701171875,216.56396484375,5.026622772216797,0.0,0.06612534821033478,98
1673420424.57973218,134705403,0,23.056669235229492,24.649045944213867,24.136503219604492,217.23426818847656,5.042077541351318,0.0,0.06597381085157394,98
1673420424.67971206,134805383,0,23.011003494262695,24.64750099182129,24.85431480407715,217.92454528808594,5.057961463928223,0.0,0.06584357470273972,98
1673420424.77977109,134905442,0,22.973567962646484,24.646509170532227,25.451522827148438,218.63211059570312,5.074216842651367,0.0,0.0657304897904396,98
1673420424.87972403,135005395,0,22.951452255249023,24.598194122314453,25.034460067749023,219.3272247314453,5.090170383453369,0.0,0.06577897816896439,98
1673420424.97970319,135105374,0,22.97576904296875,24.61972999572754,25.001008987426758,220.02162170410156,5.1061248779296875,0.0,0.06575577706098557,98
1673420425.07971001,135205381,0,22.994916915893555,24.650001525878906,25.2139892578125,220.7221221923828,5.122232913970947,0.0,0.06564152240753174,98
1673420425.17972708,135305398,0,22.991365432739258,24.672706604003906,25.681482315063477,221.4356689453125,5.138638496398926,0.0,0.06546897441148758,98
1673420425.27972198,135405393,0,22.91842269897461,24.616682052612305,25.932415008544922,222.156005859375,5.155147552490234,0.0,0.06548787653446198,98
1673420425.37974215,135505413,0,22.91478729248047,24.594701766967773,25.619083404541016,222.86776733398438,5.171457290649414,0.0,0.06557278335094452,98
1673420425.47971010,135605381,0,22.981325149536133,24.639869689941406,25.317718505859375,223.57089233398438,5.187615871429443,0.0,0.06550925225019455,98
1673420425.57971406,135705385,0,22.990224838256836,24.648815155029297,25.35116958618164,224.2752685546875,5.20380973815918,0.0,0.06542462855577469,98
1673420425.67984414,135805515,0,22.98467445373535,24.634048461914062,25.221967697143555,224.97683715820312,5.219934940338135,0.0,0.06539434939622879,98
1673420425.77973199,135905403,0,22.97816276550293,24.588302612304688,24.62200164794922,225.6600799560547,5.2356343269348145,0.0,0.06539434939622879,98
1673420425.87979603,136005467,0,23.006216049194336,24.602142333984375,24.421600341796875,226.3389434814453,5.251252174377441,0.0,0.06534893810749054,98
1673420425.97973204,136105403,0,23.052169799804688,24.66130828857422,24.577503204345703,227.02127075195312,5.266981601715088,0.0,0.06547203660011292,98
1673420426.07976198,136205433,0,23.024450302124023,24.668764114379883,25.114761352539062,227.7191619873047,5.283050060272217,0.0,0.06547203660011292,98
1673420426.17971420,136305385,0,23.02287483215332,24.699846267700195,25.61355972290039,228.4303741455078,5.299424171447754,0.0,0.06547203660011292,98
1673420426.27980208,136405473,0,23.02162742614746,24.670228958129883,25.18023109436035,229.1304931640625,5.315541744232178,0.0,0.06547203660011292,98
1673420426.37973905,136505410,0,23.028234481811523,24.674182891845703,25.13972282409668,229.82839965820312,5.331613540649414,0.0,0.06547203660011292,98
1673420426.47970104,136605372,0,22.98055648803711,24.643646240234375,25.390756607055664,230.5335235595703,5.347817420959473,0.0,0.06549978256225586,98
